,playerID,birthYear,birthCountry,birthCity,deathYear,deathCountry,deathCity,nameFirst,nameLast,Birthplace,geoname_id,continent_code,country_iso_code,country_name,city_name,registered_country_geoname_id,latitude,longitude,lat,lng
0,aardsda01,1981.0,United States,Denver,,,,David,Aardsma,United States Denver,4463523.0,,US,United States,Denver,6252001.0,35.4837,-80.9898,39.7621,-104.8759
5,aaronha01,1934.0,United States,Mobile,,,,Hank,Aaron,United States Mobile,4076598.0,,US,United States,Mobile,6252001.0,30.5928,-88.1946,30.6783,-88.1162
6,aaronto01,1939.0,United States,Mobile,1984.0,USA,Atlanta,Tommie,Aaron,United States Mobile,4076598.0,,US,United States,Mobile,6252001.0,30.5928,-88.1946,30.6783,-88.1162
7,aasedo01,1954.0,United States,Orange,,,,Don,Aase,United States Orange,4716805.0,,US,United States,Orange,6252001.0,30.0709,-93.8659,38.2486,-78.1127
25,abadan01,1972.0,United States,Palm Beach,,,,Andy,Abad,United States Palm Beach,4167505.0,,US,United States,Palm Beach,6252001.0,26.7206,-80.0388,26.6852,-80.0403
26,abadfe01,1985.0,Dominican Republic,La Romana,,,,Fernando,Abad,Dominican Republic La Romana,3500957.0,,DO,Dominican Republic,La Romana,,18.417,-68.9666,18.417,-68.9666
27,abadijo01,1850.0,United States,Philadelphia,1905.0,USA,Pemberton,John,Abadie,United States Philadelphia,4403125.0,,US,United States,Philadelphia,,40.0076,-75.134,40.0076,-75.134
37,abbated01,1877.0,United States,Latrobe,1957.0,USA,Fort Lauderdale,Ed,Abbaticchio,United States Latrobe,5197227.0,,US,United States,Latrobe,6252001.0,40.2917,-79.4054,40.3125,-79.3825
38,abbeybe01,1869.0,United States,Essex,1962.0,USA,Colchester,Bert,Abbey,United States Essex,4354428.0,,US,United States,Essex,6252001.0,39.3055,-76.4518,,
45,abbeych01,1866.0,United States,Falls City,1926.0,USA,San Francisco,Charlie,Abbey,United States Falls City,4690097.0,,US,United States,Falls City,6252001.0,28.9814,-98.0156,,
48,abbotda01,1862.0,United States,Portage,1930.0,USA,Ottawa Lake,Dan,Abbott,United States Portage,4925006.0,,US,United States,Portage,6252001.0,41.5681,-87.1749,43.549,-89.4659
68,abbotfr01,1874.0,United States,Versailles,1935.0,USA,Los Angeles,Fred,Abbott,United States Versailles,4266266.0,,US,United States,Versailles,6252001.0,39.0511,-85.2235,38.0488,-84.726
72,abbotgl01,1951.0,United States,Little Rock,,,,Glenn,Abbott,United States Little Rock,4119403.0,,US,United States,Little Rock,6252001.0,34.6725,-92.3529,34.7255,-92.3581
74,abbotje01,1972.0,United States,Atlanta,,,,Jeff,Abbott,United States Atlanta,4180439.0,,US,United States,Atlanta,6252001.0,33.6026,-84.4769,33.1136,-94.1672
90,abbotji01,1967.0,United States,Flint,,,,Jim,Abbott,United States Flint,4691498.0,,US,United States,Flint,6252001.0,32.2079,-95.3948,43.0236,-83.6922
92,abbotku01,1969.0,United States,Zanesville,,,,Kurt,Abbott,United States Zanesville,4528923.0,,US,United States,Zanesville,6252001.0,39.9275,-82.0032,39.9567,-82.0133
94,abbotky01,1968.0,United States,Newburyport,,,,Kyle,Abbott,United States Newburyport,4945256.0,,US,United States,Newburyport,2017370.0,42.8133,-70.8814,42.8124,-70.8879
96,abbotpa01,1967.0,United States,Van Nuys,,,,Paul,Abbott,United States Van Nuys,5405693.0,,US,United States,Van Nuys,6252001.0,34.1781,-118.4574,,
97,aberal01,1927.0,United States,Cleveland,1993.0,USA,Garfield Heights,Al,Aber,United States Cleveland,4055815.0,,US,United States,Cleveland,6252001.0,33.9778,-86.5598,30.3368,-95.0924
178,abercre01,1980.0,United States,Columbus,,,,Reggie,Abercrombie,United States Columbus,4106350.0,,US,United States,Columbus,,43.3354,-89.03,43.3354,-89.03
262,abernbi01,1929.0,United States,Torrance,2006.0,USA,Yucaipa,Bill,Abernathie,United States Torrance,5403022.0,,US,United States,Torrance,6252001.0,33.8104,-118.3531,33.8346,-118.3417
263,abernbr01,1977.0,United States,Atlanta,,,,Brent,Abernathy,United States Atlanta,4180439.0,,US,United States,Atlanta,6252001.0,33.6026,-84.4769,33.1136,-94.1672
280,abernte02,1933.0,United States,Stanley,2004.0,USA,Gastonia,Ted,Abernathy,United States Stanley,4493226.0,,US,United States,Stanley,6252001.0,35.3516,-81.0959,,
288,abernwo01,1915.0,United States,Forest City,1994.0,USA,Louisville,Woody,Abernathy,United States Forest City,4386908.0,,US,United States,Forest City,,35.3339,-81.8702,35.3339,-81.8702
292,aberscl01,1921.0,United States,Chicago,1973.0,USA,Vallejo,Cliff,Aberson,United States Chicago,4887398.0,,US,United States,Chicago,6252001.0,41.6642,-87.5612,41.8373,-87.6861
293,ablesha01,1883.0,United States,Terrell,1951.0,USA,San Antonio,Harry,Ables,United States Terrell,4736028.0,,US,United States,Terrell,6252001.0,32.7332,-96.195,32.7328,-96.292
294,abnersh01,1966.0,United States,Hamilton,,,,Shawn,Abner,United States Hamilton,4065965.0,,US,United States,Hamilton,6252001.0,34.1534,-88.0085,34.1346,-87.9755
336,abramca01,1924.0,United States,Philadelphia,1997.0,USA,Fort Lauderdale,Cal,Abrams,United States Philadelphia,4403125.0,,US,United States,Philadelphia,,40.0076,-75.134,40.0076,-75.134
346,abramge01,1899.0,United States,Seattle,1986.0,USA,Clearwater,George,Abrams,United States Seattle,5809844.0,,US,United States,Seattle,6252001.0,47.3957,-122.3036,47.6211,-122.3244
347,abregjo01,1962.0,United States,Corpus Christi,,,,Johnny,Abrego,United States Corpus Christi,4683416.0,,US,United States,Corpus Christi,6252001.0,27.6349,-97.3103,27.7173,-97.3822
348,abreubo01,1974.0,Venezuela,Maracay,,,,Bobby,Abreu,Venezuela Maracay,3632998.0,SA,VE,Venezuela,Maracay,,10.2469,-67.5958,10.2469,-67.5958
349,abreujo01,1913.0,United States,Oakland,1993.0,USA,Hayward,Joe,Abreu,United States Oakland,4166628.0,,US,United States,Oakland,6252001.0,28.5547,-81.6322,41.0313,-74.2408
385,abreujo02,1987.0,Cuba,Cienfuegos,,,,Jose,Abreu,Cuba Cienfuegos,,,,,,,22.1444,-80.4403,22.1444,-80.4403
387,abreuto01,1984.0,Dominican Republic,Puerto Plata,,,,Tony,Abreu,Dominican Republic Puerto Plata,3493175.0,,DO,Dominican Republic,Puerto Plata,,19.7902,-70.6902,19.7902,-70.6902
390,accarje01,1981.0,United States,Phoenix,,,,Jeremy,Accardo,United States Phoenix,4365339.0,,US,United States,Phoenix,6252001.0,39.4833,-76.5776,33.5722,-112.0891
395,acevejo01,1977.0,Dominican Republic,Santo Domingo,,,,Jose,Acevedo,Dominican Republic Santo Domingo,3492908.0,,DO,Dominican Republic,Santo Domingo,,18.4701,-69.9001,18.4701,-69.9001
397,achteaj01,1988.0,United States,Toledo,,,,A. J.,Achter,United States Toledo,4251330.0,,US,United States,Toledo,6252001.0,39.2772,-88.2468,41.6639,-83.5822
402,ackerji01,1958.0,United States,Freer,,,,Jim,Acker,United States Freer,4692359.0,,US,United States,Freer,6252001.0,27.88,-98.6061,,
403,ackerto01,1930.0,United States,Paterson,,,,Tom,Acker,United States Paterson,5102466.0,,US,United States,Paterson,6252001.0,40.897,-74.1573,40.9147,-74.1624
404,ackledu01,1988.0,United States,Winston-Salem,,,,Dustin,Ackley,United States Winston-Salem,4499612.0,,US,United States,Winston-Salem,6252001.0,36.0403,-80.1933,36.1029,-80.261
405,acklefr01,1937.0,United States,Hayward,2002.0,USA,Duluth,Fritz,Ackley,United States Hayward,5255882.0,,US,United States,Hayward,6252001.0,45.9552,-91.2783,37.6328,-122.0772
412,acrema01,1968.0,United States,Concord,,,,Mark,Acre,United States Concord,4189077.0,,US,United States,Concord,6252001.0,33.0998,-84.447,43.2305,-71.5595
443,acunaro01,1997.0,Venezuela,La Guaira,,,,Ronald,Acuna,Venezuela La Guaira,3637721.0,SA,VE,Venezuela,La Guaira,,10.6004,-66.93,10.6004,-66.93
444,adairbi99,1913.0,United States,Mobile,2002.0,USA,Bay Minette,Bill,Adair,United States Mobile,4076598.0,,US,United States,Mobile,6252001.0,30.5928,-88.1946,30.6783,-88.1162
445,adairje01,1936.0,United States,Sand Springs,1987.0,USA,Tulsa,Jerry,Adair,United States Sand Springs,4550659.0,,US,United States,Sand Springs,6252001.0,36.1341,-96.1426,36.1342,-96.1283
446,adairji01,1907.0,United States,Waxahachie,1982.0,USA,Farmers Branch,Jimmy,Adair,United States Waxahachie,4740328.0,,US,United States,Waxahachie,6252001.0,32.3773,-96.9162,32.4036,-96.8428
447,adamecr01,1991.0,Dominican Republic,Santo Domingo,,,,Cristhian,Adames,Dominican Republic Santo Domingo,3492908.0,,DO,Dominican Republic,Santo Domingo,,18.4701,-69.9001,18.4701,-69.9001
448,adamewi01,1995.0,Dominican Republic,Santiago,,,,Willy,Adames,Dominican Republic Santiago,,,,,,,19.5,-70.67,19.5,-70.67
449,adamja01,1991.0,United States,Overland Park,,,,Jason,Adam,United States Overland Park,4276873.0,,US,United States,Overland Park,6252001.0,38.8591,-94.6314,38.887,-94.687
450,adamsac01,1910.0,United States,Willows,2006.0,USA,Albany,Ace,Adams,United States Willows,5409777.0,,US,United States,Willows,6252001.0,39.5353,-122.2597,39.5147,-122.1992
451,adamsau01,1986.0,United States,Montgomery,,,,Austin,Adams,United States Montgomery,4076784.0,,US,United States,Montgomery,6252001.0,32.2334,-86.2085,41.1709,-76.874
487,adamsau02,1991.0,United States,Tampa,,,,Austin,Adams,United States Tampa,4174757.0,,US,United States,Tampa,6252001.0,27.872,-82.4388,27.9937,-82.4454
489,adamsba01,1882.0,United States,Tipton,1968.0,USA,Silver Spring,Babe,Adams,United States Tipton,4280484.0,,US,United States,Tipton,,40.2817,-86.0423,40.2817,-86.0423
497,adamsbe01,1891.0,United States,Wharton,1940.0,USA,Los Angeles,Bert,Adams,United States Wharton,4741325.0,,US,United States,Wharton,6252001.0,29.3205,-96.0858,40.8999,-74.5808
503,adamsbo01,1901.0,United States,Holyoke,1996.0,USA,Lemoyne,Bob,Adams,United States Holyoke,4939783.0,,US,United States,Holyoke,6252001.0,42.202,-72.6262,42.2126,-72.6411
505,adamsbo02,1907.0,United States,Birmingham,1970.0,USA,Jacksonville,Bob,Adams,United States Birmingham,4049979.0,,US,United States,Birmingham,6252001.0,33.3555,-86.8274,33.5276,-86.7988
509,adamsbo03,1921.0,United States,Tuolumne,1997.0,USA,Gig Harbor,Bobby,Adams,United States Tuolumne,5403968.0,,US,United States,Tuolumne,6252001.0,37.9678,-120.2357,,
510,adamsbo04,1952.0,United States,Pittsburgh,,,,Bob,Adams,United States Pittsburgh,5206379.0,,US,United States,Pittsburgh,6252001.0,40.3323,-80.081,40.4396,-79.9763
511,adamsbu01,1915.0,United States,Trinidad,1990.0,USA,Rancho Mirage,Buster,Adams,United States Trinidad,4737501.0,,US,United States,Trinidad,6252001.0,32.1383,-96.0831,37.1748,-104.4907
514,adamsch01,1994.0,United States,Scottsdale,,,,Chance,Adams,United States Scottsdale,5313457.0,,US,United States,Scottsdale,6252001.0,33.4669,-111.9151,33.6872,-111.865
516,adamsda02,1987.0,United States,Margate,,,,David,Adams,United States Margate,,,,,,,26.2465,-80.2119,26.2465,-80.2119
517,adamsdi01,1920.0,United States,Tuolumne,2016.0,USA,Fallbrook,Dick,Adams,United States Tuolumne,5403968.0,,US,United States,Tuolumne,6252001.0,37.9678,-120.2357,,
520,adamsdo01,1943.0,United States,Blue River,,,,Doug,Adams,United States Blue River,5714876.0,,US,United States,Blue River,6252001.0,44.1755,-122.1217,,
521,adamsge01,1855.0,United States,Worcester,1920.0,USA,Clarkston,George,Adams,United States Worcester,4956184.0,,US,United States,Worcester,6252001.0,42.2303,-71.7938,42.2705,-71.8079
525,adamsgl01,1947.0,United States,Northbridge,,,,Glenn,Adams,United States Northbridge,4945848.0,,US,United States,Northbridge,6252001.0,42.1494,-71.6564,,
526,adamshe01,1928.0,United States,Hollywood,2012.0,USA,Tulsa,Herb,Adams,United States Hollywood,4067814.0,,US,United States,Hollywood,,26.0293,-80.1678,26.0293,-80.1678
538,adamsjo02,1971.0,United States,Lakewood,,,,Joel,Adamson,United States Lakewood,4635340.0,,US,United States,Lakewood,6252001.0,36.2416,-86.6117,47.1628,-122.5299
578,adamska01,1891.0,United States,Columbus,1967.0,USA,Everett,Karl,Adams,United States Columbus,4106350.0,,US,United States,Columbus,,43.3354,-89.03,43.3354,-89.03
662,adamsla01,1989.0,United States,Talihina,,,,Lane,Adams,United States Talihina,4552725.0,,US,United States,Talihina,6252001.0,34.7381,-94.9978,,
663,adamsma01,1988.0,United States,Philipsburg,,,,Matt,Adams,United States Philipsburg,5205806.0,,US,United States,Philipsburg,6252001.0,40.8863,-78.219,40.8952,-78.2145
665,adamsmi01,1947.0,United States,San Diego,,,,Mike,Adamson,United States San Diego,4726311.0,,US,United States,San Diego,,32.8312,-117.1226,32.8312,-117.1226
667,adamsmi02,1948.0,United States,Cincinnati,,,,Mike,Adams,United States Cincinnati,4508722.0,,US,United States,Cincinnati,6252001.0,39.0584,-84.3396,39.1412,-84.5059
669,adamsmi03,1978.0,United States,Corpus Christi,,,,Mike,Adams,United States Corpus Christi,4683416.0,,US,United States,Corpus Christi,6252001.0,27.6349,-97.3103,27.7173,-97.3822
670,adamsre01,1921.0,United States,Parlier,2017.0,USA,Fresno,Red,Adams,United States Parlier,5381325.0,,US,United States,Parlier,6252001.0,36.6103,-119.5375,36.6082,-119.5437
671,adamsri01,1878.0,United States,Paris,1955.0,USA,Paris,Rick,Adams,United States Paris,4125402.0,,US,United States,Paris,6252001.0,35.2941,-93.7265,33.6689,-95.5462
711,adamsri02,1959.0,United States,Upland,2011.0,USA,Rancho Cucamonga,Ricky,Adams,United States Upland,4927510.0,,US,United States,Upland,6252001.0,40.4548,-85.499,34.1178,-117.6603
713,adamsru01,1980.0,United States,Laurinburg,,,,Russ,Adams,United States Laurinburg,4475347.0,,US,United States,Laurinburg,6252001.0,34.7599,-79.4673,34.7596,-79.4781
714,adamsry01,1987.0,United States,New Orleans,,,,Ryan,Adams,United States New Orleans,4335045.0,,US,United States,New Orleans,6252001.0,29.9198,-89.999,30.0687,-89.9288
716,adamssp02,1898.0,United States,Layton,1970.0,USA,Salt Lake City,Spencer,Adams,United States Layton,5777107.0,,US,United States,Layton,6252001.0,41.0846,-111.9274,41.0771,-111.9622
717,adamste01,1973.0,United States,Mobile,,,,Terry,Adams,United States Mobile,4076598.0,,US,United States,Mobile,6252001.0,30.5928,-88.1946,30.6783,-88.1162
718,adamswi01,1890.0,United States,Clearfield,1937.0,USA,Albany,Willie,Adams,United States Clearfield,4287995.0,,US,United States,Clearfield,,41.0216,-78.439,41.0216,-78.439
724,adamswi02,1972.0,United States,Gallup,,,,Willie,Adams,United States Gallup,5468773.0,,US,United States,Gallup,6252001.0,35.5065,-108.7414,35.5178,-108.7474
725,adcocjo01,1927.0,United States,Coushatta,1999.0,USA,Coushatta,Joe,Adcock,United States Coushatta,4321014.0,,US,United States,Coushatta,6252001.0,32.0231,-93.2648,,
726,adcocna01,1988.0,United States,Elizabethtown,,,,Nathan,Adcock,United States Elizabethtown,4237790.0,,US,United States,Elizabethtown,6252001.0,37.4665,-88.2867,40.1534,-76.5991
738,addisbo01,1925.0,United States,Mineral,2016.0,USA,Mentor,Bob,Addis,United States Mineral,4773410.0,,US,United States,Mineral,6252001.0,37.9986,-77.8781,,
739,adducji01,1959.0,United States,Chicago,,,,Jim,Adduci,United States Chicago,4887398.0,,US,United States,Chicago,6252001.0,41.6642,-87.5612,41.8373,-87.6861
740,adducji02,1985.0,Canada,Burnaby,,,,Jim,Adduci,Canada Burnaby,5911606.0,,CA,Canada,Burnaby,6251999.0,49.2038,-122.9921,,
741,addybo01,1842.0,Canada,Port Hope,1910.0,USA,Pocatello,Bob,Addy,Canada Port Hope,6111881.0,,CA,Canada,Port Hope,6251999.0,44.0168,-78.3995,,
742,adenhni01,1986.0,United States,Silver Spring,2009.0,USA,Orange,Nick,Adenhart,United States Silver Spring,4369596.0,,US,United States,Silver Spring,6252001.0,38.9907,-77.0261,,
743,aderhmo01,1915.0,United States,Mount Olive,1955.0,USA,Sarasota,Morrie,Aderholt,United States Mount Olive,4077867.0,,US,United States,Mount Olive,6252001.0,33.6768,-86.8717,35.1997,-78.0663
747,adkinde01,1918.0,United States,Norcatur,1998.0,USA,Santa Monica,Dewey,Adkins,United States Norcatur,5446057.0,,US,United States,Norcatur,6252001.0,39.8447,-100.2007,,
748,adkindi01,1920.0,United States,Electra,1955.0,USA,Electra,Dick,Adkins,United States Electra,4688739.0,,US,United States,Electra,6252001.0,34.0362,-98.9155,,
749,adkindo01,1872.0,United States,Troy,1934.0,USA,Durham,Doc,Adkins,United States Troy,4094163.0,,US,United States,Troy,6252001.0,31.7595,-86.0107,42.7354,-73.6751
845,adkingr01,1897.0,United States,Jacksonville,1966.0,USA,Little Rock,Grady,Adkins,United States Jacksonville,4069553.0,,US,United States,Jacksonville,6252001.0,33.830999999999996,-85.7752,30.3322,-81.6749
893,adkinhe01,1874.0,United States,Fulton,1953.0,USA,Mexico,Harry,Atkinson,United States Fulton,4063555.0,,US,United States,Fulton,,43.3171,-76.4162,43.3171,-76.4162
915,adkinjo01,1977.0,United States,Huntington,,,,Jon,Adkins,United States Huntington,4115654.0,,US,United States,Huntington,6252001.0,35.0963,-94.3313,38.4109,-82.4344
931,adkinst01,1964.0,United States,Chicago,,,,Steve,Adkins,United States Chicago,4887398.0,,US,United States,Chicago,6252001.0,41.6642,-87.5612,41.8373,-87.6861
932,adlemti01,1987.0,United States,Staten Island,,,,Tim,Adleman,United States Staten Island,5139568.0,,US,United States,Staten Island,6252001.0,40.5085,-74.2445,40.5834,-74.1496
933,adlesda01,1943.0,United States,Long Beach,2016.0,USA,Long Beach,Dave,Adlesh,United States Long Beach,4434069.0,,US,United States,Long Beach,6252001.0,30.3598,-89.1646,40.5887,-73.666
946,afenitr01,1963.0,United States,Escondido,,,,Troy,Afenir,United States Escondido,5346827.0,,US,United States,Escondido,6252001.0,33.0895,-117.1128,33.1347,-117.0722
947,affelje01,1979.0,United States,Phoenix,,,,Jeremy,Affeldt,United States Phoenix,4365339.0,,US,United States,Phoenix,6252001.0,39.4833,-76.5776,33.5722,-112.0891
951,agbaybe01,1971.0,United States,Honolulu,,,,Benny,Agbayani,United States Honolulu,5856195.0,,US,United States,Honolulu,6252001.0,21.2811,-157.8266,21.3294,-157.846
952,ageeto01,1942.0,United States,Magnolia,2001.0,USA,New York,Tommie,Agee,United States Magnolia,4120323.0,,US,United States,Magnolia,6252001.0,33.2426,-93.23,33.2774,-93.2261
960,agganha01,1929.0,United States,Lynn,1955.0,USA,Cambridge,Harry,Agganis,United States Lynn,4923096.0,,US,United States,Lynn,6252001.0,40.0519,-84.93,42.4779,-70.9663
962,aglerjo01,1887.0,United States,Coshocton,1971.0,USA,Massillon,Joe,Agler,United States Coshocton,5151186.0,,US,United States,Coshocton,6252001.0,40.2754,-81.866,40.2619,-81.848
963,agnewsa01,1887.0,United States,Farmington,1951.0,USA,Sonoma,Sam,Agnew,United States Farmington,4110443.0,,US,United States,Farmington,6252001.0,36.0436,-94.2539,36.7555,-108.1823
1061,aguilch01,1979.0,United States,Redwood City,,,,Chris,Aguila,United States Redwood City,5386834.0,,US,United States,Redwood City,6252001.0,37.4245,-122.296,37.5026,-122.2252
1062,aguilje01,1990.0,Venezuela,Maracay,,,,Jesus,Aguilar,Venezuela Maracay,3632998.0,SA,VE,Venezuela,Maracay,,10.2469,-67.5958,10.2469,-67.5958
1063,aguilri01,1961.0,United States,San Gabriel,,,,Rick,Aguilera,United States San Gabriel,5392034.0,,US,United States,San Gabriel,6252001.0,34.0899,-118.0871,34.0948,-118.099
1064,aguirha01,1931.0,United States,Azusa,1994.0,USA,Bloomfield Hills,Hank,Aguirre,United States Azusa,5325423.0,,US,United States,Azusa,6252001.0,34.123000000000005,-117.8988,34.1386,-117.9124
1065,ahearch01,1858.0,United States,Troy,1919.0,USA,Troy,Bill,Ahearn,United States Troy,4094163.0,,US,United States,Troy,6252001.0,31.7595,-86.0107,42.7354,-73.6751
1161,ahearpa01,1969.0,United States,San Francisco,,,,Pat,Ahearne,United States San Francisco,5391959.0,,US,United States,San Francisco,6252001.0,37.6811,-122.4806,37.7562,-122.443
1162,ahmedni01,1990.0,United States,Springfield,,,,Nick,Ahmed,United States Springfield,4224162.0,,US,United States,Springfield,6252001.0,32.3697,-81.3618,30.1689,-85.6092
1342,aikenwi01,1954.0,United States,Seneca,,,,Willie,Aikens,United States Seneca,4279170.0,,US,United States,Seneca,6252001.0,39.8473,-96.0316,34.6816,-82.9609
1349,aingeda01,1959.0,United States,Eugene,,,,Danny,Ainge,United States Eugene,4385819.0,,US,United States,Eugene,,44.0563,-123.1173,44.0563,-123.1173
1351,ainswku01,1978.0,United States,Baton Rouge,,,,Kurt,Ainsworth,United States Baton Rouge,4315588.0,,US,United States,Baton Rouge,6252001.0,30.3608,-91.0917,30.4423,-91.1314
1352,aitchra01,1887.0,United States,Tyndall,1958.0,USA,Columbus,Raleigh,Aitchison,United States Tyndall,5232489.0,,US,United States,Tyndall,6252001.0,42.99,-97.8633,,
1353,aitonge01,1890.0,United States,Kingman,1976.0,USA,North Hollywood,George,Aiton,United States Kingman,4259918.0,,US,United States,Kingman,6252001.0,40.0174,-87.2569,35.217,-114.0105
1356,akejo01,1861.0,United States,Altoona,1887.0,USA,La Crosse,John,Ake,United States Altoona,4145953.0,,US,United States,Altoona,6252001.0,29.0219,-81.6323,44.803,-91.4386
1374,akerfda01,1962.0,United States,Denver,2012.0,USA,Phoenix,Darrel,Akerfelds,United States Denver,4463523.0,,US,United States,Denver,6252001.0,35.4837,-80.9898,39.7621,-104.8759
1379,akerja01,1940.0,United States,Tulare,,,,Jack,Aker,United States Tulare,5232443.0,,US,United States,Tulare,,36.1996,-119.34,36.1996,-119.34
1381,akersbi01,1904.0,United States,Chattanooga,1962.0,USA,Chattanooga,Bill,Akers,United States Chattanooga,4532895.0,,US,United States,Chattanooga,6252001.0,34.4262,-98.6514,35.0657,-85.2488
1383,akersje01,1887.0,United States,Shelbyville,1979.0,USA,Bay Pines,Jerry,Akers,United States Shelbyville,4249857.0,,US,United States,Shelbyville,6252001.0,39.458,-88.8058,35.4987,-86.4516
1404,albagi01,1960.0,Dominican Republic,Santiago,,,,Gibson,Alba,Dominican Republic Santiago,,,,,,,19.5,-70.67,19.5,-70.67
1405,albaljo01,1982.0,Puerto Rico,San Juan,,,,Jonathan,Albaladejo,Puerto Rico San Juan,4568127.0,,PR,Puerto Rico,San Juan,4566966.0,18.4686,-66.1057,,
1406,albanjo01,1933.0,United States,New York,2000.0,USA,New York,Joe,Albanese,United States New York,5128581.0,,US,United States,New York,6252001.0,40.6052,-74.1795,40.6943,-73.9249
1407,alberan01,1985.0,Canada,North Battleford,,,,Andrew,Albers,Canada North Battleford,6089404.0,,CA,Canada,North Battleford,6251999.0,52.7834,-108.2847,52.7666,-108.2833
1408,alberbu01,1950.0,United States,Williamsport,,,,Butch,Alberts,United States Williamsport,4373719.0,,US,United States,Williamsport,,41.2398,-77.0371,41.2398,-77.0371
1412,albercy01,1882.0,United States,Grand Rapids,1917.0,USA,Fort Wayne,Cy,Alberts,United States Grand Rapids,4994358.0,,US,United States,Grand Rapids,6252001.0,42.8697,-85.6628,47.238,-93.5327
1418,albergu01,1860.0,United States,Reading,1912.0,USA,Idaho Springs,Gus,Alberts,United States Reading,4948462.0,,US,United States,Reading,6252001.0,42.528,-71.109,40.34,-75.9266
1425,alberjo01,1969.0,Puerto Rico,San Juan,,,,Jose,Alberro,Puerto Rico San Juan,4568127.0,,PR,Puerto Rico,San Juan,4566966.0,18.4686,-66.1057,,
1426,alberma01,1983.0,United States,Houston,,,,Matt,Albers,United States Houston,4115450.0,,US,United States,Houston,,29.7868,-95.3905,29.7868,-95.3905
1435,albosed01,1918.0,United States,Saginaw,2003.0,USA,Saginaw,Ed,Albosta,United States Saginaw,5007989.0,,US,United States,Saginaw,6252001.0,43.3869,-84.0926,32.8654,-97.3653
1440,albrija01,1921.0,United States,St. Petersburg,1991.0,USA,San Diego,Jack,Albright,United States St. Petersburg,4171563.0,,US,United States,St. Petersburg,6252001.0,27.6705,-82.7119,,
1442,alburvi01,1947.0,United States,Key West,2017.0,USA,Tampa,Vic,Albury,United States Key West,4160812.0,,US,United States,Key West,2635167.0,24.5615,-81.7818,24.5636,-81.7769
1444,alcanar01,1991.0,Dominican Republic,Santo Domingo,,,,Arismendy,Alcantara,Dominican Republic Santo Domingo,3492908.0,,DO,Dominican Republic,Santo Domingo,,18.4701,-69.9001,18.4701,-69.9001
1446,alcanra01,1992.0,Dominican Republic,Barahona,,,,Raul,Alcantara,Dominican Republic Barahona,,,,,,,18.2004,-71.1,18.2004,-71.1
1447,alcansa01,1995.0,Dominican Republic,Azua,,,,Sandy,Alcantara,Dominican Republic Azua,3512208.0,,DO,Dominican Republic,Azua,,18.454,-70.729,18.454,-70.729
1448,alcanvi01,1993.0,Dominican Republic,Santo Domingo,,,,Victor,Alcantara,Dominican Republic Santo Domingo,3492908.0,,DO,Dominican Republic,Santo Domingo,,18.4701,-69.9001,18.4701,-69.9001
1449,alcarlu01,1941.0,Puerto Rico,Humacao,,,,Luis,Alcaraz,Puerto Rico Humacao,4565564.0,,PR,Puerto Rico,Humacao,6252001.0,18.1497,-65.8274,,
1450,alcocsc01,1885.0,United States,Wooster,1973.0,USA,Wooster,Scotty,Alcock,United States Wooster,5177358.0,,US,United States,Wooster,6252001.0,40.8142,-81.9387,40.8167,-81.9338
1451,alderda01,1918.0,United States,Belden,1982.0,USA,Garden Grove,Dale,Alderson,United States Belden,4417553.0,,US,United States,Belden,6252001.0,34.3057,-88.8462,,
1452,aldremi01,1961.0,United States,Carmel,,,,Mike,Aldrete,United States Carmel,4255466.0,,US,United States,Carmel,6252001.0,39.9714,-86.1295,39.9658,-86.1461
1455,aldresc01,1968.0,United States,Flint,,,,Scott,Aldred,United States Flint,4691498.0,,US,United States,Flint,6252001.0,32.2079,-95.3948,43.0236,-83.6922
1457,aldrico01,1979.0,United States,San Angelo,,,,Cory,Aldridge,United States San Angelo,5530022.0,,US,United States,San Angelo,6252001.0,31.4193,-100.4803,31.4426,-100.4501
1458,aldrija01,1961.0,United States,Alexandria,,,,Jay,Aldrich,United States Alexandria,4282342.0,,US,United States,Alexandria,6252001.0,38.9406,-84.3943,38.8185,-77.0861
1513,aldrivi01,1893.0,United States,Crane,1973.0,USA,Terre Haute,Vic,Aldridge,United States Crane,4256252.0,,US,United States,Crane,6252001.0,38.8949,-86.9002,,
1517,alexabo01,1922.0,Canada,Vancouver,1993.0,USA,Oceanside,Bob,Alexander,Canada Vancouver,6173331.0,,CA,Canada,Vancouver,6251999.0,49.1049,-122.824,49.2734,-123.1216
1518,alexada01,1903.0,United States,Greeneville,1979.0,USA,Greeneville,Dale,Alexander,United States Greeneville,4626334.0,,US,United States,Greeneville,6252001.0,36.1294,-82.866,36.168,-82.8197
1519,alexado01,1950.0,United States,Cordova,,,,Doyle,Alexander,United States Cordova,4050552.0,,US,United States,Cordova,6252001.0,35.16,-89.7768,,
1523,alexaga01,1953.0,United States,Los Angeles,,,,Gary,Alexander,United States Los Angeles,5368361.0,,US,United States,Los Angeles,6252001.0,33.7866,-118.2987,34.1139,-118.4068
1524,alexage01,1968.0,United States,Baton Rouge,,,,Gerald,Alexander,United States Baton Rouge,4315588.0,,US,United States,Baton Rouge,6252001.0,30.3608,-91.0917,30.4423,-91.1314
1525,alexahu01,1917.0,United States,Buffalo,2000.0,USA,Oklahoma City,Hugh,Alexander,United States Buffalo,4234762.0,,US,United States,Buffalo,6252001.0,39.8499,-89.3879,42.9017,-78.8487
1549,alexama01,1947.0,United States,Shreveport,,,,Matt,Alexander,United States Shreveport,4341513.0,,US,United States,Shreveport,6252001.0,32.3401,-93.6092,32.4659,-93.7959
1551,alexani01,1858.0,United States,Pana,1933.0,USA,Pana,Nin,Alexander,United States Pana,4246595.0,,US,United States,Pana,6252001.0,39.3971,-89.1048,39.3827,-89.0643
1552,alexape01,1887.0,United States,Elba,1950.0,USA,St. Paul,Pete,Alexander,United States Elba,4828081.0,,US,United States,Elba,6252001.0,31.4137,-86.0777,,
1554,alexasc01,1989.0,United States,Santa Rosa,,,,Scott,Alexander,United States Santa Rosa,4727076.0,,US,United States,Santa Rosa,6252001.0,26.2555,-97.8257,38.4465,-122.706
1557,alexawa01,1891.0,United States,Atlanta,1978.0,USA,Fort Worth,Walt,Alexander,United States Atlanta,4180439.0,,US,United States,Atlanta,6252001.0,33.6026,-84.4769,33.1136,-94.1672
1573,alfarja01,1977.0,United States,San Antonio,,,,Jason,Alfaro,United States San Antonio,4171771.0,,US,United States,San Antonio,6252001.0,28.3371,-82.2882,29.4722,-98.5247
1575,alfarjo01,1993.0,Colombia,Sincelejo,,,,Jorge,Alfaro,Colombia Sincelejo,3667983.0,SA,CO,Colombia,Sincelejo,,9.2904,-75.38,9.2904,-75.38
1576,alfonan01,1972.0,Dominican Republic,La Romana,,,,Antonio,Alfonseca,Dominican Republic La Romana,3500957.0,,DO,Dominican Republic,La Romana,,18.417,-68.9666,18.417,-68.9666
1578,alfonel01,1979.0,Venezuela,Puerto La Cruz,,,,Eliezer,Alfonzo,Venezuela Puerto La Cruz,3629671.0,SA,VE,Venezuela,Puerto La Cruz,1861060.0,10.5333,-67.35,,
1579,alforan01,1994.0,United States,Columbia,,,,Anthony,Alford,United States Columbia,4236206.0,,US,United States,Columbia,6252001.0,38.4325,-90.2027,35.6225,-87.0478
1692,allanan01,1961.0,United States,Richmond,,,,Andy,Allanson,United States Richmond,4263681.0,,US,United States,Richmond,6252001.0,39.8335,-84.8983,37.5295,-77.4756
1797,allarbr01,1958.0,United States,Spring Valley,,,,Brian,Allard,United States Spring Valley,4525289.0,,US,United States,Spring Valley,6252001.0,39.6083,-84.02600000000001,41.1151,-74.0485
1809,allarko01,1997.0,United States,Anaheim,,,,Kolby,Allard,United States Anaheim,5323810.0,,US,United States,Anaheim,6252001.0,33.8055,-117.9223,33.839,-117.8572
1810,allenbe01,1939.0,United States,East Liverpool,,,,Bernie,Allen,United States East Liverpool,5152709.0,,US,United States,East Liverpool,6252001.0,40.6774,-80.6006,40.6333,-80.5677
1811,allenbo01,1867.0,United States,Marion,1943.0,USA,Little Rock,Bob,Allen,United States Marion,4049048.0,,US,United States,Marion,6252001.0,38.0266,-75.7579,36.8389,-81.5135
1987,allenbo02,1894.0,United States,Muscoda,1975.0,USA,Naperville,Bob,Allen,United States Muscoda,5264038.0,,US,United States,Muscoda,6252001.0,43.2074,-90.45700000000001,,
1988,allenbo03,1914.0,United States,Smithville,2005.0,USA,Chesapeake,Bob,Allen,United States Smithville,4409199.0,,US,United States,Smithville,6252001.0,39.3917,-94.5592,39.392,-94.5751
1993,allenbo04,1937.0,United States,Tatum,,,,Bob,Allen,United States Tatum,4735674.0,,US,United States,Tatum,6252001.0,32.3266,-94.596,,
1994,allenbr01,1986.0,United States,Conroe,,,,Brandon,Allen,United States Conroe,4682991.0,,US,United States,Conroe,6252001.0,30.1877,-95.4288,30.322,-95.4807
1995,allench01,1975.0,United States,Dallas,,,,Chad,Allen,United States Dallas,4190598.0,,US,United States,Dallas,6252001.0,33.8992,-84.8572,32.7937,-96.7662
2016,allenco01,1988.0,United States,Orlando,,,,Cody,Allen,United States Orlando,4167147.0,,US,United States,Orlando,6252001.0,28.3774,-81.1888,28.4788,-81.342
2020,allendu01,1972.0,United States,Oklahoma City,,,,Dusty,Allen,United States Oklahoma City,4544349.0,,US,United States,Oklahoma City,6252001.0,35.3267,-97.3534,35.4676,-97.5136
2021,allenet01,1904.0,United States,Cincinnati,1993.0,USA,Crescent City,Ethan,Allen,United States Cincinnati,4508722.0,,US,United States,Cincinnati,6252001.0,39.0584,-84.3396,39.1412,-84.5059
2023,allenfr01,1888.0,United States,Newbern,1933.0,USA,Gainsville,Frank,Allen,United States Newbern,4645498.0,,US,United States,Newbern,6252001.0,36.1009,-89.2514,,
2024,allenga01,1955.0,United States,Culver City,,,,Gary,Allenson,United States Culver City,5341114.0,,US,United States,Culver City,6252001.0,33.9924,-118.3991,34.0058,-118.3968
2025,allengr01,1993.0,United States,San Diego,,,,Greg,Allen,United States San Diego,4726311.0,,US,United States,San Diego,,32.8312,-117.1226,32.8312,-117.1226
2027,allenha01,1846.0,United States,Augusta,1881.0,USA,Natick,Ham,Allen,United States Augusta,4099952.0,,US,United States,Augusta,6252001.0,35.2788,-91.3527,33.3645,-82.0708
2062,allenhe01,1863.0,United States,Westport,1916.0,USA,Saugatuck,Hezekiah,Allen,United States Westport,4666982.0,,US,United States,Westport,6252001.0,35.8845,-88.2892,,
2067,allenho01,1899.0,United States,DeLand,1981.0,USA,Canton,Horace,Allen,United States DeLand,4152890.0,,US,United States,DeLand,6252001.0,29.0266,-81.3349,29.0226,-81.2875
2068,allenja01,1855.0,United States,Woodstock,1915.0,USA,Trenton,Jack,Allen,United States Woodstock,4098518.0,,US,United States,Woodstock,,38.875,-78.516,38.875,-78.516
2095,allenja02,1958.0,United States,Yakima,,,,Jamie,Allen,United States Yakima,5816605.0,,US,United States,Yakima,6252001.0,46.5445,-120.7444,46.5923,-120.5496
2096,allenje01,1972.0,United States,Anderson,,,,Jermaine,Allensworth,United States Anderson,4374798.0,,US,United States,Anderson,6252001.0,36.6506,-94.4436,40.451,-122.2962
2111,allenjo01,1890.0,United States,Berkeley Springs,1967.0,USA,Hagerstown,John,Allen,United States Berkeley Springs,4798697.0,,US,United States,Berkeley Springs,6252001.0,39.5526,-78.1877,,
2112,allenjo02,1904.0,United States,Lenoir,1959.0,USA,St. Petersburg,Johnny,Allen,United States Lenoir,4475640.0,,US,United States,Lenoir,6252001.0,35.9188,-81.5403,35.9096,-81.5247
2113,allenki01,1953.0,United States,Fontana,,,,Kim,Allen,United States Fontana,4271643.0,,US,United States,Fontana,6252001.0,38.4102,-94.8718,34.0968,-117.4599
2116,allenll01,1950.0,United States,Merced,,,,Lloyd,Allen,United States Merced,5372253.0,,US,United States,Merced,6252001.0,37.2308,-120.5144,37.3058,-120.4778
2117,allenlu01,1978.0,United States,Covington,,,,Luke,Allen,United States Covington,4189785.0,,US,United States,Covington,6252001.0,33.5146,-83.8626,47.3668,-122.1044
2177,allenmy01,1854.0,United States,Kingston,1924.0,USA,Kingston,Myron,Allen,United States Kingston,4117560.0,,US,United States,Kingston,,35.8717,-84.4954,35.8717,-84.4954
2225,allenne01,1958.0,United States,Kansas City,,,,Neil,Allen,United States Kansas City,4273837.0,,US,United States,Kansas City,6252001.0,38.9716,-94.6146,39.1239,-94.5541
2229,allenni01,1888.0,United States,Norton,1939.0,USA,Hines,Nick,Allen,United States Norton,4276452.0,,US,United States,Norton,6252001.0,39.8407,-99.8878,36.9314,-82.6262
2235,allenpe01,1868.0,United States,Columbiana,1946.0,USA,Philadelphia,Pete,Allen,United States Columbiana,4056427.0,,US,United States,Columbiana,6252001.0,33.177,-86.6161,40.8871,-80.675
2238,allenro02,1959.0,United States,Los Angeles,,,,Rod,Allen,United States Los Angeles,5368361.0,,US,United States,Los Angeles,6252001.0,33.7866,-118.2987,34.1139,-118.4068
2239,allensl01,1886.0,United States,West Plains,1959.0,USA,Lubbock,Sled,Allen,United States West Plains,4414200.0,,US,United States,West Plains,6252001.0,36.7284,-91.8717,36.7378,-91.868
2240,alleyge01,1940.0,United States,Richmond,,,,Gene,Alley,United States Richmond,4263681.0,,US,United States,Richmond,6252001.0,39.8335,-84.8983,37.5295,-77.4756
2345,alliebo01,1952.0,United States,New Bedford,,,,Bob,Allietta,United States New Bedford,4945121.0,,US,United States,New Bedford,6252001.0,41.6127,-70.9167,41.6697,-70.9428
2346,alliega01,1931.0,United States,Statesville,2016.0,USA,San Antonio,Gair,Allie,United States Statesville,4493316.0,,US,United States,Statesville,6252001.0,35.799,-80.89399999999999,35.7838,-80.8711
2347,allisan01,1848.0,United States,New York,1897.0,USA,Brooklyn,Andy,Allison,United States New York,5128581.0,,US,United States,New York,6252001.0,40.6052,-74.1795,40.6943,-73.9249
2348,allisar01,1849.0,United States,Philadelphia,1916.0,USA,Washington,Art,Allison,United States Philadelphia,4403125.0,,US,United States,Philadelphia,,40.0076,-75.134,40.0076,-75.134
2358,allisbi01,1850.0,United States,New York,1887.0,USA,Brooklyn,Bill,Allison,United States New York,5128581.0,,US,United States,New York,6252001.0,40.6052,-74.1795,40.6943,-73.9249
2359,allisbo01,1934.0,United States,Raytown,1995.0,USA,Rio Verde,Bob,Allison,United States Raytown,,,,,,,38.9944,-94.4641,38.9944,-94.4641
2360,allisda01,1966.0,United States,Front Royal,,,,Dana,Allison,United States Front Royal,4760232.0,,US,United States,Front Royal,6252001.0,38.9268,-78.1796,38.926,-78.1838
2361,allisdo01,1846.0,United States,Philadelphia,1916.0,USA,Washington,Doug,Allison,United States Philadelphia,4403125.0,,US,United States,Philadelphia,,40.0076,-75.134,40.0076,-75.134
2371,allisma01,1887.0,United States,Owensboro,1964.0,USA,Mount Vernon,Mack,Allison,United States Owensboro,4303436.0,,US,United States,Owensboro,6252001.0,37.751999999999995,-87.1514,37.7575,-87.1172
2372,allismi01,1890.0,United States,Elk Rapids,1957.0,USA,Kenosha,Milo,Allison,United States Elk Rapids,4991969.0,,US,United States,Elk Rapids,6252001.0,44.8955,-85.4082,,
2373,allrebe01,1965.0,United States,Mesa,,,,Beau,Allred,United States Mesa,5304391.0,,US,United States,Mesa,6252001.0,33.3429,-111.6347,33.4017,-111.7181
2376,almadme01,1913.0,Mexico,Huatabampo,1988.0,Mexico,Caborca,Mel,Almada,Mexico Huatabampo,4004647.0,,MX,Mexico,Huatabampo,,26.8304,-109.63,26.8304,-109.63
2377,almanar01,1972.0,United States,El Paso,,,,Armando,Almanza,United States El Paso,4890813.0,,US,United States,El Paso,6252001.0,40.7389,-89.012,31.8479,-106.4309
2379,almanca01,1973.0,Dominican Republic,Santiago,,,,Carlos,Almanzar,Dominican Republic Santiago,,,,,,,19.5,-70.67,19.5,-70.67
2381,almonab01,1989.0,Dominican Republic,Santo Domingo,,,,Abraham,Almonte,Dominican Republic Santo Domingo,3492908.0,,DO,Dominican Republic,Santo Domingo,,18.4701,-69.9001,18.4701,-69.9001
2382,almonbi01,1952.0,United States,Providence,,,,Bill,Almon,United States Providence,4305295.0,,US,United States,Providence,6252001.0,37.405,-87.7505,41.7033,-111.8121
2390,almoned01,1976.0,Dominican Republic,Santiago,,,,Edwin,Almonte,Dominican Republic Santiago,,,,,,,19.5,-70.67,19.5,-70.67
2391,almoner01,1978.0,Dominican Republic,Santo Domingo,,,,Erick,Almonte,Dominican Republic Santo Domingo,3492908.0,,DO,Dominican Republic,Santo Domingo,,18.4701,-69.9001,18.4701,-69.9001
2392,almonhe01,1975.0,Dominican Republic,Santo Domingo,,,,Hector,Almonte,Dominican Republic Santo Domingo,3492908.0,,DO,Dominican Republic,Santo Domingo,,18.4701,-69.9001,18.4701,-69.9001
2393,almonmi01,1993.0,Dominican Republic,Santiago,,,,Miguel,Almonte,Dominican Republic Santiago,,,,,,,19.5,-70.67,19.5,-70.67
2394,almonye01,1994.0,United States,Miami,,,,Yency,Almonte,United States Miami,4164138.0,,US,United States,Miami,6252001.0,25.5584,-80.4582,25.784,-80.2102
2404,almonzo01,1989.0,Dominican Republic,Santo Domingo,,,,Zoilo,Almonte,Dominican Republic Santo Domingo,3492908.0,,DO,Dominican Republic,Santo Domingo,,18.4701,-69.9001,18.4701,-69.9001
2405,almoral01,1994.0,United States,Hialeah,,,,Albert,Almora,United States Hialeah,4158476.0,,US,United States,Hialeah,6252001.0,25.8275,-80.2724,25.8696,-80.3045
2407,alomaro01,1968.0,Puerto Rico,Ponce,,,,Roberto,Alomar,Puerto Rico Ponce,4566880.0,,PR,Puerto Rico,Ponce,6252001.0,18.0111,-66.6141,,
2408,alomasa01,1943.0,Puerto Rico,Salinas,,,,Sandy,Alomar,Puerto Rico Salinas,4568040.0,,PR,Puerto Rico,Salinas,6252001.0,17.9775,-66.2979,,
2409,alomasa02,1966.0,Puerto Rico,Salinas,,,,Sandy,Alomar,Puerto Rico Salinas,4568040.0,,PR,Puerto Rico,Salinas,6252001.0,17.9775,-66.2979,,
2411,aloufe01,1935.0,Dominican Republic,Bajos de Haina,,,,Felipe,Alou,Dominican Republic Bajos de Haina,3512128.0,,DO,Dominican Republic,Bajos de Haina,3508796.0,18.4167,-70.0333,,
2412,alouje01,1942.0,Dominican Republic,Bajos de Haina,,,,Jesus,Alou,Dominican Republic Bajos de Haina,3512128.0,,DO,Dominican Republic,Bajos de Haina,3508796.0,18.4167,-70.0333,,
2413,alouma01,1938.0,Dominican Republic,Bajos de Haina,2011.0,D.R.,Santo Domingo,Matty,Alou,Dominican Republic Bajos de Haina,3512128.0,,DO,Dominican Republic,Bajos de Haina,3508796.0,18.4167,-70.0333,,
2414,aloumo01,1966.0,United States,Atlanta,,,,Moises,Alou,United States Atlanta,4180439.0,,US,United States,Atlanta,6252001.0,33.6026,-84.4769,33.1136,-94.1672
2430,alperwh01,1879.0,United States,Etna,1942.0,USA,Pittsburgh,Whitey,Alpermann,United States Etna,4963848.0,,US,United States,Etna,6252001.0,44.7932,-69.1322,,
2435,alstode01,1952.0,United States,Valhalla,,,,Dell,Alston,United States Valhalla,5142090.0,,US,United States,Valhalla,6252001.0,41.0856,-73.7776,,
2436,alstoga01,1971.0,United States,Mount Vernon,,,,Garvin,Alston,United States Mount Vernon,4078348.0,,US,United States,Mount Vernon,6252001.0,31.0974,-88.035,48.4202,-122.3116
2520,alstoto01,1926.0,United States,Greensboro,1993.0,USA,Winston-Salem,Tom,Alston,United States Greensboro,4065282.0,,US,United States,Greensboro,6252001.0,32.7167,-87.5905,36.0956,-79.8269
2527,alstowa01,1911.0,United States,Venice,1984.0,USA,Oxford,Walter,Alston,United States Venice,4176380.0,,US,United States,Venice,6252001.0,27.0602,-82.3533,27.1166,-82.4135
2531,altavda01,1992.0,United States,McKeesport,,,,Dan,Altavilla,United States McKeesport,5200499.0,,US,United States,McKeesport,6252001.0,40.3478,-79.8642,40.3419,-79.8439
2532,altener01,1894.0,United States,Avon,1981.0,USA,Napa,Ernie,Alten,United States Avon,4254021.0,,US,United States,Avon,6252001.0,39.7668,-86.4013,39.6448,-106.5138
2563,altenje01,1893.0,United States,Ashley,1973.0,USA,Lansing,Jesse,Altenburg,United States Ashley,4984460.0,,US,United States,Ashley,6252001.0,43.1891,-84.488,,
2566,altheaa01,1991.0,Germany,Landstuhl,,,,Aaron,Altherr,Germany Landstuhl,2881477.0,EU,DE,Germany,Landstuhl,2921044.0,49.4131,7.5702,,
2567,altizda01,1876.0,United States,Pearl,1964.0,USA,Pleasant Hill,Dave,Altizer,United States Pearl,4246787.0,,US,United States,Pearl,6252001.0,39.4441,-90.63799999999999,32.273,-90.0918
2569,altmage01,1933.0,United States,Goldsboro,,,,George,Altman,United States Goldsboro,4468261.0,,US,United States,Goldsboro,6252001.0,35.3664,-77.9221,35.3777,-77.972
2571,altobjo01,1932.0,United States,Detroit,,,,Joe,Altobelli,United States Detroit,4058738.0,,US,United States,Detroit,,42.3834,-83.1024,42.3834,-83.1024
2575,altroni01,1876.0,United States,Cincinnati,1965.0,USA,Washington,Nick,Altrock,United States Cincinnati,4508722.0,,US,United States,Cincinnati,6252001.0,39.0584,-84.3396,39.1412,-84.5059
2577,altuvjo01,1990.0,Venezuela,Puerto Cabello,,,,Jose,Altuve,Venezuela Puerto Cabello,3629706.0,SA,VE,Venezuela,Puerto Cabello,,10.4704,-68.17,10.4704,-68.17
2579,alusige01,1935.0,United States,Ashley,2018.0,USA,Woodbridge,George,Alusik,United States Ashley,4984460.0,,US,United States,Ashley,6252001.0,43.1891,-84.488,,
2582,alvarab01,1982.0,United States,Los Angeles,,,,Abe,Alvarez,United States Los Angeles,5368361.0,,US,United States,Los Angeles,6252001.0,33.7866,-118.2987,34.1139,-118.4068
2584,alvarda01,1989.0,Dominican Republic,Santiago,,,,Dario,Alvarez,Dominican Republic Santiago,,,,,,,19.5,-70.67,19.5,-70.67
2586,alvarga01,1974.0,Mexico,Navojoa,,,,Gabe,Alvarez,Mexico Navojoa,3995019.0,,MX,Mexico,Navojoa,3996063.0,27.0703,-109.4437,,
2587,alvarhe01,1990.0,Venezuela,Valencia,,,,Henderson,Alvarez,Venezuela Valencia,3625549.0,SA,VE,Venezuela,Valencia,3625428.0,10.1806,-68.0039,10.23,-67.98
2588,alvarjo01,1956.0,United States,Tampa,,,,Jose,Alvarez,United States Tampa,4174757.0,,US,United States,Tampa,6252001.0,27.872,-82.4388,27.9937,-82.4454
2590,alvarjo02,1989.0,Venezuela,Barcelona,,,,Jose,Alvarez,Venezuela Barcelona,3648559.0,SA,VE,Venezuela,Barcelona,,10.1304,-64.72,10.1304,-64.72
2591,alvarjo03,1995.0,Venezuela,Maracaibo,,,,Jose,Alvarado,Venezuela Maracaibo,3633009.0,SA,VE,Venezuela,Maracaibo,,10.73,-71.66,10.73,-71.66
2592,alvarju01,1973.0,United States,Coral Gables,,,,Juan,Alvarez,United States Coral Gables,4151871.0,,US,United States,Coral Gables,6252001.0,25.7641,-80.2702,25.7037,-80.2715
2593,alvarlu01,1949.0,Puerto Rico,Lajas,2001.0,P.R.,Lajas,Luis,Alvarado,Puerto Rico Lajas,4565898.0,,PR,Puerto Rico,Lajas,4566966.0,18.05,-67.0593,,
2594,alvaror01,1952.0,Puerto Rico,Rio Grande,2016.0,P.R.,Rio Grande,Orlando,Alvarez,Puerto Rico Rio Grande,4567817.0,,PR,Puerto Rico,Rio Grande,6252001.0,18.3802,-65.8313,,
2596,alvarpe01,1987.0,Dominican Republic,Santo Domingo,,,,Pedro,Alvarez,Dominican Republic Santo Domingo,3492908.0,,DO,Dominican Republic,Santo Domingo,,18.4701,-69.9001,18.4701,-69.9001
2597,alvarrj01,1991.0,United States,West Palm Beach,,,,R. J.,Alvarez,United States West Palm Beach,4177887.0,,US,United States,West Palm Beach,6252001.0,26.6396,-80.0827,26.7467,-80.1314
2598,alvarro01,1938.0,Cuba,Pinar del Rio,2012.0,USA,Hialeah,Rogelio,Alvarez,Cuba Pinar del Rio,,,,,,,22.4175,-83.6981,22.4175,-83.6981
2599,alvarta01,1971.0,Mexico,Ciudad Obregon,,,,Tavo,Alvarez,Mexico Ciudad Obregon,,,,,,,27.4666,-109.925,27.4666,-109.925
2600,alvarto01,1979.0,Venezuela,Caracas,,,,Tony,Alvarez,Venezuela Caracas,3646738.0,SA,VE,Venezuela,Caracas,3625428.0,10.5048,-66.9208,10.501,-66.917
2602,alvarwi01,1970.0,Venezuela,Maracaibo,,,,Wilson,Alvarez,Venezuela Maracaibo,3633009.0,SA,VE,Venezuela,Maracaibo,,10.73,-71.66,10.73,-71.66
2603,alvisma01,1938.0,United States,Jasper,,,,Max,Alvis,United States Jasper,4069659.0,,US,United States,Jasper,6252001.0,33.8312,-87.2775,30.9221,-93.9947
2648,alyeabr01,1940.0,United States,Passaic,,,,Brant,Alyea,United States Passaic,5102443.0,,US,United States,Passaic,6252001.0,40.8565,-74.1231,40.8574,-74.1282
2649,amalfjo01,1934.0,United States,San Pedro,,,,Joey,Amalfitano,United States San Pedro,5392528.0,,US,United States,San Pedro,6252001.0,33.7329,-118.2951,,
2650,amarari01,1962.0,United States,Visalia,,,,Rich,Amaral,United States Visalia,5406567.0,,US,United States,Visalia,6252001.0,36.317,-119.3087,36.3273,-119.3264
2651,amarial01,1989.0,Venezuela,Barcelona,,,,Alexi,Amarista,Venezuela Barcelona,3648559.0,SA,VE,Venezuela,Barcelona,,10.1304,-64.72,10.1304,-64.72
2652,amaroru01,1936.0,Mexico,Nuevo Laredo,2017.0,USA,Weston,Ruben,Amaro,Mexico Nuevo Laredo,3522551.0,,MX,Mexico,Nuevo Laredo,3996063.0,27.4758,-99.6738,27.5,-99.55
2653,amaroru02,1965.0,United States,Philadelphia,,,,Ruben,Amaro,United States Philadelphia,4403125.0,,US,United States,Philadelphia,,40.0076,-75.134,40.0076,-75.134
2663,amblewa01,1915.0,United States,Abington,1998.0,USA,Ponte Vedra Beach,Wayne,Ambler,United States Abington,4928662.0,,US,United States,Abington,6252001.0,42.1167,-70.9543,,
2665,ambrech01,1979.0,United States,Beaumont,,,,Chip,Ambres,United States Beaumont,4417378.0,,US,United States,Beaumont,,30.0849,-94.1451,30.0849,-94.1451
2671,ambrihe01,1984.0,United States,Orange,,,,Hector,Ambriz,United States Orange,4716805.0,,US,United States,Orange,6252001.0,30.0709,-93.8659,38.2486,-78.1127
2689,amelued01,1959.0,United States,Fullerton,,,,Ed,Amelung,United States Fullerton,5059296.0,,US,United States,Fullerton,6252001.0,46.1951,-98.3882,33.8841,-117.9279
2692,amesre01,1882.0,United States,Warren,1936.0,USA,Warren,Red,Ames,United States Warren,4135349.0,,US,United States,Warren,6252001.0,33.614000000000004,-92.0778,41.8433,-79.1445
2752,amesst01,1988.0,United States,Vancouver,,,,Steve,Ames,United States Vancouver,5814616.0,,US,United States,Vancouver,6252001.0,45.6025,-122.5125,45.6352,-122.597
2753,amezaal01,1978.0,Mexico,Ciudad Obregon,,,,Alfredo,Amezaga,Mexico Ciudad Obregon,,,,,,,27.4666,-109.925,27.4666,-109.925
2754,amoledo01,1874.0,United States,Coatesville,1912.0,USA,Wilmington,Doc,Amole,United States Coatesville,4255959.0,,US,United States,Coatesville,6252001.0,39.6878,-86.6703,39.9849,-75.8199
2756,amorosa01,1930.0,Cuba,Matanzas,1992.0,USA,Miami,Sandy,Amoros,Cuba Matanzas,,,,,,,23.0415,-81.5775,23.0415,-81.5775
2758,anckewa01,1893.0,United States,New York,1954.0,USA,Englewood,Walter,Ancker,United States New York,5128581.0,,US,United States,New York,6252001.0,40.6052,-74.1795,40.6943,-73.9249
2759,anderal01,1914.0,United States,Gainesville,1985.0,USA,Albany,Alf,Anderson,United States Gainesville,4156404.0,,US,United States,Gainesville,6252001.0,29.5733,-82.3979,29.6808,-82.3455
2774,anderal02,1964.0,United States,Lancaster,,,,Allan,Anderson,United States Lancaster,4274205.0,,US,United States,Lancaster,,32.5922,-96.7737,32.5922,-96.7737
2858,anderan01,1922.0,United States,Bremerton,1982.0,USA,Seattle,Andy,Anderson,United States Bremerton,5788054.0,,US,United States,Bremerton,6252001.0,47.5686,-122.6373,47.5436,-122.7122
2859,anderbi01,1895.0,United States,Boston,1983.0,USA,Medford,Bill,Anderson,United States Boston,4285208.0,,US,United States,Boston,6252001.0,37.7408,-85.5948,42.3188,-71.0846
2862,anderbo01,1935.0,United States,East Chicago,2015.0,USA,Tulsa,Bob,Anderson,United States East Chicago,4919857.0,,US,United States,East Chicago,6252001.0,41.6349,-87.4627,41.6484,-87.4536
2863,anderbr01,1964.0,United States,Silver Spring,,,,Brady,Anderson,United States Silver Spring,4369596.0,,US,United States,Silver Spring,6252001.0,38.9907,-77.0261,,
2864,anderbr02,1972.0,United States,Portsmouth,,,,Brian,Anderson,United States Portsmouth,4521816.0,,US,United States,Portsmouth,6252001.0,38.7947,-82.9286,36.8468,-76.354
2879,anderbr03,1982.0,United States,Tucson,,,,Brian,Anderson,United States Tucson,5318313.0,,US,United States,Tucson,6252001.0,32.0839,-110.9004,32.1546,-110.8782
2880,anderbr04,1988.0,United States,Midland,,,,Brett,Anderson,United States Midland,4209111.0,,US,United States,Midland,6252001.0,32.5607,-84.8573,32.0249,-102.1137
2894,anderbr05,1986.0,United States,Thousand Oaks,,,,Bryan,Anderson,United States Thousand Oaks,5402405.0,,US,United States,Thousand Oaks,6252001.0,34.1706,-118.8376,34.1914,-118.8755
2895,anderbr06,1993.0,United States,Edmond,,,,Brian,Anderson,United States Edmond,4535740.0,,US,United States,Edmond,6252001.0,35.6211,-97.4757,35.6689,-97.4159
2896,anderbu01,1956.0,United States,Westbury,,,,Bud,Anderson,United States Westbury,5144040.0,,US,United States,Westbury,6252001.0,40.7588,-73.5661,40.7599,-73.5891
2897,anderch01,1987.0,United States,Wichita Falls,,,,Chase,Anderson,United States Wichita Falls,4741752.0,,US,United States,Wichita Falls,6252001.0,33.8581,-98.5755,33.9072,-98.5293
2898,anderco01,1990.0,United States,Quincy,,,,Cody,Anderson,United States Quincy,4169510.0,,US,United States,Quincy,6252001.0,30.5497,-84.6069,47.2345,-119.852
2930,andercr01,1938.0,United States,Washington,,,,Craig,Anderson,United States Washington,4135386.0,,US,United States,Washington,,38.9047,-77.0163,38.9047,-77.0163
3119,anderda01,1868.0,United States,Chester,1897.0,USA,Chester,Dave,Anderson,United States Chester,4187637.0,,US,United States,Chester,,41.357,-74.2769,41.357,-74.2769
3191,anderda02,1960.0,United States,Louisville,,,,Dave,Anderson,United States Louisville,4073771.0,,US,United States,Louisville,6252001.0,31.7943,-85.5581,39.9709,-105.1441
3218,anderdr01,1981.0,United States,Kearney,,,,Drew,Anderson,United States Kearney,4393269.0,,US,United States,Kearney,6252001.0,39.3652,-94.3621,40.7008,-99.0846
3222,anderdr02,1994.0,United States,Reno,,,,Drew,Anderson,United States Reno,5511077.0,,US,United States,Reno,6252001.0,39.3809,-119.6859,39.5497,-119.8483
3223,anderdw01,1947.0,United States,Oakland,,,,Dwain,Anderson,United States Oakland,4166628.0,,US,United States,Oakland,6252001.0,28.5547,-81.6322,41.0313,-74.2408
3259,anderfe01,1918.0,United States,Maple City,1978.0,USA,Joplin,Ferrell,Anderson,United States Maple City,5000687.0,,US,United States,Maple City,6252001.0,44.858999999999995,-85.8814,,
3261,anderga01,1972.0,United States,Los Angeles,,,,Garret,Anderson,United States Los Angeles,5368361.0,,US,United States,Los Angeles,6252001.0,33.7866,-118.2987,34.1139,-118.4068
3262,anderge01,1889.0,United States,Cleveland,1962.0,USA,Cleveland,George,Anderson,United States Cleveland,4055815.0,,US,United States,Cleveland,6252001.0,33.9778,-86.5598,30.3368,-95.0924
3342,andergo01,1880.0,United States,Cleveland,1923.0,USA,South Bend,Goat,Anderson,United States Cleveland,4055815.0,,US,United States,Cleveland,6252001.0,33.9778,-86.5598,30.3368,-95.0924
3423,anderha02,1931.0,United States,North East,1998.0,USA,Greenville,Harry,Anderson,United States North East,4363889.0,,US,United States,North East,6252001.0,39.6045,-75.9538,42.2134,-79.8333
3425,anderja01,1979.0,United States,Danville,,,,Jason,Anderson,United States Danville,4058198.0,,US,United States,Danville,,36.5831,-79.4088,36.5831,-79.4088
3500,anderji01,1957.0,United States,Los Angeles,,,,Jim,Anderson,United States Los Angeles,5368361.0,,US,United States,Los Angeles,6252001.0,33.7866,-118.2987,34.1139,-118.4068
3501,anderji02,1976.0,United States,Portsmouth,,,,Jimmy,Anderson,United States Portsmouth,4521816.0,,US,United States,Portsmouth,6252001.0,38.7947,-82.9286,36.8468,-76.354
3516,anderjo01,1873.0,Norway,Sarpsborg,1949.0,USA,Worcester,John,Anderson,Norway Sarpsborg,3140084.0,EU,NO,Norway,Sarpsborg,3144096.0,59.2115,11.1903,59.2833,11.1167
3518,anderjo03,1982.0,United States,Somerset,,,,Josh,Anderson,United States Somerset,4308922.0,,US,United States,Somerset,6252001.0,37.1029,-84.5443,40.0049,-79.0778
3534,anderju01,1992.0,United States,Houston,,,,Justin,Anderson,United States Houston,4115450.0,,US,United States,Houston,,29.7868,-95.3905,29.7868,-95.3905
3542,anderke01,1963.0,United States,Florence,,,,Kent,Anderson,United States Florence,4062577.0,,US,United States,Florence,6252001.0,34.8305,-87.656,38.3835,-105.1114
3638,anderla01,1952.0,United States,Maywood,,,,Larry,Anderson,United States Maywood,4397550.0,,US,United States,Maywood,6252001.0,39.9333,-91.6148,40.9025,-74.0634
3653,anderla02,1953.0,United States,Portland,,,,Larry,Andersen,United States Portland,4127143.0,,US,United States,Portland,,27.8913,-97.328,27.8913,-97.328
3725,anderla03,1987.0,United States,Oakland,,,,Lars,Anderson,United States Oakland,4166628.0,,US,United States,Oakland,6252001.0,28.5547,-81.6322,41.0313,-74.2408
3761,anderma01,1976.0,United States,Louisville,,,,Matt,Anderson,United States Louisville,4073771.0,,US,United States,Louisville,6252001.0,31.7943,-85.5581,39.9709,-105.1441
3788,anderma02,1974.0,United States,Montgomery,,,,Marlon,Anderson,United States Montgomery,4076784.0,,US,United States,Montgomery,6252001.0,32.2334,-86.2085,41.1709,-76.874
3824,andermi01,1951.0,United States,Florence,,,,Mike,Anderson,United States Florence,4062577.0,,US,United States,Florence,6252001.0,34.8305,-87.656,38.3835,-105.1114
3920,andermi02,1966.0,United States,Austin,,,,Mike,Anderson,United States Austin,4099974.0,,US,United States,Austin,6252001.0,34.9921,-91.9798,30.3006,-97.7517
3932,anderre01,1912.0,United States,Lawton,1972.0,USA,Sioux City,Red,Anderson,United States Lawton,4540737.0,,US,United States,Lawton,6252001.0,34.5915,-98.3698,34.6171,-98.4204
3935,anderri01,1953.0,United States,Inglewood,1989.0,USA,Wilmington,Rick,Anderson,United States Inglewood,5359488.0,,US,United States,Inglewood,6252001.0,33.9376,-118.3582,33.9566,-118.3444
3936,anderri02,1956.0,United States,Everett,,,,Rick,Anderson,United States Everett,4936008.0,,US,United States,Everett,6252001.0,42.4112,-71.0514,47.9524,-122.167
3942,andersc01,1962.0,United States,Corvallis,,,,Scott,Anderson,United States Corvallis,5646474.0,,US,United States,Corvallis,,44.5697,-123.278,44.5697,-123.278
3944,andersp01,1934.0,United States,Bridgewater,2010.0,USA,Thousand Oaks,Sparky,Anderson,United States Bridgewater,4748925.0,,US,United States,Bridgewater,6252001.0,38.3859,-78.9937,38.3863,-78.9675
3950,anderta01,1993.0,United States,Boynton Beach,,,,Tanner,Anderson,United States Boynton Beach,4148677.0,,US,United States,Boynton Beach,6252001.0,26.5088,-80.1896,26.5282,-80.0811
3951,anderti01,1993.0,United States,Tuscaloosa,,,,Tim,Anderson,United States Tuscaloosa,4094455.0,,US,United States,Tuscaloosa,6252001.0,33.1669,-87.5064,33.2349,-87.5267
3952,anderty01,1989.0,United States,Las Vegas,,,,Tyler,Anderson,United States Las Vegas,5475433.0,,US,United States,Las Vegas,6252001.0,35.5949,-105.2272,35.6011,-105.2206
3956,anderva01,1866.0,United States,Geneva,1941.0,USA,Rockford,Varney,Anderson,United States Geneva,4063926.0,,US,United States,Geneva,6252001.0,31.0414,-85.8847,42.8644,-76.9827
3980,anderwa01,1897.0,United States,Grand Rapids,1990.0,USA,Battle Creek,Walter,Anderson,United States Grand Rapids,4994358.0,,US,United States,Grand Rapids,6252001.0,42.8697,-85.6628,47.238,-93.5327
3986,anderwi01,1886.0,United States,Lillian,1950.0,USA,Fort Worth,Wingo,Anderson,United States Lillian,4072630.0,,US,United States,Lillian,6252001.0,30.3972,-87.4745,,
3987,andinro01,1984.0,United States,Miami,,,,Robert,Andino,United States Miami,4164138.0,,US,United States,Miami,6252001.0,25.5584,-80.4582,25.784,-80.2102
3997,andrast01,1978.0,United States,Woodland,,,,Steve,Andrade,United States Woodland,4098389.0,,US,United States,Woodland,,45.9149,-122.7504,45.9149,-122.7504
4013,andrecl01,1978.0,United States,Dunedin,,,,Clayton,Andrews,United States Dunedin,4153759.0,,US,United States,Dunedin,6252001.0,28.0303,-82.7816,28.0328,-82.7866
4014,andreed01,1859.0,United States,Painesville,1934.0,USA,West Palm Beach,Ed,Andrews,United States Painesville,5166009.0,,US,United States,Painesville,6252001.0,41.7059,-81.1997,41.724,-81.2536
4015,andreel01,1901.0,United States,Greenwood,1979.0,USA,Greenwood,Elbert,Andrews,United States Greenwood,4113143.0,,US,United States,Greenwood,6252001.0,35.1955,-94.25299999999999,35.2134,-94.2409
4090,andreer01,1918.0,United States,Jeffersonville,2008.0,USA,Bradenton,Ernie,Andres,United States Jeffersonville,4259671.0,,US,United States,Jeffersonville,6252001.0,38.3078,-85.7359,38.3377,-85.7026
4094,andrefr01,1952.0,United States,Lafayette,,,,Fred,Andrews,United States Lafayette,4071267.0,,US,United States,Lafayette,6252001.0,32.9252,-85.4426,30.2083,-92.0322
4139,andrehu01,1922.0,United States,Burbank,2012.0,USA,Dodge City,Hub,Andrews,United States Burbank,4885983.0,,US,United States,Burbank,6252001.0,41.7402,-87.7723,34.1879,-118.3234
4149,andreiv01,1907.0,United States,Dora,1970.0,USA,Birmingham,Ivy,Andrews,United States Dora,4059070.0,,US,United States,Dora,6252001.0,33.7357,-87.0546,,
4151,andreji01,1865.0,United States,Shelburne Falls,1907.0,USA,Chicago,Jim,Andrews,United States Shelburne Falls,4950749.0,,US,United States,Shelburne Falls,6252001.0,42.6022,-72.7391,,
4152,andrejo01,1923.0,United States,Brockton,1976.0,USA,Barnstable,John,Andre,United States Brockton,4931429.0,,US,United States,Brockton,6252001.0,42.0774,-71.0446,42.0821,-71.0242
4154,andrejo02,1949.0,United States,Monterey Park,,,,John,Andrews,United States Monterey Park,5374406.0,,US,United States,Monterey Park,6252001.0,34.048,-118.115,34.0497,-118.1325
4155,andrejo03,1990.0,United States,Worcester,,,,John,Andreoli,United States Worcester,4956184.0,,US,United States,Worcester,6252001.0,42.2303,-71.7938,42.2705,-71.8079
4159,andreki01,1953.0,United States,Glendale,,,,Kim,Andrew,United States Glendale,5254404.0,,US,United States,Glendale,6252001.0,43.1353,-87.9356,43.1288,-87.9277
4189,andremi01,1943.0,United States,Los Angeles,,,,Mike,Andrews,United States Los Angeles,5368361.0,,US,United States,Los Angeles,6252001.0,33.7866,-118.2987,34.1139,-118.4068
4190,andrena01,1913.0,United States,Pembroke,1991.0,USA,Winston-Salem,Nate,Andrews,United States Pembroke,4215251.0,,US,United States,Pembroke,6252001.0,32.1812,-81.6656,34.6766,-79.1934
4197,andrero01,1952.0,United States,Santa Monica,,,,Rob,Andrews,United States Santa Monica,5393212.0,,US,United States,Santa Monica,6252001.0,34.0125,-118.4682,34.0232,-118.4813
4198,andresh01,1971.0,United States,Dallas,,,,Shane,Andrews,United States Dallas,4190598.0,,US,United States,Dallas,6252001.0,33.8992,-84.8572,32.7937,-96.7662
4219,andrest01,1917.0,United States,Lynn,1995.0,USA,Bradenton,Stan,Andrews,United States Lynn,4923096.0,,US,United States,Lynn,6252001.0,40.0519,-84.93,42.4779,-70.9663
4221,andrewa01,1859.0,United States,Philadelphia,1940.0,USA,Indianapolis,Wally,Andrews,United States Philadelphia,4403125.0,,US,United States,Philadelphia,,40.0076,-75.134,40.0076,-75.134
4231,andrima01,1989.0,United States,Redlands,,,,Matt,Andriese,United States Redlands,5386754.0,,US,United States,Redlands,6252001.0,34.0393,-117.1725,34.0512,-117.171
4232,andrubi01,1907.0,United States,Beaumont,1982.0,USA,Washington,Bill,Andrus,United States Beaumont,4417378.0,,US,United States,Beaumont,,30.0849,-94.1451,30.0849,-94.1451
4238,andruel01,1988.0,Venezuela,Maracay,,,,Elvis,Andrus,Venezuela Maracay,3632998.0,SA,VE,Venezuela,Maracay,,10.2469,-67.5958,10.2469,-67.5958
4239,andrufr01,1850.0,United States,Washington,1937.0,USA,Detroit,Fred,Andrus,United States Washington,4135386.0,,US,United States,Washington,,38.9047,-77.0163,38.9047,-77.0163
4432,angelno01,1947.0,United States,San Francisco,,,,Norm,Angelini,United States San Francisco,5391959.0,,US,United States,San Francisco,6252001.0,37.6811,-122.4806,37.7562,-122.443
4433,anglema01,1985.0,United States,Columbus,,,,Matt,Angle,United States Columbus,4106350.0,,US,United States,Columbus,,43.3354,-89.03,43.3354,-89.03
4517,angleto01,1904.0,United States,Baltimore,1952.0,USA,Wichita,Tom,Angley,United States Baltimore,4347778.0,,US,United States,Baltimore,6252001.0,39.2293,-76.6907,39.3051,-76.6144
4519,ankenpa01,1912.0,United States,Houston,1989.0,USA,Houston,Pat,Ankenman,United States Houston,4115450.0,,US,United States,Houston,,29.7868,-95.3905,29.7868,-95.3905
4527,ankieri01,1979.0,United States,Fort Pierce,,,,Rick,Ankiel,United States Fort Pierce,,,,,,,27.4256,-80.3425,27.4256,-80.3425
4528,annade01,1986.0,United States,Glenwood,,,,Dean,Anna,United States Glenwood,4064354.0,,US,United States,Glenwood,,41.5412,-87.6119,41.5412,-87.6119
4552,annisbi01,1857.0,United States,Stoneham,1923.0,USA,Kennebunkport,Bill,Annis,United States Stoneham,4952121.0,,US,United States,Stoneham,6252001.0,42.4828,-71.0978,,
4553,ansonca01,1852.0,United States,Marshalltown,1922.0,USA,Chicago,Cap,Anson,United States Marshalltown,4866371.0,,US,United States,Marshalltown,6252001.0,42.0405,-92.9127,42.0341,-92.9067
4554,anthoer01,1967.0,United States,San Diego,,,,Eric,Anthony,United States San Diego,4726311.0,,US,United States,San Diego,,32.8312,-117.1226,32.8312,-117.1226
4558,antonbi01,1927.0,United States,Brooklyn,1993.0,USA,Fridley,Bill,Antonello,United States Brooklyn,4349594.0,,US,United States,Brooklyn,6252001.0,39.2259,-76.6153,40.6501,-73.9496
4570,antonjo01,1915.0,United States,Memphis,1990.0,USA,Memphis,John,Antonelli,United States Memphis,4261256.0,,US,United States,Memphis,6252001.0,38.4642,-85.7775,35.1047,-89.9773
4576,antonjo02,1930.0,United States,Rochester,,,,Johnny,Antonelli,United States Rochester,4248284.0,,US,United States,Rochester,6252001.0,39.7182,-89.5649,43.299,-70.9787
4631,antonma01,1985.0,United States,Peabody,,,,Matt,Antonelli,United States Peabody,4277079.0,,US,United States,Peabody,6252001.0,38.1737,-97.1184,42.5335,-70.9724
4634,aparilu01,1934.0,Venezuela,Maracaibo,,,,Luis,Aparicio,Venezuela Maracaibo,3633009.0,SA,VE,Venezuela,Maracaibo,,10.73,-71.66,10.73,-71.66
4635,apodabo01,1950.0,United States,Los Angeles,,,,Bob,Apodaca,United States Los Angeles,5368361.0,,US,United States,Los Angeles,6252001.0,33.7866,-118.2987,34.1139,-118.4068
4636,apontlu01,1953.0,Venezuela,El Tigre,,,,Luis,Aponte,Venezuela El Tigre,3641351.0,SA,VE,Venezuela,El Tigre,,8.8903,-64.26,8.8903,-64.26
4637,appieke01,1967.0,United States,Lancaster,,,,Kevin,Appier,United States Lancaster,4274205.0,,US,United States,Lancaster,,32.5922,-96.7737,32.5922,-96.7737
4721,appleed01,1892.0,United States,Arlington,1932.0,USA,Arlington,Ed,Appleton,United States Arlington,4180183.0,,US,United States,Arlington,,48.1697,-122.1446,48.1697,-122.1446
4769,applefr01,1879.0,United States,Williamsport,1968.0,USA,Williamsport,Fred,Applegate,United States Williamsport,4373719.0,,US,United States,Williamsport,,41.2398,-77.0371,41.2398,-77.0371
4773,applepe01,1904.0,United States,Terryville,1974.0,USA,Trenton,Pete,Appleton,United States Terryville,4844084.0,,US,United States,Terryville,6252001.0,41.6762,-73.0092,,
4774,applilu01,1907.0,United States,High Point,1991.0,USA,Cumming,Luke,Appling,United States High Point,4471025.0,,US,United States,High Point,6252001.0,35.9359,-79.9395,35.9902,-79.9938
4775,aquinar01,1994.0,Dominican Republic,Santo Domingo,,,,Aristides,Aquino,Dominican Republic Santo Domingo,3492908.0,,DO,Dominican Republic,Santo Domingo,,18.4701,-69.9001,18.4701,-69.9001
4782,araujel01,1991.0,Venezuela,Maracaibo,,,,Elvis,Araujo,Venezuela Maracaibo,3633009.0,SA,VE,Venezuela,Maracaibo,,10.73,-71.66,10.73,-71.66
4785,archech01,1988.0,United States,Raleigh,,,,Chris,Archer,United States Raleigh,4247770.0,,US,United States,Raleigh,6252001.0,37.8256,-88.5324,35.8323,-78.6439
4788,archefr01,1910.0,United States,Johnson City,1981.0,USA,Charlotte,Fred,Archer,United States Johnson City,4633419.0,,US,United States,Johnson City,6252001.0,36.3125,-82.37700000000001,36.3406,-82.3804
4794,archeji01,1883.0,Ireland,Dublin,1958.0,USA,Milwaukee,Jimmy,Archer,Ireland Dublin,2964574.0,EU,IE,Ireland,Dublin,2661886.0,53.2851,-6.3713,53.3331,-6.2489
4795,archeji02,1932.0,United States,Max Meadows,,,,Jim,Archer,United States Max Meadows,4772066.0,,US,United States,Max Meadows,6252001.0,36.9056,-80.9244,,
4796,archige01,1914.0,United States,Nashville,2001.0,USA,Nashville,George,Archie,United States Nashville,4123271.0,,US,United States,Nashville,6252001.0,33.9576,-93.8707,35.9692,-77.9553
4814,arciaor01,1994.0,Venezuela,Anaco,,,,Orlando,Arcia,Venezuela Anaco,3486270.0,SA,VE,Venezuela,Anaco,,9.44,-64.46,9.44,-64.46
4815,arciaos01,1991.0,Venezuela,Anaco,,,,Oswaldo,Arcia,Venezuela Anaco,3486270.0,SA,VE,Venezuela,Anaco,,9.44,-64.46,9.44,-64.46
4816,ardelda01,1941.0,United States,Seattle,,,,Dan,Ardell,United States Seattle,5809844.0,,US,United States,Seattle,6252001.0,47.3957,-122.3036,47.6211,-122.3244
4817,ardizru01,1919.0,Italy,Oleggio,2015.0,USA,San Francisco,Rugger,Ardizoia,Italy Oleggio,3172079.0,EU,IT,Italy,Oleggio,3175395.0,45.5967,8.6421,,
4818,ardnejo01,1858.0,United States,Mount Vernon,1935.0,USA,Cleveland,Joe,Ardner,United States Mount Vernon,4078348.0,,US,United States,Mount Vernon,6252001.0,31.0974,-88.035,48.4202,-122.3116
4903,arellfr01,1882.0,United States,Santa Cruz,1918.0,USA,San Jose,Frank,Arellanes,United States Santa Cruz,5393052.0,,US,United States,Santa Cruz,6252001.0,36.9689,-121.9903,36.9788,-122.0346
4905,arenano01,1991.0,United States,Newport Beach,,,,Nolan,Arenado,United States Newport Beach,5376890.0,,US,United States,Newport Beach,6252001.0,33.6045,-117.9021,33.6151,-117.8669
4906,arencjp01,1986.0,United States,Miami,,,,J. P.,Arencibia,United States Miami,4164138.0,,US,United States,Miami,6252001.0,25.5584,-80.4582,25.784,-80.2102
4916,arftha01,1922.0,United States,Manchester,2002.0,USA,St. Louis,Hank,Arft,United States Manchester,4207625.0,,US,United States,Manchester,6252001.0,32.8721,-84.6312,42.9848,-71.4447
4991,ariasal01,1967.0,United States,New York,,,,Alex,Arias,United States New York,5128581.0,,US,United States,New York,6252001.0,40.6052,-74.1795,40.6943,-73.9249
4992,ariasal02,1983.0,Dominican Republic,Santo Domingo,,,,Alberto,Arias,Dominican Republic Santo Domingo,3492908.0,,DO,Dominican Republic,Santo Domingo,,18.4701,-69.9001,18.4701,-69.9001
4993,ariasge01,1972.0,United States,Tucson,,,,George,Arias,United States Tucson,5318313.0,,US,United States,Tucson,6252001.0,32.0839,-110.9004,32.1546,-110.8782
4994,ariasjo01,1984.0,Dominican Republic,Santo Domingo,,,,Joaquin,Arias,Dominican Republic Santo Domingo,3492908.0,,DO,Dominican Republic,Santo Domingo,,18.4701,-69.9001,18.4701,-69.9001
4996,arletbu01,1899.0,United States,Elmhurst,1964.0,USA,Minneapolis,Buzz,Arlett,United States Elmhurst,4891010.0,,US,United States,Elmhurst,6252001.0,41.8957,-87.9435,41.8973,-87.9432
4999,arlicdo01,1943.0,United States,Wayne,,,,Don,Arlich,United States Wayne,4554839.0,,US,United States,Wayne,6252001.0,34.9154,-97.329,42.2379,-97.01
5015,arlinst01,1945.0,United States,Seattle,2016.0,USA,San Diego,Steve,Arlin,United States Seattle,5809844.0,,US,United States,Seattle,6252001.0,47.3957,-122.3036,47.6211,-122.3244
5019,armbrch01,1880.0,United States,Cincinnati,1964.0,USA,Grants Pass,Charlie,Armbruster,United States Cincinnati,4508722.0,,US,United States,Cincinnati,6252001.0,39.0584,-84.3396,39.1412,-84.5059
5021,armbred01,1948.0,Bahamas,Nassau,,,,Ed,Armbrister,Bahamas Nassau,3571824.0,,BS,Bahamas,Nassau,1861060.0,25.0833,-77.35,,
5022,armbrha01,1882.0,United States,Liverpool,1953.0,USA,Cincinnati,Harry,Armbruster,United States Liverpool,4707158.0,,US,United States,Liverpool,6252001.0,29.2667,-95.2889,,
5026,armoubi99,1869.0,United States,Homestead,1922.0,USA,Minneapolis,Bill,Armour,United States Homestead,4159050.0,,US,United States,Homestead,6252001.0,25.2846,-80.6246,25.4664,-80.4472
5029,armstbo01,1850.0,United States,Baltimore,1917.0,USA,Fort Worth,Robert,Armstrong,United States Baltimore,4347778.0,,US,United States,Baltimore,6252001.0,39.2293,-76.6907,39.3051,-76.6144
5031,armstge01,1924.0,United States,Orange,1993.0,USA,Orange,George,Armstrong,United States Orange,4716805.0,,US,United States,Orange,6252001.0,30.0709,-93.8659,38.2486,-78.1127
5050,armstja01,1965.0,United States,Englewood,,,,Jack,Armstrong,United States Englewood,4154465.0,,US,United States,Englewood,6252001.0,26.92,-82.3048,40.8917,-73.9736
5068,armstmi01,1954.0,United States,Glen Cove,,,,Mike,Armstrong,United States Glen Cove,5118626.0,,US,United States,Glen Cove,6252001.0,40.8627,-73.6351,40.8709,-73.6287
5069,armstsh01,1990.0,United States,New Bern,,,,Shawn,Armstrong,United States New Bern,4481682.0,,US,United States,New Bern,6252001.0,35.0987,-77.1045,35.0955,-77.0724
5070,arndtha01,1879.0,United States,South Bend,1921.0,USA,South Bend,Harry,Arndt,United States South Bend,4926563.0,,US,United States,South Bend,6252001.0,41.5968,-86.29299999999999,41.6771,-86.2692
5072,arndtla01,1963.0,United States,Fremont,2014.0,USA,Tucson,Larry,Arndt,United States Fremont,4467254.0,,US,United States,Fremont,6252001.0,35.5553,-77.958,41.4417,-96.4886
5096,arnolbi01,1851.0,United States,Middletown,1899.0,USA,Albany,Billy,Arnold,United States Middletown,4143637.0,,US,United States,Middletown,6252001.0,39.4851,-75.6794,39.4452,-75.7165
5174,arnolch01,1947.0,United States,Long Beach,,,,Chris,Arnold,United States Long Beach,4434069.0,,US,United States,Long Beach,6252001.0,30.3598,-89.1646,40.5887,-73.666
5186,arnolja01,1974.0,United States,Dearborn,,,,Jamie,Arnold,United States Dearborn,4383553.0,,US,United States,Dearborn,,42.3127,-83.2129,42.3127,-83.2129
5188,arnolsc01,1962.0,United States,Lexington,,,,Scott,Arnold,United States Lexington,4072339.0,,US,United States,Lexington,6252001.0,34.9559,-87.3935,37.7825,-79.444
5290,arnolto01,1959.0,United States,El Paso,,,,Tony,Arnold,United States El Paso,4890813.0,,US,United States,El Paso,6252001.0,40.7389,-89.012,31.8479,-106.4309
5292,arnovmo01,1910.0,United States,Superior,1959.0,USA,Superior,Morrie,Arnovich,United States Superior,4878033.0,,US,United States,Superior,,46.6941,-92.0823,46.6941,-92.0823
5304,arnsbbr01,1963.0,United States,Seattle,,,,Brad,Arnsberg,United States Seattle,5809844.0,,US,United States,Seattle,6252001.0,47.3957,-122.3036,47.6211,-122.3244
5305,arntzor01,1909.0,United States,Beverly,1970.0,USA,Cedar Rapids,Orie,Arntzen,United States Beverly,4268263.0,,US,United States,Beverly,6252001.0,38.9844,-97.9818,42.5681,-70.8627
5311,arojo01,1990.0,Dominican Republic,La Vega,,,,Jonathan,Aro,Dominican Republic La Vega,,,,,,,19.2166,-70.5166,19.2166,-70.5166
5313,arrieja01,1986.0,United States,Farmington,,,,Jake,Arrieta,United States Farmington,4110443.0,,US,United States,Farmington,6252001.0,36.0436,-94.2539,36.7555,-108.1823
5409,arrigge01,1941.0,United States,Chicago,,,,Gerry,Arrigo,United States Chicago,4887398.0,,US,United States,Chicago,6252001.0,41.6642,-87.5612,41.8373,-87.6861
5410,arrojro01,1965.0,Cuba,Santa Clara,,,,Rolando,Arrojo,Cuba Santa Clara,3537904.0,,CU,Cuba,Santa Clara,,22.4,-79.9667,22.4,-79.9667
5412,arroybr01,1977.0,United States,Key West,,,,Bronson,Arroyo,United States Key West,4160812.0,,US,United States,Key West,2635167.0,24.5615,-81.7818,24.5636,-81.7769
5413,arroych01,1995.0,United States,Tampa,,,,Christian,Arroyo,United States Tampa,4174757.0,,US,United States,Tampa,6252001.0,27.872,-82.4388,27.9937,-82.4454
5415,arroyfe01,1952.0,United States,Sacramento,,,,Fernando,Arroyo,United States Sacramento,4307057.0,,US,United States,Sacramento,6252001.0,37.4177,-87.2736,38.5667,-121.4683
5419,arroyru01,1950.0,United States,New York,,,,Rudy,Arroyo,United States New York,5128581.0,,US,United States,New York,6252001.0,40.6052,-74.1795,40.6943,-73.9249
5420,arrueer01,1990.0,Cuba,Cienfuegos,,,,Erisbel,Arruebarrena,Cuba Cienfuegos,,,,,,,22.1444,-80.4403,22.1444,-80.4403
5421,arundha01,1855.0,United States,Philadelphia,1904.0,USA,Cleveland,Harry,Arundel,United States Philadelphia,4403125.0,,US,United States,Philadelphia,,40.0076,-75.134,40.0076,-75.134
5431,arundtu01,1862.0,United States,Auburn,1912.0,USA,Romulus,Tug,Arundel,United States Auburn,4180512.0,,US,United States,Auburn,6252001.0,34.0191,-83.8261,47.3041,-122.211
5536,asadora01,1962.0,United States,Fresno,,,,Randy,Asadoor,United States Fresno,4692400.0,,US,United States,Fresno,6252001.0,29.5293,-95.4626,36.7834,-119.7941
5539,asbelji01,1914.0,United States,Dallas,1967.0,USA,San Mateo,Jim,Asbell,United States Dallas,4190598.0,,US,United States,Dallas,6252001.0,33.8992,-84.8572,32.7937,-96.7662
5560,asbjoca01,1909.0,United States,Concord,1970.0,USA,Williamsport,Casper,Asbjornson,United States Concord,4189077.0,,US,United States,Concord,6252001.0,33.0998,-84.447,43.2305,-71.5595
5590,ascanjo01,1985.0,Venezuela,Maracay,,,,Jose,Ascanio,Venezuela Maracay,3632998.0,SA,VE,Venezuela,Maracay,,10.2469,-67.5958,10.2469,-67.5958
5594,ashburi01,1927.0,United States,Tilden,1997.0,USA,New York,Richie,Ashburn,United States Tilden,4736889.0,,US,United States,Tilden,6252001.0,28.4198,-98.5693,,
5596,ashbyal01,1951.0,United States,Long Beach,,,,Alan,Ashby,United States Long Beach,4434069.0,,US,United States,Long Beach,6252001.0,30.3598,-89.1646,40.5887,-73.666
5608,ashbyan01,1967.0,United States,Kansas City,,,,Andy,Ashby,United States Kansas City,4273837.0,,US,United States,Kansas City,6252001.0,38.9716,-94.6146,39.1239,-94.5541
5612,asheral01,1991.0,United States,Lakeland,,,,Alec,Asher,United States Lakeland,4161438.0,,US,United States,Lakeland,6252001.0,27.9611,-81.9398,28.0557,-81.9543
5618,ashfotu01,1954.0,United States,Memphis,,,,Tucker,Ashford,United States Memphis,4261256.0,,US,United States,Memphis,6252001.0,38.4642,-85.7775,35.1047,-89.9773
5625,ashlebi01,1970.0,United States,Trenton,,,,Billy,Ashley,United States Trenton,4175637.0,,US,United States,Trenton,6252001.0,29.6133,-82.8176,40.2237,-74.764
5677,ashlene01,1984.0,United States,Vincennes,,,,Nevin,Ashley,United States Vincennes,4266307.0,,US,United States,Vincennes,6252001.0,38.6734,-87.5098,38.676,-87.5102
5678,asmusto01,1878.0,United States,Chicago,1963.0,USA,Arlington Heights,Tom,Asmussen,United States Chicago,4887398.0,,US,United States,Chicago,6252001.0,41.6642,-87.5612,41.8373,-87.6861
5679,asprobo01,1938.0,United States,Brooklyn,,,,Bob,Aspromonte,United States Brooklyn,4349594.0,,US,United States,Brooklyn,6252001.0,39.2259,-76.6153,40.6501,-73.9496
5691,asproke01,1931.0,United States,Brooklyn,,,,Ken,Aspromonte,United States Brooklyn,4349594.0,,US,United States,Brooklyn,6252001.0,39.2259,-76.6153,40.6501,-73.9496
5703,asselbr01,1953.0,United States,Santa Barbara,,,,Brian,Asselstine,United States Santa Barbara,5392952.0,,US,United States,Santa Barbara,6252001.0,34.4038,-119.7194,34.4285,-119.7202
5704,assenpa01,1960.0,United States,Detroit,,,,Paul,Assenmacher,United States Detroit,4058738.0,,US,United States,Detroit,,42.3834,-83.1024,42.3834,-83.1024
5710,astinba01,1991.0,United States,Forrest City,,,,Barrett,Astin,United States Forrest City,4111382.0,,US,United States,Forrest City,6252001.0,35.0091,-90.7886,35.0102,-90.7874
5711,astrojo01,1922.0,United States,East Alton,2013.0,USA,Boca Raton,Joe,Astroth,United States East Alton,4237473.0,,US,United States,East Alton,6252001.0,38.8803,-90.083,38.8837,-90.1077
5712,astudwi01,1991.0,Venezuela,Barcelona,,,,Willians,Astudillo,Venezuela Barcelona,3648559.0,SA,VE,Venezuela,Barcelona,,10.1304,-64.72,10.1304,-64.72
5713,asuajca01,1991.0,Venezuela,Barquisimeto,,,,Carlos,Asuaje,Venezuela Barquisimeto,3648522.0,SA,VE,Venezuela,Barquisimeto,,10.05,-69.3,10.05,-69.3
5714,atchisc01,1976.0,United States,Denton,,,,Scott,Atchison,United States Denton,4270352.0,,US,United States,Denton,,33.2176,-97.1421,33.2176,-97.1421
5720,atchlju01,1973.0,United States,Sedro-Woolley,,,,Justin,Atchley,United States Sedro-Woolley,5809902.0,,US,United States,Sedro-Woolley,6252001.0,48.5274,-122.2329,48.5113,-122.232
5721,atherch01,1873.0,United States,New Brunswick,1935.0,Austria,Vienna,Charlie,Atherton,United States New Brunswick,5101717.0,,US,United States,New Brunswick,6252001.0,40.488,-74.4544,40.487,-74.445
5722,atherke01,1959.0,United States,Newport News,,,,Keith,Atherton,United States Newport News,4776024.0,,US,United States,Newport News,6252001.0,36.9864,-76.4165,37.1051,-76.5185
5724,atkinal01,1861.0,United States,Clinton,1952.0,USA,McNatt,Al,Atkinson,United States Clinton,4106074.0,,US,United States,Clinton,6252001.0,35.6045,-92.4758,35.0005,-78.3312
5974,atkinbi01,1954.0,Canada,Chatham,,,,Bill,Atkinson,Canada Chatham,5920457.0,,CA,Canada,Chatham,6251999.0,42.4209,-82.1993,,
5975,atkined01,1851.0,United States,Baltimore,,,,Ed,Atkinson,United States Baltimore,4347778.0,,US,United States,Baltimore,6252001.0,39.2293,-76.6907,39.3051,-76.6144
5977,atkinga01,1979.0,United States,Orange,,,,Garrett,Atkins,United States Orange,4716805.0,,US,United States,Orange,6252001.0,30.0709,-93.8659,38.2486,-78.1127
5995,atkinja01,1921.0,United States,Birmingham,2009.0,USA,Hanceville,James,Atkins,United States Birmingham,4049979.0,,US,United States,Birmingham,6252001.0,33.3555,-86.8274,33.5276,-86.7988
5999,atkinle01,1904.0,United States,Chicago,1961.0,USA,Chicago,Lefty,Atkinson,United States Chicago,4887398.0,,US,United States,Chicago,6252001.0,41.6642,-87.5612,41.8373,-87.6861
6000,atkinmi01,1985.0,United States,Browns Summit,,,,Mitch,Atkins,United States Browns Summit,4457556.0,,US,United States,Browns Summit,6252001.0,36.2019,-79.7101,,
6001,atkinto01,1887.0,United States,Ponca,1956.0,USA,Cleveland,Tommy,Atkins,United States Ponca,5075615.0,,US,United States,Ponca,6252001.0,42.5693,-96.7128,,
6002,attredi01,1897.0,United States,Chicago,1964.0,USA,Chicago,Dick,Attreau,United States Chicago,4887398.0,,US,United States,Chicago,6252001.0,41.6642,-87.5612,41.8373,-87.6861
6003,atwelto01,1924.0,United States,Leesburg,2003.0,USA,Purcellville,Toby,Atwell,United States Leesburg,4072156.0,,US,United States,Leesburg,6252001.0,34.1911,-85.7705,39.1058,-77.5544
6017,atwoobi01,1911.0,United States,Rome,1993.0,USA,Snyder,Bill,Atwood,United States Rome,4219762.0,,US,United States,Rome,6252001.0,34.2507,-85.1465,43.226,-75.4909
6025,atzja01,1879.0,United States,Washington,1945.0,USA,New Orleans,Jake,Atz,United States Washington,4135386.0,,US,United States,Washington,,38.9047,-77.0163,38.9047,-77.0163
6215,aubremi01,1982.0,United States,Shreveport,,,,Michael,Aubrey,United States Shreveport,4341513.0,,US,United States,Shreveport,6252001.0,32.3401,-93.6092,32.4659,-93.7959
6216,aucoide01,1970.0,Canada,Lachine,,,,Derek,Aucoin,Canada Lachine,6545041.0,,CA,Canada,Lachine,6251999.0,45.4167,-73.6667,,
6217,auderi01,1971.0,United States,Van Nuys,,,,Rich,Aude,United States Van Nuys,5405693.0,,US,United States,Van Nuys,6252001.0,34.1781,-118.4574,,
6218,auerbri01,1950.0,United States,Woodland Hills,,,,Rick,Auerbach,United States Woodland Hills,5410438.0,,US,United States,Woodland Hills,6252001.0,34.1554,-118.5957,,
6219,augenbr01,1986.0,United States,Sebastian,,,,Bryan,Augenstein,United States Sebastian,4172372.0,,US,United States,Sebastian,6252001.0,27.791999999999998,-80.4807,27.7883,-80.4815
6220,augusda01,1949.0,United States,Follansbee,,,,Dave,Augustine,United States Follansbee,5280285.0,,US,United States,Follansbee,6252001.0,40.3296,-80.585,,
6221,augusdo01,1963.0,United States,Inglewood,,,,Don,August,United States Inglewood,5359488.0,,US,United States,Inglewood,6252001.0,33.9376,-118.3582,33.9566,-118.3444
6222,augusje01,1952.0,United States,Kewaunee,,,,Jerry,Augustine,United States Kewaunee,5258490.0,,US,United States,Kewaunee,6252001.0,44.4401,-87.5594,,
6223,aukerel01,1910.0,United States,Norcatur,2006.0,USA,Vero Beach,Elden,Auker,United States Norcatur,5446057.0,,US,United States,Norcatur,6252001.0,39.8447,-100.2007,,
6224,auldsle01,1920.0,United States,Farmerville,1999.0,USA,Hondo,Tex,Aulds,United States Farmerville,4324179.0,,US,United States,Farmerville,6252001.0,32.7534,-92.318,,
6225,aultdo01,1950.0,United States,Beaumont,2004.0,USA,Tarpon Springs,Doug,Ault,United States Beaumont,4417378.0,,US,United States,Beaumont,,30.0849,-94.1451,30.0849,-94.1451
6231,aumonph01,1989.0,Canada,Gatineau,,,,Phillippe,Aumont,Canada Gatineau,5959974.0,,CA,Canada,Gatineau,6251999.0,45.3932,-75.8288,,
6232,aurilri01,1971.0,United States,Brooklyn,,,,Rich,Aurilia,United States Brooklyn,4349594.0,,US,United States,Brooklyn,6252001.0,39.2259,-76.6153,40.6501,-73.9496
6244,ausanjo01,1965.0,United States,Kingston,,,,Joe,Ausanio,United States Kingston,4117560.0,,US,United States,Kingston,,35.8717,-84.4954,35.8717,-84.4954
6292,ausmubr01,1969.0,United States,New Haven,,,,Brad,Ausmus,United States New Haven,4302374.0,,US,United States,New Haven,6252001.0,37.6438,-85.54700000000001,41.0669,-85.0282
6306,austde01,1940.0,United States,Tecumseh,,,,Dennis,Aust,United States Tecumseh,4280350.0,,US,United States,Tecumseh,6252001.0,39.0217,-95.5379,35.2639,-96.9338
6316,austije01,1976.0,United States,San Bernardino,,,,Jeff,Austin,United States San Bernardino,5391710.0,,US,United States,San Bernardino,6252001.0,34.0831,-117.2711,34.1412,-117.2936
6317,austiji01,1879.0,United Kingdom,Swansea,1965.0,USA,Laguna Beach,Jimmy,Austin,United Kingdom Swansea,2636432.0,EU,GB,United Kingdom,Swansea,2635167.0,51.5775,-4.0481,51.63,-3.95
6318,austiji02,1963.0,United States,Farmville,,,,Jim,Austin,United States Farmville,4465984.0,,US,United States,Farmville,6252001.0,35.5806,-77.5793,37.2968,-78.3993
6320,austiri01,1946.0,United States,Seattle,,,,Rick,Austin,United States Seattle,5809844.0,,US,United States,Seattle,6252001.0,47.3957,-122.3036,47.6211,-122.3244
6321,austity01,1991.0,United States,Conyers,,,,Tyler,Austin,United States Conyers,4189213.0,,US,United States,Conyers,6252001.0,33.6111,-84.0683,33.6645,-83.9967
6322,autryal01,1952.0,United States,Modesto,,,,Al,Autry,United States Modesto,4244726.0,,US,United States,Modesto,,37.6374,-121.0028,37.6374,-121.0028
6324,autrych01,1885.0,United States,Humboldt,1976.0,USA,Santa Rosa,Chick,Autry,United States Humboldt,4241149.0,,US,United States,Humboldt,,35.8254,-88.9045,35.8254,-88.9045
6338,autrych02,1903.0,United States,Martindale,1950.0,USA,Savannah,Chick,Autry,United States Martindale,4709410.0,,US,United States,Martindale,6252001.0,29.8394,-97.8508,,
6340,avenbr01,1972.0,United States,Orange,,,,Bruce,Aven,United States Orange,4716805.0,,US,United States,Orange,6252001.0,30.0709,-93.8659,38.2486,-78.1127
6358,averiea01,1902.0,United States,Snohomish,1983.0,USA,Everett,Earl,Averill,United States Snohomish,5810988.0,,US,United States,Snohomish,6252001.0,47.8579,-122.09200000000001,47.9277,-122.097
6359,averiea02,1931.0,United States,Cleveland,2015.0,USA,Tacoma,Earl,Averill,United States Cleveland,4055815.0,,US,United States,Cleveland,6252001.0,33.9778,-86.5598,30.3368,-95.0924
6439,averyst01,1970.0,United States,Trenton,,,,Steve,Avery,United States Trenton,4175637.0,,US,United States,Trenton,6252001.0,29.6133,-82.8176,40.2237,-74.764
6491,averyxa01,1990.0,United States,Atlanta,,,,Xavier,Avery,United States Atlanta,4180439.0,,US,United States,Atlanta,6252001.0,33.6026,-84.4769,33.1136,-94.1672
6507,avilaal01,1987.0,United States,Hialeah,,,,Alex,Avila,United States Hialeah,4158476.0,,US,United States,Hialeah,6252001.0,25.8275,-80.2724,25.8696,-80.3045
6508,avilabo01,1924.0,Mexico,Veracruz,2004.0,Mexico,Veracruz,Bobby,Avila,Mexico Veracruz,3514783.0,,MX,Mexico,Veracruz,3164670.0,19.1794,-96.1358,19.1773,-96.16
6509,avilalu01,1989.0,Venezuela,Caracas,,,,Luis,Avilan,Venezuela Caracas,3646738.0,SA,VE,Venezuela,Caracas,3625428.0,10.5048,-66.9208,10.501,-66.917
6510,avilemi01,1981.0,United States,New York,,,,Mike,Aviles,United States New York,5128581.0,,US,United States,New York,6252001.0,40.6052,-74.1795,40.6943,-73.9249
6511,avilera01,1952.0,Puerto Rico,Manati,,,,Ramon,Aviles,Puerto Rico Manati,4566137.0,,PR,Puerto Rico,Manati,6252001.0,18.4274,-66.4921,,
6512,avreaja01,1920.0,United States,Cleburne,1987.0,USA,Dallas,Jay,Avrea,United States Cleburne,4681976.0,,US,United States,Cleburne,6252001.0,32.3485,-97.3311,32.3562,-97.4146
6513,axelrdy01,1985.0,United States,Santa Barbara,,,,Dylan,Axelrod,United States Santa Barbara,5392952.0,,US,United States,Santa Barbara,6252001.0,34.4038,-119.7194,34.4285,-119.7202
6514,axforjo01,1983.0,Canada,Simcoe,,,,John,Axford,Canada Simcoe,6147962.0,,CA,Canada,Simcoe,6251999.0,42.8334,-80.2997,,
6515,ayalabe01,1951.0,Puerto Rico,Yauco,,,,Benny,Ayala,Puerto Rico Yauco,4568917.0,,PR,Puerto Rico,Yauco,4566966.0,18.035,-66.8499,,
6516,ayalabo01,1969.0,United States,Ventura,,,,Bobby,Ayala,United States Ventura,5405878.0,,US,United States,Ventura,6252001.0,34.2788,-119.1651,,
6517,ayalalu01,1978.0,Mexico,Los Mochis,,,,Luis,Ayala,Mexico Los Mochis,3997479.0,,MX,Mexico,Los Mochis,3996063.0,25.793000000000003,-108.9981,25.79,-109.0
6521,aydelja01,1861.0,United States,Marion,1926.0,USA,Detroit,Jake,Aydelott,United States Marion,4049048.0,,US,United States,Marion,6252001.0,38.0266,-75.7579,36.8389,-81.5135
6697,ayersbi01,1919.0,United States,Newnan,1980.0,USA,Newnan,Bill,Ayers,United States Newnan,4212684.0,,US,United States,Newnan,6252001.0,33.361,-84.8142,33.3763,-84.7758
6699,aylwadi01,1925.0,United States,Baltimore,1983.0,USA,Spring Valley,Dick,Aylward,United States Baltimore,4347778.0,,US,United States,Baltimore,6252001.0,39.2293,-76.6907,39.3051,-76.6144
6701,ayraubo01,1966.0,United States,South Lake Tahoe,,,,Bob,Ayrault,United States South Lake Tahoe,5397664.0,,US,United States,South Lake Tahoe,6252001.0,38.8981,-119.9984,38.9393,-119.9828
6702,ayraujo01,1971.0,United States,Rochester,,,,Joe,Ayrault,United States Rochester,4248284.0,,US,United States,Rochester,6252001.0,39.7182,-89.5649,43.299,-70.9787
6757,azcuejo01,1939.0,Cuba,Cienfuegos,,,,Joe,Azcue,Cuba Cienfuegos,,,,,,,22.1444,-80.4403,22.1444,-80.4403
6759,babbch01,1873.0,United States,Milwaukie,1954.0,USA,Portland,Charlie,Babb,United States Milwaukie,,,,,,,45.4445,-122.6219,45.4445,-122.6219
6760,babcobo01,1949.0,United States,New Castle,,,,Bob,Babcock,United States New Castle,4143834.0,,US,United States,New Castle,6252001.0,39.5929,-75.6515,39.6685,-75.5693
6788,babelo01,1928.0,United States,Pisgah,1984.0,USA,Omaha,Loren,Babe,United States Pisgah,4083725.0,,US,United States,Pisgah,6252001.0,34.6809,-85.8478,,
6790,babicjo01,1913.0,United States,Albion,2001.0,USA,Richmond,Johnny,Babich,United States Albion,4232568.0,,US,United States,Albion,6252001.0,38.374,-88.0636,43.246,-78.1902
6808,babinch01,1895.0,United States,Cranston,1957.0,USA,Providence,Charlie,Babington,United States Cranston,5221659.0,,US,United States,Cranston,6252001.0,41.7614,-71.5061,41.7658,-71.4858
6809,babitsh01,1959.0,United States,Oakland,,,,Shooty,Babitt,United States Oakland,4166628.0,,US,United States,Oakland,6252001.0,28.5547,-81.6322,41.0313,-74.2408
6845,backebr01,1978.0,United States,Galveston,,,,Brandon,Backe,United States Galveston,4692883.0,,US,United States,Galveston,6252001.0,29.2243,-94.9637,29.2487,-94.891
6847,backmle01,1888.0,United States,Cleves,1975.0,USA,Cincinnati,Les,Backman,United States Cleves,4508944.0,,US,United States,Cleves,6252001.0,39.1937,-84.734,,
6848,backmwa01,1959.0,United States,Hillsboro,,,,Wally,Backman,United States Hillsboro,4067432.0,,US,United States,Hillsboro,,32.0091,-97.1151,32.0091,-97.1151
6900,baconed01,1895.0,United States,Frankfort,1963.0,USA,Louisville,Eddie,Bacon,United States Frankfort,4271764.0,,US,United States,Frankfort,6252001.0,39.7333,-96.5223,41.4913,-87.8395
6921,bacsimi01,1952.0,United States,Dallas,,,,Mike,Bacsik,United States Dallas,4190598.0,,US,United States,Dallas,6252001.0,33.8992,-84.8572,32.7937,-96.7662
6942,bacsimi02,1977.0,United States,Dallas,,,,Mike,Bacsik,United States Dallas,4190598.0,,US,United States,Dallas,6252001.0,33.8992,-84.8572,32.7937,-96.7662
6964,badenbu01,1983.0,United States,Atlanta,,,,Burke,Badenhop,United States Atlanta,4180439.0,,US,United States,Atlanta,6252001.0,33.6026,-84.4769,33.1136,-94.1672
6981,baderha01,1994.0,United States,Bronxville,,,,Harrison,Bader,United States Bronxville,5110269.0,,US,United States,Bronxville,6252001.0,40.9391,-73.8353,40.9394,-73.8263
6985,baekch01,1980.0,South Korea,Busan,,,,Cha-Seung,Baek,South Korea Busan,1838524.0,AS,KR,South Korea,Busan,1835841.0,35.1003,129.0442,,
6988,baezbe01,1977.0,Dominican Republic,Bonao,,,,Benito,Baez,Dominican Republic Bonao,3511233.0,,DO,Dominican Republic,Bonao,,18.942,-70.409,18.942,-70.409
6989,baezda01,1977.0,Cuba,Pinar del Rio,,,,Danys,Baez,Cuba Pinar del Rio,,,,,,,22.4175,-83.6981,22.4175,-83.6981
6992,baezke01,1967.0,United States,Brooklyn,,,,Kevin,Baez,United States Brooklyn,4349594.0,,US,United States,Brooklyn,6252001.0,39.2259,-76.6153,40.6501,-73.9496
7006,bagbyji01,1889.0,United States,Barnett,1954.0,USA,Marietta,Jim,Bagby,United States Barnett,4375817.0,,US,United States,Barnett,6252001.0,38.3967,-92.6686,,
7007,bagbyji02,1916.0,United States,Cleveland,1988.0,USA,Marietta,Jim,Bagby,United States Cleveland,4055815.0,,US,United States,Cleveland,6252001.0,33.9778,-86.5598,30.3368,-95.0924
7087,bagwebi01,1895.0,United States,Choudrant,1976.0,USA,Choudrant,Bill,Bagwell,United States Choudrant,4319883.0,,US,United States,Choudrant,6252001.0,32.5556,-92.5224,,
7088,bagweje01,1968.0,United States,Boston,,,,Jeff,Bagwell,United States Boston,4285208.0,,US,United States,Boston,6252001.0,37.7408,-85.5948,42.3188,-71.0846
7091,bahnsst01,1944.0,United States,Council Bluffs,,,,Stan,Bahnsen,United States Council Bluffs,4852832.0,,US,United States,Council Bluffs,6252001.0,41.2324,-95.8751,41.2369,-95.8517
7093,bahrefr01,1858.0,United States,Poughkeepsie,1888.0,USA,Poughkeepsie,Frank,Bahret,United States Poughkeepsie,4127265.0,,US,United States,Poughkeepsie,,41.6949,-73.921,41.6949,-73.921
7095,baichgr01,1889.0,United States,Toledo,1956.0,USA,San Jose,Grover,Baichley,United States Toledo,4251330.0,,US,United States,Toledo,6252001.0,39.2772,-88.2468,41.6639,-83.5822
7101,bailebi01,1888.0,United States,Fort Smith,1926.0,USA,Houston,Bill,Bailey,United States Fort Smith,4111410.0,,US,United States,Fort Smith,6252001.0,35.2502,-94.3703,35.3494,-94.3695
7103,bailebi02,1881.0,United States,Shawnee,1967.0,USA,Seattle,Bill,Bailey,United States Shawnee,4279247.0,,US,United States,Shawnee,6252001.0,39.0452,-94.7189,35.3525,-96.9647
7111,bailebo01,1942.0,United States,Long Beach,2018.0,USA,Las Vegas,Bob,Bailey,United States Long Beach,4434069.0,,US,United States,Long Beach,6252001.0,30.3598,-89.1646,40.5887,-73.666
7123,baileco01,1971.0,United States,Herrin,,,,Cory,Bailey,United States Herrin,4240540.0,,US,United States,Herrin,6252001.0,37.8019,-89.0232,37.7984,-89.0303
7124,baileed01,1931.0,United States,Strawberry Plains,2007.0,USA,Knoxville,Ed,Bailey,United States Strawberry Plains,4660483.0,,US,United States,Strawberry Plains,6252001.0,36.0687,-83.6568,,
7125,bailefr01,1895.0,United States,Mount Hope,1972.0,USA,Huntington,Fred,Bailey,United States Mount Hope,4275846.0,,US,United States,Mount Hope,6252001.0,37.8684,-97.6591,,
7129,bailege01,1893.0,United States,Pearsall,1973.0,USA,Houston,Gene,Bailey,United States Pearsall,4718107.0,,US,United States,Pearsall,6252001.0,28.8923,-99.0944,28.8884,-99.0987
7130,baileha01,1876.0,United States,Palmyra,1922.0,USA,Toledo,Harvey,Bailey,United States Palmyra,4246587.0,,US,United States,Palmyra,,40.0025,-75.036,40.0025,-75.036
7152,baileho01,1957.0,United States,Grand Haven,,,,Howard,Bailey,United States Grand Haven,4994325.0,,US,United States,Grand Haven,6252001.0,43.0301,-86.1865,43.0553,-86.2201
7153,baileho02,1986.0,United States,La Grange,,,,Homer,Bailey,United States La Grange,4204230.0,,US,United States,La Grange,6252001.0,33.0243,-85.0739,29.9129,-96.8767
7181,baileje01,1978.0,United States,Longview,,,,Jeff,Bailey,United States Longview,4707814.0,,US,United States,Longview,6252001.0,32.4264,-94.7117,46.146,-122.963
7185,baileji01,1934.0,United States,Strawberry Plains,,,,Jim,Bailey,United States Strawberry Plains,4660483.0,,US,United States,Strawberry Plains,6252001.0,36.0687,-83.6568,,
7187,bailema01,1961.0,United States,Springfield,,,,Mark,Bailey,United States Springfield,4224162.0,,US,United States,Springfield,6252001.0,32.3697,-81.3618,30.1689,-85.6092
7368,bailesc01,1961.0,United States,Chillicothe,,,,Scott,Bailes,United States Chillicothe,4381104.0,,US,United States,Chillicothe,6252001.0,39.7966,-93.5509,40.9153,-89.5018
7377,bailest01,1942.0,United States,Bronx,,,,Steve,Bailey,United States Bronx,,,,,,,40.8501,-73.8662,40.8501,-73.8662
7378,bailesw01,1895.0,United States,Joliet,1939.0,USA,Joliet,Sweetbread,Bailey,United States Joliet,4898015.0,,US,United States,Joliet,6252001.0,41.4712,-87.9391,41.5193,-88.1501
7380,bailobo01,1951.0,United States,Connellsville,,,,Bob,Bailor,United States Connellsville,5185237.0,,US,United States,Connellsville,6252001.0,40.0265,-79.5566,40.0158,-79.5899
7381,baineha01,1959.0,United States,Easton,,,,Harold,Baines,United States Easton,4270781.0,,US,United States,Easton,6252001.0,39.3391,-95.0999,40.6858,-75.2209
7397,bainlo01,1922.0,United States,Staples,1996.0,USA,Chetek,Loren,Bain,United States Staples,5048555.0,,US,United States,Staples,6252001.0,46.3536,-94.7633,,
7398,bairdal01,1895.0,United States,Cleburne,1976.0,USA,Shreveport,Al,Baird,United States Cleburne,4681976.0,,US,United States,Cleburne,6252001.0,32.3485,-97.3311,32.3562,-97.4146
7399,bairdbo01,1940.0,United States,Knoxville,1974.0,USA,Chattanooga,Bob,Baird,United States Knoxville,4117661.0,,US,United States,Knoxville,,35.9692,-83.9495,35.9692,-83.9495
7410,bairdo01,1949.0,United States,Defiance,,,,Doug,Bair,United States Defiance,4383671.0,,US,United States,Defiance,6252001.0,38.6616,-90.8302,41.281,-84.366
7413,baislje01,1982.0,United States,Tampa,,,,Jeff,Baisley,United States Tampa,4174757.0,,US,United States,Tampa,6252001.0,27.872,-82.4388,27.9937,-82.4454
7415,bajenje01,1978.0,United States,Pomona,,,,Jeff,Bajenaru,United States Pomona,4277555.0,,US,United States,Pomona,,34.0585,-117.7625,34.0585,-117.7625
7419,bakelje01,1864.0,United States,Blackwood,1915.0,USA,Philadelphia,Jersey,Bakley,United States Blackwood,4500845.0,,US,United States,Blackwood,6252001.0,39.7897,-75.0355,,
7420,bakenda01,1945.0,United States,Columbus,2014.0,USA,Galena,Dave,Bakenhaster,United States Columbus,4106350.0,,US,United States,Columbus,,43.3354,-89.03,43.3354,-89.03
7504,bakeral01,1906.0,United States,Batesville,1982.0,USA,Kenedy,Al,Baker,United States Batesville,4100525.0,,US,United States,Batesville,6252001.0,35.7826,-91.6352,35.7687,-91.6226
7517,bakerbo01,1878.0,United States,Troy,1940.0,USA,New York,Bock,Baker,United States Troy,4094163.0,,US,United States,Troy,6252001.0,31.7595,-86.0107,42.7354,-73.6751
7613,bakerch01,1856.0,United States,West Boylston,1937.0,USA,Goffstown,Charlie,Baker,United States West Boylston,4954850.0,,US,United States,West Boylston,6252001.0,42.3584,-71.7838,,
7614,bakerch02,1952.0,United States,Seattle,,,,Chuck,Baker,United States Seattle,5809844.0,,US,United States,Seattle,6252001.0,47.3957,-122.3036,47.6211,-122.3244
7616,bakerde01,1892.0,United States,Sherwood,1973.0,USA,Olmos Park,Del,Baker,United States Sherwood,4828193.0,,US,United States,Sherwood,6252001.0,34.8807,-92.2303,34.851,-92.2029
7626,bakerdo01,1961.0,United States,Fullerton,,,,Doug,Baker,United States Fullerton,5059296.0,,US,United States,Fullerton,6252001.0,46.1951,-98.3882,33.8841,-117.9279
7629,bakerdu01,1949.0,United States,Riverside,,,,Dusty,Baker,United States Riverside,4086224.0,,US,United States,Riverside,6252001.0,33.6166,-86.1996,33.9381,-117.3948
7659,bakerer01,1875.0,United States,Concord,1945.0,USA,Homer,Ernie,Baker,United States Concord,4189077.0,,US,United States,Concord,6252001.0,33.0998,-84.447,43.2305,-71.5595
7689,bakerfl01,1916.0,United States,Luray,2004.0,USA,Youngstown,Floyd,Baker,United States Luray,4274886.0,,US,United States,Luray,6252001.0,39.1039,-98.6851,,
7692,bakerfr01,1886.0,United States,Trappe,1963.0,USA,Trappe,Home Run,Baker,United States Trappe,4371620.0,,US,United States,Trappe,6252001.0,38.6647,-76.0507,,
7693,bakerfr02,1944.0,United States,Bartow,2010.0,USA,Raleigh,Frank,Baker,United States Bartow,4146723.0,,US,United States,Bartow,6252001.0,27.8957,-81.8127,27.8862,-81.8212
7695,bakerfr03,1946.0,United States,Meridian,,,,Frank,Baker,United States Meridian,4435764.0,,US,United States,Meridian,6252001.0,32.3574,-88.656,43.6113,-116.3972
7704,bakerge02,1925.0,United States,Davenport,1999.0,USA,Davenport,Gene,Baker,United States Davenport,4152805.0,,US,United States,Davenport,6252001.0,28.1951,-81.6062,41.5563,-90.6052
7710,bakerho01,1888.0,United States,Bridgeport,1964.0,USA,Bridgeport,Howard,Baker,United States Bridgeport,4051774.0,,US,United States,Bridgeport,,39.3037,-80.2476,39.3037,-80.2476
7749,bakerja01,1950.0,United States,Birmingham,,,,Jack,Baker,United States Birmingham,4049979.0,,US,United States,Birmingham,6252001.0,33.3555,-86.8274,33.5276,-86.7988
7754,bakerje02,1895.0,United States,Cleveland,1976.0,USA,West Los Angeles,Jesse,Baker,United States Cleveland,4055815.0,,US,United States,Cleveland,6252001.0,33.9778,-86.5598,30.3368,-95.0924
7834,bakerje03,1981.0,Germany,Bad Kissingen,,,,Jeff,Baker,Germany Bad Kissingen,2953424.0,EU,DE,Germany,Bad Kissingen,2921044.0,50.2023,10.0778,,
7835,bakerjo01,1981.0,United States,Alameda,,,,John,Baker,United States Alameda,5322737.0,,US,United States,Alameda,6252001.0,37.7351,-122.2431,37.767,-122.2673
7836,bakerki01,1869.0,United States,Aurora,1927.0,USA,Covington,Kirtley,Baker,United States Aurora,4048332.0,,US,United States,Aurora,6252001.0,39.0719,-84.9452,39.7084,-104.7274
7892,bakerne01,1904.0,United States,La Porte,1982.0,USA,Houston,Neal,Baker,United States La Porte,4704108.0,,US,United States,La Porte,6252001.0,29.6658,-95.0194,29.669,-95.0483
7894,bakerno01,1862.0,United States,Philadelphia,1949.0,USA,Hurffville,Norm,Baker,United States Philadelphia,4403125.0,,US,United States,Philadelphia,,40.0076,-75.134,40.0076,-75.134
7904,bakerph01,1856.0,United States,Philadelphia,1940.0,USA,Washington,Phil,Baker,United States Philadelphia,4403125.0,,US,United States,Philadelphia,,40.0076,-75.134,40.0076,-75.134
7914,bakersc01,1970.0,United States,San Jose,,,,Scott,Baker,United States San Jose,4910485.0,,US,United States,San Jose,6252001.0,40.3011,-89.6872,37.3018,-121.8485
7916,bakersc02,1981.0,United States,Shreveport,,,,Scott,Baker,United States Shreveport,4341513.0,,US,United States,Shreveport,6252001.0,32.3401,-93.6092,32.4659,-93.7959
7917,bakerst01,1956.0,United States,Eugene,,,,Steve,Baker,United States Eugene,4385819.0,,US,United States,Eugene,,44.0563,-123.1173,44.0563,-123.1173
7920,bakerto02,1934.0,United States,Port Townsend,1980.0,USA,Port Townsend,Tom,Baker,United States Port Townsend,5807239.0,,US,United States,Port Townsend,6252001.0,48.104,-122.7945,48.122,-122.7872
7921,bakertr01,1891.0,United States,Pendleton,1975.0,USA,Placerville,Tracy,Baker,United States Pendleton,4262901.0,,US,United States,Pendleton,6252001.0,39.9975,-85.7466,45.6747,-118.8172
7925,bakopa01,1972.0,United States,Lafayette,,,,Paul,Bako,United States Lafayette,4071267.0,,US,United States,Lafayette,6252001.0,32.9252,-85.4426,30.2083,-92.0322
7970,balasmi01,1910.0,United States,Lowell,1996.0,USA,Westford,Mike,Balas,United States Lowell,4119972.0,,US,United States,Lowell,6252001.0,36.2554,-94.1308,36.2563,-94.1518
7998,balazjo01,1950.0,Canada,Toronto,,,,John,Balaz,Canada Toronto,6167865.0,,CA,Canada,Toronto,6251999.0,43.5972,-79.6931,43.7,-79.42
7999,balbost01,1957.0,United States,Brockton,,,,Steve,Balboni,United States Brockton,4931429.0,,US,United States,Brockton,6252001.0,42.0774,-71.0446,42.0821,-71.0242
8001,balcebo01,1925.0,United States,San Pedro,1990.0,USA,San Pedro,Bobby,Balcena,United States San Pedro,5392528.0,,US,United States,San Pedro,6252001.0,33.7329,-118.2951,,
8002,baldero01,1981.0,United States,Woonsocket,,,,Rocco,Baldelli,United States Woonsocket,5225809.0,,US,United States,Woonsocket,6252001.0,41.9853,-71.5184,42.001,-71.4993
8004,baldsja01,1936.0,United States,Greenville,,,,Jack,Baldschun,United States Greenville,4065302.0,,US,United States,Greenville,6252001.0,31.81,-86.6229,33.1116,-96.1098
8184,baldwbi01,1948.0,United States,Tazewell,2011.0,USA,Hudson,Billy,Baldwin,United States Tazewell,4661964.0,,US,United States,Tazewell,6252001.0,36.471,-83.5552,,
8186,baldwda01,1938.0,United States,Tucson,,,,Dave,Baldwin,United States Tucson,5318313.0,,US,United States,Tucson,6252001.0,32.0839,-110.9004,32.1546,-110.8782
8187,baldwfr01,1928.0,United States,High Bridge,2004.0,USA,Beaver,Frank,Baldwin,United States High Bridge,5099025.0,,US,United States,High Bridge,6252001.0,40.6684,-74.8937,,
