,Unnamed: 0,playerID,birthYear,birthCountry,birthCity,deathYear,deathCountry,deathCity,nameFirst,nameLast,Birthplace,geoname_id,continent_code,country_iso_code,country_name,city_name,registered_country_geoname_id,latitude,longitude
0,0,aardsda01,1981.0,United States,Denver,,,,David,Aardsma,United States Denver,4463523.0,,US,United States,Denver,6252001.0,35.4837,-80.9898
5,1,aaronha01,1934.0,United States,Mobile,,,,Hank,Aaron,United States Mobile,4076598.0,,US,United States,Mobile,6252001.0,30.5928,-88.1946
6,2,aaronto01,1939.0,United States,Mobile,1984.0,USA,Atlanta,Tommie,Aaron,United States Mobile,4076598.0,,US,United States,Mobile,6252001.0,30.5928,-88.1946
7,3,aasedo01,1954.0,United States,Orange,,,,Don,Aase,United States Orange,4716805.0,,US,United States,Orange,6252001.0,30.0709,-93.8659
13,4,abadan01,1972.0,United States,Palm Beach,,,,Andy,Abad,United States Palm Beach,4167505.0,,US,United States,Palm Beach,6252001.0,26.7206,-80.0388
16,6,abadijo01,1850.0,United States,Philadelphia,1905.0,USA,Pemberton,John,Abadie,United States Philadelphia,4440906.0,,US,United States,Philadelphia,6252001.0,32.7572,-89.1154
20,7,abbated01,1877.0,United States,Latrobe,1957.0,USA,Fort Lauderdale,Ed,Abbaticchio,United States Latrobe,5197227.0,,US,United States,Latrobe,6252001.0,40.2917,-79.4054
21,8,abbeybe01,1869.0,United States,Essex,1962.0,USA,Colchester,Bert,Abbey,United States Essex,4354428.0,,US,United States,Essex,6252001.0,39.3055,-76.4518
28,9,abbeych01,1866.0,United States,Falls City,1926.0,USA,San Francisco,Charlie,Abbey,United States Falls City,4690097.0,,US,United States,Falls City,6252001.0,28.9814,-98.0156
31,10,abbotda01,1862.0,United States,Portage,1930.0,USA,Ottawa Lake,Dan,Abbott,United States Portage,4925006.0,,US,United States,Portage,6252001.0,41.5681,-87.1749
36,11,abbotfr01,1874.0,United States,Versailles,1935.0,USA,Los Angeles,Fred,Abbott,United States Versailles,4266266.0,,US,United States,Versailles,6252001.0,39.0511,-85.2235
40,12,abbotgl01,1951.0,United States,Little Rock,,,,Glenn,Abbott,United States Little Rock,4119403.0,,US,United States,Little Rock,6252001.0,34.6725,-92.3529
42,13,abbotje01,1972.0,United States,Atlanta,,,,Jeff,Abbott,United States Atlanta,4180439.0,,US,United States,Atlanta,6252001.0,33.6026,-84.4769
50,14,abbotji01,1967.0,United States,Flint,,,,Jim,Abbott,United States Flint,4691498.0,,US,United States,Flint,6252001.0,32.2079,-95.3948
52,15,abbotku01,1969.0,United States,Zanesville,,,,Kurt,Abbott,United States Zanesville,4528923.0,,US,United States,Zanesville,6252001.0,39.9275,-82.0032
54,16,abbotky01,1968.0,United States,Newburyport,,,,Kyle,Abbott,United States Newburyport,4945256.0,,US,United States,Newburyport,2017370.0,42.8133,-70.8814
56,18,abbotpa01,1967.0,United States,Van Nuys,,,,Paul,Abbott,United States Van Nuys,5405693.0,,US,United States,Van Nuys,6252001.0,34.1781,-118.4574
57,19,aberal01,1927.0,United States,Cleveland,1993.0,USA,Garfield Heights,Al,Aber,United States Cleveland,4055815.0,,US,United States,Cleveland,6252001.0,33.9778,-86.5598
75,21,abercre01,1980.0,United States,Columbus,,,,Reggie,Abercrombie,United States Columbus,4188985.0,,US,United States,Columbus,6252001.0,32.4245,-84.9481
88,22,abernbi01,1929.0,United States,Torrance,2006.0,USA,Yucaipa,Bill,Abernathie,United States Torrance,5403022.0,,US,United States,Torrance,6252001.0,33.8104,-118.3531
89,23,abernbr01,1977.0,United States,Atlanta,,,,Brent,Abernathy,United States Atlanta,4180439.0,,US,United States,Atlanta,6252001.0,33.6026,-84.4769
98,25,abernte02,1933.0,United States,Stanley,2004.0,USA,Gastonia,Ted,Abernathy,United States Stanley,4493226.0,,US,United States,Stanley,6252001.0,35.3516,-81.0959
107,26,abernwo01,1915.0,United States,Forest City,1994.0,USA,Louisville,Woody,Abernathy,United States Forest City,4466720.0,,US,United States,Forest City,6252001.0,35.325,-81.846
110,27,aberscl01,1921.0,United States,Chicago,1973.0,USA,Vallejo,Cliff,Aberson,United States Chicago,4887398.0,,US,United States,Chicago,6252001.0,41.6642,-87.5612
111,28,ablesha01,1883.0,United States,Terrell,1951.0,USA,San Antonio,Harry,Ables,United States Terrell,4736028.0,,US,United States,Terrell,6252001.0,32.7332,-96.195
112,29,abnersh01,1966.0,United States,Hamilton,,,,Shawn,Abner,United States Hamilton,4065965.0,,US,United States,Hamilton,6252001.0,34.1534,-88.0085
127,30,abramca01,1924.0,United States,Philadelphia,1997.0,USA,Fort Lauderdale,Cal,Abrams,United States Philadelphia,4440906.0,,US,United States,Philadelphia,6252001.0,32.7572,-89.1154
131,31,abramge01,1899.0,United States,Seattle,1986.0,USA,Clearwater,George,Abrams,United States Seattle,5809844.0,,US,United States,Seattle,6252001.0,47.3957,-122.3036
132,32,abregjo01,1962.0,United States,Corpus Christi,,,,Johnny,Abrego,United States Corpus Christi,4683416.0,,US,United States,Corpus Christi,6252001.0,27.6349,-97.3103
134,34,abreujo01,1913.0,United States,Oakland,1993.0,USA,Hayward,Joe,Abreu,United States Oakland,4166628.0,,US,United States,Oakland,6252001.0,28.5547,-81.6322
151,40,accarje01,1981.0,United States,Phoenix,,,,Jeremy,Accardo,United States Phoenix,4365339.0,,US,United States,Phoenix,6252001.0,39.4833,-76.5776
158,44,achteaj01,1988.0,United States,Toledo,,,,A. J.,Achter,United States Toledo,4251330.0,,US,United States,Toledo,6252001.0,39.2772,-88.2468
163,45,ackerji01,1958.0,United States,Freer,,,,Jim,Acker,United States Freer,4692359.0,,US,United States,Freer,6252001.0,27.88,-98.6061
164,46,ackerto01,1930.0,United States,Paterson,,,,Tom,Acker,United States Paterson,5102466.0,,US,United States,Paterson,6252001.0,40.897,-74.1573
165,47,ackledu01,1988.0,United States,Winston-Salem,,,,Dustin,Ackley,United States Winston-Salem,4499612.0,,US,United States,Winston-Salem,6252001.0,36.0403,-80.1933
166,48,acklefr01,1937.0,United States,Hayward,2002.0,USA,Duluth,Fritz,Ackley,United States Hayward,5255882.0,,US,United States,Hayward,6252001.0,45.9552,-91.2783
173,54,acrema01,1968.0,United States,Concord,,,,Mark,Acre,United States Concord,4189077.0,,US,United States,Concord,6252001.0,33.0998,-84.447
185,57,adairbi99,1913.0,United States,Mobile,2002.0,USA,Bay Minette,Bill,Adair,United States Mobile,4076598.0,,US,United States,Mobile,6252001.0,30.5928,-88.1946
186,58,adairje01,1936.0,United States,Sand Springs,1987.0,USA,Tulsa,Jerry,Adair,United States Sand Springs,4550659.0,,US,United States,Sand Springs,6252001.0,36.1341,-96.1426
187,59,adairji01,1907.0,United States,Waxahachie,1982.0,USA,Farmers Branch,Jimmy,Adair,United States Waxahachie,4740328.0,,US,United States,Waxahachie,6252001.0,32.3773,-96.9162
190,62,adamja01,1991.0,United States,Overland Park,,,,Jason,Adam,United States Overland Park,4276873.0,,US,United States,Overland Park,6252001.0,38.8591,-94.6314
191,63,adamsac01,1910.0,United States,Willows,2006.0,USA,Albany,Ace,Adams,United States Willows,5409777.0,,US,United States,Willows,6252001.0,39.5353,-122.2597
192,64,adamsau01,1986.0,United States,Montgomery,,,,Austin,Adams,United States Montgomery,4076784.0,,US,United States,Montgomery,6252001.0,32.2334,-86.2085
201,65,adamsau02,1991.0,United States,Tampa,,,,Austin,Adams,United States Tampa,4174757.0,,US,United States,Tampa,6252001.0,27.872,-82.4388
204,66,adamsba01,1882.0,United States,Tipton,1968.0,USA,Silver Spring,Babe,Adams,United States Tipton,4411809.0,,US,United States,Tipton,6252001.0,38.6548,-92.7814
211,67,adamsbe01,1891.0,United States,Wharton,1940.0,USA,Los Angeles,Bert,Adams,United States Wharton,4741325.0,,US,United States,Wharton,6252001.0,29.3205,-96.0858
214,68,adamsbo01,1901.0,United States,Holyoke,1996.0,USA,Lemoyne,Bob,Adams,United States Holyoke,4939783.0,,US,United States,Holyoke,6252001.0,42.202,-72.6262
216,69,adamsbo02,1907.0,United States,Birmingham,1970.0,USA,Jacksonville,Bob,Adams,United States Birmingham,4049979.0,,US,United States,Birmingham,6252001.0,33.3555,-86.8274
218,70,adamsbo03,1921.0,United States,Tuolumne,1997.0,USA,Gig Harbor,Bobby,Adams,United States Tuolumne,5403968.0,,US,United States,Tuolumne,6252001.0,37.9678,-120.2357
219,71,adamsbo04,1952.0,United States,Pittsburgh,,,,Bob,Adams,United States Pittsburgh,5206379.0,,US,United States,Pittsburgh,6252001.0,40.3323,-80.081
220,72,adamsbu01,1915.0,United States,Trinidad,1990.0,USA,Rancho Mirage,Buster,Adams,United States Trinidad,4737501.0,,US,United States,Trinidad,6252001.0,32.1383,-96.0831
223,73,adamsch01,1994.0,United States,Scottsdale,,,,Chance,Adams,United States Scottsdale,5313457.0,,US,United States,Scottsdale,6252001.0,33.4669,-111.9151
226,76,adamsdi01,1920.0,United States,Tuolumne,2016.0,USA,Fallbrook,Dick,Adams,United States Tuolumne,5403968.0,,US,United States,Tuolumne,6252001.0,37.9678,-120.2357
229,77,adamsdo01,1943.0,United States,Blue River,,,,Doug,Adams,United States Blue River,5714876.0,,US,United States,Blue River,6252001.0,44.1755,-122.1217
230,78,adamsge01,1855.0,United States,Worcester,1920.0,USA,Clarkston,George,Adams,United States Worcester,4956184.0,,US,United States,Worcester,6252001.0,42.2303,-71.7938
234,79,adamsgl01,1947.0,United States,Northbridge,,,,Glenn,Adams,United States Northbridge,4945848.0,,US,United States,Northbridge,6252001.0,42.1494,-71.6564
236,80,adamshe01,1928.0,United States,Hollywood,2012.0,USA,Tulsa,Herb,Adams,United States Hollywood,4158928.0,,US,United States,Hollywood,6252001.0,25.9843,-80.2149
242,83,adamsjo02,1971.0,United States,Lakewood,,,,Joel,Adamson,United States Lakewood,4635340.0,,US,United States,Lakewood,6252001.0,36.2416,-86.6117
253,84,adamska01,1891.0,United States,Columbus,1967.0,USA,Everett,Karl,Adams,United States Columbus,4188985.0,,US,United States,Columbus,6252001.0,32.4245,-84.9481
266,85,adamsla01,1989.0,United States,Talihina,,,,Lane,Adams,United States Talihina,4552725.0,,US,United States,Talihina,6252001.0,34.7381,-94.9978
267,86,adamsma01,1988.0,United States,Philipsburg,,,,Matt,Adams,United States Philipsburg,5205806.0,,US,United States,Philipsburg,6252001.0,40.8863,-78.219
270,87,adamsmi01,1947.0,United States,San Diego,,,,Mike,Adamson,United States San Diego,5391811.0,,US,United States,San Diego,6252001.0,32.5799,-117.0694
271,88,adamsmi02,1948.0,United States,Cincinnati,,,,Mike,Adams,United States Cincinnati,4508722.0,,US,United States,Cincinnati,6252001.0,39.0584,-84.3396
273,89,adamsmi03,1978.0,United States,Corpus Christi,,,,Mike,Adams,United States Corpus Christi,4683416.0,,US,United States,Corpus Christi,6252001.0,27.6349,-97.3103
274,90,adamsre01,1921.0,United States,Parlier,2017.0,USA,Fresno,Red,Adams,United States Parlier,5381325.0,,US,United States,Parlier,6252001.0,36.6103,-119.5375
275,91,adamsri01,1878.0,United States,Paris,1955.0,USA,Paris,Rick,Adams,United States Paris,4125402.0,,US,United States,Paris,6252001.0,35.2941,-93.7265
285,92,adamsri02,1959.0,United States,Upland,2011.0,USA,Rancho Cucamonga,Ricky,Adams,United States Upland,4927510.0,,US,United States,Upland,6252001.0,40.4548,-85.499
287,93,adamsru01,1980.0,United States,Laurinburg,,,,Russ,Adams,United States Laurinburg,4475347.0,,US,United States,Laurinburg,6252001.0,34.7599,-79.4673
288,94,adamsry01,1987.0,United States,New Orleans,,,,Ryan,Adams,United States New Orleans,4335045.0,,US,United States,New Orleans,6252001.0,29.9198,-89.999
290,96,adamssp02,1898.0,United States,Layton,1970.0,USA,Salt Lake City,Spencer,Adams,United States Layton,5777107.0,,US,United States,Layton,6252001.0,41.0846,-111.9274
291,97,adamste01,1973.0,United States,Mobile,,,,Terry,Adams,United States Mobile,4076598.0,,US,United States,Mobile,6252001.0,30.5928,-88.1946
293,98,adamswi01,1890.0,United States,Clearfield,1937.0,USA,Albany,Willie,Adams,United States Clearfield,5184541.0,,US,United States,Clearfield,6252001.0,41.021,-78.4435
295,99,adamswi02,1972.0,United States,Gallup,,,,Willie,Adams,United States Gallup,5468773.0,,US,United States,Gallup,6252001.0,35.5065,-108.7414
296,100,adcocjo01,1927.0,United States,Coushatta,1999.0,USA,Coushatta,Joe,Adcock,United States Coushatta,4321014.0,,US,United States,Coushatta,6252001.0,32.0231,-93.2648
297,101,adcocna01,1988.0,United States,Elizabethtown,,,,Nathan,Adcock,United States Elizabethtown,4237790.0,,US,United States,Elizabethtown,6252001.0,37.4665,-88.2867
303,102,addisbo01,1925.0,United States,Mineral,2016.0,USA,Mentor,Bob,Addis,United States Mineral,4773410.0,,US,United States,Mineral,6252001.0,37.9986,-77.8781
304,103,adducji01,1959.0,United States,Chicago,,,,Jim,Adduci,United States Chicago,4887398.0,,US,United States,Chicago,6252001.0,41.6642,-87.5612
305,104,adducji02,1985.0,Canada,Burnaby,,,,Jim,Adduci,Canada Burnaby,5911606.0,,CA,Canada,Burnaby,6251999.0,49.2038,-122.9921
306,105,addybo01,1842.0,Canada,Port Hope,1910.0,USA,Pocatello,Bob,Addy,Canada Port Hope,6111881.0,,CA,Canada,Port Hope,6251999.0,44.0168,-78.3995
307,106,adenhni01,1986.0,United States,Silver Spring,2009.0,USA,Orange,Nick,Adenhart,United States Silver Spring,4369596.0,,US,United States,Silver Spring,6252001.0,38.9907,-77.0261
308,107,aderhmo01,1915.0,United States,Mount Olive,1955.0,USA,Sarasota,Morrie,Aderholt,United States Mount Olive,4077867.0,,US,United States,Mount Olive,6252001.0,33.6768,-86.8717
312,108,adkinde01,1918.0,United States,Norcatur,1998.0,USA,Santa Monica,Dewey,Adkins,United States Norcatur,5446057.0,,US,United States,Norcatur,6252001.0,39.8447,-100.2007
313,109,adkindi01,1920.0,United States,Electra,1955.0,USA,Electra,Dick,Adkins,United States Electra,4688739.0,,US,United States,Electra,6252001.0,34.0362,-98.9155
314,110,adkindo01,1872.0,United States,Troy,1934.0,USA,Durham,Doc,Adkins,United States Troy,4094163.0,,US,United States,Troy,6252001.0,31.7595,-86.0107
330,111,adkingr01,1897.0,United States,Jacksonville,1966.0,USA,Little Rock,Grady,Adkins,United States Jacksonville,4069553.0,,US,United States,Jacksonville,6252001.0,33.830999999999996,-85.7752
341,112,adkinhe01,1874.0,United States,Fulton,1953.0,USA,Mexico,Harry,Atkinson,United States Fulton,4292424.0,,US,United States,Fulton,6252001.0,36.5475,-88.8749
349,113,adkinjo01,1977.0,United States,Huntington,,,,Jon,Adkins,United States Huntington,4115654.0,,US,United States,Huntington,6252001.0,35.0963,-94.3313
357,114,adkinst01,1964.0,United States,Chicago,,,,Steve,Adkins,United States Chicago,4887398.0,,US,United States,Chicago,6252001.0,41.6642,-87.5612
358,115,adlemti01,1987.0,United States,Staten Island,,,,Tim,Adleman,United States Staten Island,5139568.0,,US,United States,Staten Island,6252001.0,40.5085,-74.2445
359,116,adlesda01,1943.0,United States,Long Beach,2016.0,USA,Long Beach,Dave,Adlesh,United States Long Beach,4434069.0,,US,United States,Long Beach,6252001.0,30.3598,-89.1646
364,118,afenitr01,1963.0,United States,Escondido,,,,Troy,Afenir,United States Escondido,5346827.0,,US,United States,Escondido,6252001.0,33.0895,-117.1128
365,119,affelje01,1979.0,United States,Phoenix,,,,Jeremy,Affeldt,United States Phoenix,4365339.0,,US,United States,Phoenix,6252001.0,39.4833,-76.5776
369,120,agbaybe01,1971.0,United States,Honolulu,,,,Benny,Agbayani,United States Honolulu,5856195.0,,US,United States,Honolulu,6252001.0,21.2811,-157.8266
370,121,ageeto01,1942.0,United States,Magnolia,2001.0,USA,New York,Tommie,Agee,United States Magnolia,4120323.0,,US,United States,Magnolia,6252001.0,33.2426,-93.23
378,122,agganha01,1929.0,United States,Lynn,1955.0,USA,Cambridge,Harry,Agganis,United States Lynn,4923096.0,,US,United States,Lynn,6252001.0,40.0519,-84.93
380,123,aglerjo01,1887.0,United States,Coshocton,1971.0,USA,Massillon,Joe,Agler,United States Coshocton,5151186.0,,US,United States,Coshocton,6252001.0,40.2754,-81.866
381,124,agnewsa01,1887.0,United States,Farmington,1951.0,USA,Sonoma,Sam,Agnew,United States Farmington,4110443.0,,US,United States,Farmington,6252001.0,36.0436,-94.2539
399,127,aguilch01,1979.0,United States,Redwood City,,,,Chris,Aguila,United States Redwood City,5386834.0,,US,United States,Redwood City,6252001.0,37.4245,-122.296
401,129,aguilri01,1961.0,United States,San Gabriel,,,,Rick,Aguilera,United States San Gabriel,5392034.0,,US,United States,San Gabriel,6252001.0,34.0899,-118.0871
402,130,aguirha01,1931.0,United States,Azusa,1994.0,USA,Bloomfield Hills,Hank,Aguirre,United States Azusa,5325423.0,,US,United States,Azusa,6252001.0,34.123000000000005,-117.8988
403,131,ahearch01,1858.0,United States,Troy,1919.0,USA,Troy,Bill,Ahearn,United States Troy,4094163.0,,US,United States,Troy,6252001.0,31.7595,-86.0107
419,132,ahearpa01,1969.0,United States,San Francisco,,,,Pat,Ahearne,United States San Francisco,5391959.0,,US,United States,San Francisco,6252001.0,37.6811,-122.4806
420,133,ahmedni01,1990.0,United States,Springfield,,,,Nick,Ahmed,United States Springfield,4224162.0,,US,United States,Springfield,6252001.0,32.3697,-81.3618
440,134,aikenwi01,1954.0,United States,Seneca,,,,Willie,Aikens,United States Seneca,4279170.0,,US,United States,Seneca,6252001.0,39.8473,-96.0316
448,135,aingeda01,1959.0,United States,Eugene,,,,Danny,Ainge,United States Eugene,5725846.0,,US,United States,Eugene,6252001.0,44.0197,-123.1008
449,137,ainswku01,1978.0,United States,Baton Rouge,,,,Kurt,Ainsworth,United States Baton Rouge,4315588.0,,US,United States,Baton Rouge,6252001.0,30.3608,-91.0917
450,138,aitchra01,1887.0,United States,Tyndall,1958.0,USA,Columbus,Raleigh,Aitchison,United States Tyndall,5232489.0,,US,United States,Tyndall,6252001.0,42.99,-97.8633
451,139,aitonge01,1890.0,United States,Kingman,1976.0,USA,North Hollywood,George,Aiton,United States Kingman,4259918.0,,US,United States,Kingman,6252001.0,40.0174,-87.2569
454,140,akejo01,1861.0,United States,Altoona,1887.0,USA,La Crosse,John,Ake,United States Altoona,4145953.0,,US,United States,Altoona,6252001.0,29.0219,-81.6323
460,141,akerfda01,1962.0,United States,Denver,2012.0,USA,Phoenix,Darrel,Akerfelds,United States Denver,4463523.0,,US,United States,Denver,6252001.0,35.4837,-80.9898
466,142,akerja01,1940.0,United States,Tulare,,,,Jack,Aker,United States Tulare,5403783.0,,US,United States,Tulare,6252001.0,36.2017,-119.3402
467,143,akersbi01,1904.0,United States,Chattanooga,1962.0,USA,Chattanooga,Bill,Akers,United States Chattanooga,4532895.0,,US,United States,Chattanooga,6252001.0,34.4262,-98.6514
469,144,akersje01,1887.0,United States,Shelbyville,1979.0,USA,Bay Pines,Jerry,Akers,United States Shelbyville,4249857.0,,US,United States,Shelbyville,6252001.0,39.458,-88.8058
477,146,albaljo01,1982.0,Puerto Rico,San Juan,,,,Jonathan,Albaladejo,Puerto Rico San Juan,4568127.0,,PR,Puerto Rico,San Juan,4566966.0,18.4686,-66.1057
478,147,albanjo01,1933.0,United States,New York,2000.0,USA,New York,Joe,Albanese,United States New York,5128581.0,,US,United States,New York,6252001.0,40.6052,-74.1795
479,148,alberan01,1985.0,Canada,North Battleford,,,,Andrew,Albers,Canada North Battleford,6089404.0,,CA,Canada,North Battleford,6251999.0,52.7834,-108.2847
481,149,alberbu01,1950.0,United States,Williamsport,,,,Butch,Alberts,United States Williamsport,4528434.0,,US,United States,Williamsport,6252001.0,39.6117,-83.1251
484,150,albercy01,1882.0,United States,Grand Rapids,1917.0,USA,Fort Wayne,Cy,Alberts,United States Grand Rapids,4994358.0,,US,United States,Grand Rapids,6252001.0,42.8697,-85.6628
487,151,albergu01,1860.0,United States,Reading,1912.0,USA,Idaho Springs,Gus,Alberts,United States Reading,4948462.0,,US,United States,Reading,6252001.0,42.528,-71.109
491,153,alberjo01,1969.0,Puerto Rico,San Juan,,,,Jose,Alberro,Puerto Rico San Juan,4568127.0,,PR,Puerto Rico,San Juan,4566966.0,18.4686,-66.1057
494,154,alberma01,1983.0,United States,Houston,,,,Matt,Albers,United States Houston,4430529.0,,US,United States,Houston,6252001.0,33.9026,-88.96700000000001
501,156,albosed01,1918.0,United States,Saginaw,2003.0,USA,Saginaw,Ed,Albosta,United States Saginaw,5007989.0,,US,United States,Saginaw,6252001.0,43.3869,-84.0926
504,158,albrija01,1921.0,United States,St. Petersburg,1991.0,USA,San Diego,Jack,Albright,United States St. Petersburg,4171563.0,,US,United States,St. Petersburg,6252001.0,27.6705,-82.7119
506,160,alburvi01,1947.0,United States,Key West,2017.0,USA,Tampa,Vic,Albury,United States Key West,4160812.0,,US,United States,Key West,2635167.0,24.5615,-81.7818
513,167,alcarlu01,1941.0,Puerto Rico,Humacao,,,,Luis,Alcaraz,Puerto Rico Humacao,4565564.0,,PR,Puerto Rico,Humacao,6252001.0,18.1497,-65.8274
514,168,alcocsc01,1885.0,United States,Wooster,1973.0,USA,Wooster,Scotty,Alcock,United States Wooster,5177358.0,,US,United States,Wooster,6252001.0,40.8142,-81.9387
515,169,alderda01,1918.0,United States,Belden,1982.0,USA,Garden Grove,Dale,Alderson,United States Belden,4417553.0,,US,United States,Belden,6252001.0,34.3057,-88.8462
516,170,aldremi01,1961.0,United States,Carmel,,,,Mike,Aldrete,United States Carmel,4255466.0,,US,United States,Carmel,6252001.0,39.9714,-86.1295
519,171,aldresc01,1968.0,United States,Flint,,,,Scott,Aldred,United States Flint,4691498.0,,US,United States,Flint,6252001.0,32.2079,-95.3948
521,172,aldrico01,1979.0,United States,San Angelo,,,,Cory,Aldridge,United States San Angelo,5530022.0,,US,United States,San Angelo,6252001.0,31.4193,-100.4803
522,173,aldrija01,1961.0,United States,Alexandria,,,,Jay,Aldrich,United States Alexandria,4282342.0,,US,United States,Alexandria,6252001.0,38.9406,-84.3943
533,174,aldrivi01,1893.0,United States,Crane,1973.0,USA,Terre Haute,Vic,Aldridge,United States Crane,4256252.0,,US,United States,Crane,6252001.0,38.8949,-86.9002
537,176,alexabo01,1922.0,Canada,Vancouver,1993.0,USA,Oceanside,Bob,Alexander,Canada Vancouver,6173331.0,,CA,Canada,Vancouver,6251999.0,49.1049,-122.824
538,177,alexada01,1903.0,United States,Greeneville,1979.0,USA,Greeneville,Dale,Alexander,United States Greeneville,4626334.0,,US,United States,Greeneville,6252001.0,36.1294,-82.866
539,178,alexado01,1950.0,United States,Cordova,,,,Doyle,Alexander,United States Cordova,4050552.0,,US,United States,Cordova,6252001.0,35.16,-89.7768
543,179,alexaga01,1953.0,United States,Los Angeles,,,,Gary,Alexander,United States Los Angeles,5368361.0,,US,United States,Los Angeles,6252001.0,33.7866,-118.2987
544,180,alexage01,1968.0,United States,Baton Rouge,,,,Gerald,Alexander,United States Baton Rouge,4315588.0,,US,United States,Baton Rouge,6252001.0,30.3608,-91.0917
545,181,alexahu01,1917.0,United States,Buffalo,2000.0,USA,Oklahoma City,Hugh,Alexander,United States Buffalo,4234762.0,,US,United States,Buffalo,6252001.0,39.8499,-89.3879
557,182,alexama01,1947.0,United States,Shreveport,,,,Matt,Alexander,United States Shreveport,4341513.0,,US,United States,Shreveport,6252001.0,32.3401,-93.6092
559,184,alexani01,1858.0,United States,Pana,1933.0,USA,Pana,Nin,Alexander,United States Pana,4246595.0,,US,United States,Pana,6252001.0,39.3971,-89.1048
560,185,alexape01,1887.0,United States,Elba,1950.0,USA,St. Paul,Pete,Alexander,United States Elba,4828081.0,,US,United States,Elba,6252001.0,31.4137,-86.0777
562,186,alexasc01,1989.0,United States,Santa Rosa,,,,Scott,Alexander,United States Santa Rosa,4727076.0,,US,United States,Santa Rosa,6252001.0,26.2555,-97.8257
565,187,alexawa01,1891.0,United States,Atlanta,1978.0,USA,Fort Worth,Walt,Alexander,United States Atlanta,4180439.0,,US,United States,Atlanta,6252001.0,33.6026,-84.4769
573,188,alfarja01,1977.0,United States,San Antonio,,,,Jason,Alfaro,United States San Antonio,4171771.0,,US,United States,San Antonio,6252001.0,28.3371,-82.2882
578,192,alfonel01,1979.0,Venezuela,Puerto La Cruz,,,,Eliezer,Alfonzo,Venezuela Puerto La Cruz,3629671.0,SA,VE,Venezuela,Puerto La Cruz,1861060.0,10.5333,-67.35
579,193,alforan01,1994.0,United States,Columbia,,,,Anthony,Alford,United States Columbia,4236206.0,,US,United States,Columbia,6252001.0,38.4325,-90.2027
596,195,allanan01,1961.0,United States,Richmond,,,,Andy,Allanson,United States Richmond,4263681.0,,US,United States,Richmond,6252001.0,39.8335,-84.8983
611,196,allarbr01,1958.0,United States,Spring Valley,,,,Brian,Allard,United States Spring Valley,4525289.0,,US,United States,Spring Valley,6252001.0,39.6083,-84.02600000000001
617,197,allarko01,1997.0,United States,Anaheim,,,,Kolby,Allard,United States Anaheim,5323810.0,,US,United States,Anaheim,6252001.0,33.8055,-117.9223
618,198,allenbe01,1939.0,United States,East Liverpool,,,,Bernie,Allen,United States East Liverpool,5152709.0,,US,United States,East Liverpool,6252001.0,40.6774,-80.6006
619,199,allenbo01,1867.0,United States,Marion,1943.0,USA,Little Rock,Bob,Allen,United States Marion,4049048.0,,US,United States,Marion,6252001.0,38.0266,-75.7579
641,200,allenbo02,1894.0,United States,Muscoda,1975.0,USA,Naperville,Bob,Allen,United States Muscoda,5264038.0,,US,United States,Muscoda,6252001.0,43.2074,-90.45700000000001
642,201,allenbo03,1914.0,United States,Smithville,2005.0,USA,Chesapeake,Bob,Allen,United States Smithville,4409199.0,,US,United States,Smithville,6252001.0,39.3917,-94.5592
647,202,allenbo04,1937.0,United States,Tatum,,,,Bob,Allen,United States Tatum,4735674.0,,US,United States,Tatum,6252001.0,32.3266,-94.596
648,203,allenbr01,1986.0,United States,Conroe,,,,Brandon,Allen,United States Conroe,4682991.0,,US,United States,Conroe,6252001.0,30.1877,-95.4288
649,204,allench01,1975.0,United States,Dallas,,,,Chad,Allen,United States Dallas,4190598.0,,US,United States,Dallas,6252001.0,33.8992,-84.8572
656,205,allenco01,1988.0,United States,Orlando,,,,Cody,Allen,United States Orlando,4167147.0,,US,United States,Orlando,6252001.0,28.3774,-81.1888
660,207,allendu01,1972.0,United States,Oklahoma City,,,,Dusty,Allen,United States Oklahoma City,4544349.0,,US,United States,Oklahoma City,6252001.0,35.3267,-97.3534
661,208,allenet01,1904.0,United States,Cincinnati,1993.0,USA,Crescent City,Ethan,Allen,United States Cincinnati,4508722.0,,US,United States,Cincinnati,6252001.0,39.0584,-84.3396
663,209,allenfr01,1888.0,United States,Newbern,1933.0,USA,Gainsville,Frank,Allen,United States Newbern,4645498.0,,US,United States,Newbern,6252001.0,36.1009,-89.2514
664,210,allenga01,1955.0,United States,Culver City,,,,Gary,Allenson,United States Culver City,5341114.0,,US,United States,Culver City,6252001.0,33.9924,-118.3991
666,211,allengr01,1993.0,United States,San Diego,,,,Greg,Allen,United States San Diego,5391811.0,,US,United States,San Diego,6252001.0,32.5799,-117.0694
667,212,allenha01,1846.0,United States,Augusta,1881.0,USA,Natick,Ham,Allen,United States Augusta,4099952.0,,US,United States,Augusta,6252001.0,35.2788,-91.3527
680,214,allenhe01,1863.0,United States,Westport,1916.0,USA,Saugatuck,Hezekiah,Allen,United States Westport,4666982.0,,US,United States,Westport,6252001.0,35.8845,-88.2892
685,215,allenho01,1899.0,United States,DeLand,1981.0,USA,Canton,Horace,Allen,United States DeLand,4152890.0,,US,United States,DeLand,6252001.0,29.0266,-81.3349
687,216,allenja01,1855.0,United States,Woodstock,1915.0,USA,Trenton,Jack,Allen,United States Woodstock,4231874.0,,US,United States,Woodstock,6252001.0,34.1078,-84.5026
695,217,allenja02,1958.0,United States,Yakima,,,,Jamie,Allen,United States Yakima,5816605.0,,US,United States,Yakima,6252001.0,46.5445,-120.7444
696,218,allenje01,1972.0,United States,Anderson,,,,Jermaine,Allensworth,United States Anderson,4374798.0,,US,United States,Anderson,6252001.0,36.6506,-94.4436
701,219,allenjo01,1890.0,United States,Berkeley Springs,1967.0,USA,Hagerstown,John,Allen,United States Berkeley Springs,4798697.0,,US,United States,Berkeley Springs,6252001.0,39.5526,-78.1877
702,220,allenjo02,1904.0,United States,Lenoir,1959.0,USA,St. Petersburg,Johnny,Allen,United States Lenoir,4475640.0,,US,United States,Lenoir,6252001.0,35.9188,-81.5403
703,221,allenki01,1953.0,United States,Fontana,,,,Kim,Allen,United States Fontana,4271643.0,,US,United States,Fontana,6252001.0,38.4102,-94.8718
706,222,allenll01,1950.0,United States,Merced,,,,Lloyd,Allen,United States Merced,5372253.0,,US,United States,Merced,6252001.0,37.2308,-120.5144
707,223,allenlu01,1978.0,United States,Covington,,,,Luke,Allen,United States Covington,4189785.0,,US,United States,Covington,6252001.0,33.5146,-83.8626
718,224,allenmy01,1854.0,United States,Kingston,1924.0,USA,Kingston,Myron,Allen,United States Kingston,4204015.0,,US,United States,Kingston,6252001.0,34.2501,-84.9973
733,225,allenne01,1958.0,United States,Kansas City,,,,Neil,Allen,United States Kansas City,4273837.0,,US,United States,Kansas City,6252001.0,38.9716,-94.6146
735,226,allenni01,1888.0,United States,Norton,1939.0,USA,Hines,Nick,Allen,United States Norton,4276452.0,,US,United States,Norton,6252001.0,39.8407,-99.8878
738,227,allenpe01,1868.0,United States,Columbiana,1946.0,USA,Philadelphia,Pete,Allen,United States Columbiana,4056427.0,,US,United States,Columbiana,6252001.0,33.177,-86.6161
741,229,allenro02,1959.0,United States,Los Angeles,,,,Rod,Allen,United States Los Angeles,5368361.0,,US,United States,Los Angeles,6252001.0,33.7866,-118.2987
742,230,allensl01,1886.0,United States,West Plains,1959.0,USA,Lubbock,Sled,Allen,United States West Plains,4414200.0,,US,United States,West Plains,6252001.0,36.7284,-91.8717
743,231,alleyge01,1940.0,United States,Richmond,,,,Gene,Alley,United States Richmond,4263681.0,,US,United States,Richmond,6252001.0,39.8335,-84.8983
758,232,alliebo01,1952.0,United States,New Bedford,,,,Bob,Allietta,United States New Bedford,4945121.0,,US,United States,New Bedford,6252001.0,41.6127,-70.9167
759,233,alliega01,1931.0,United States,Statesville,2016.0,USA,San Antonio,Gair,Allie,United States Statesville,4493316.0,,US,United States,Statesville,6252001.0,35.799,-80.89399999999999
760,234,allisan01,1848.0,United States,New York,1897.0,USA,Brooklyn,Andy,Allison,United States New York,5128581.0,,US,United States,New York,6252001.0,40.6052,-74.1795
762,235,allisar01,1849.0,United States,Philadelphia,1916.0,USA,Washington,Art,Allison,United States Philadelphia,4440906.0,,US,United States,Philadelphia,6252001.0,32.7572,-89.1154
766,236,allisbi01,1850.0,United States,New York,1887.0,USA,Brooklyn,Bill,Allison,United States New York,5128581.0,,US,United States,New York,6252001.0,40.6052,-74.1795
768,238,allisda01,1966.0,United States,Front Royal,,,,Dana,Allison,United States Front Royal,4760232.0,,US,United States,Front Royal,6252001.0,38.9268,-78.1796
770,239,allisdo01,1846.0,United States,Philadelphia,1916.0,USA,Washington,Doug,Allison,United States Philadelphia,4440906.0,,US,United States,Philadelphia,6252001.0,32.7572,-89.1154
774,240,allisma01,1887.0,United States,Owensboro,1964.0,USA,Mount Vernon,Mack,Allison,United States Owensboro,4303436.0,,US,United States,Owensboro,6252001.0,37.751999999999995,-87.1514
775,241,allismi01,1890.0,United States,Elk Rapids,1957.0,USA,Kenosha,Milo,Allison,United States Elk Rapids,4991969.0,,US,United States,Elk Rapids,6252001.0,44.8955,-85.4082
776,242,allrebe01,1965.0,United States,Mesa,,,,Beau,Allred,United States Mesa,5304391.0,,US,United States,Mesa,6252001.0,33.3429,-111.6347
780,244,almanar01,1972.0,United States,El Paso,,,,Armando,Almanza,United States El Paso,4890813.0,,US,United States,El Paso,6252001.0,40.7389,-89.012
785,248,almonbi01,1952.0,United States,Providence,,,,Bill,Almon,United States Providence,4305295.0,,US,United States,Providence,6252001.0,37.405,-87.7505
793,253,almonye01,1994.0,United States,Miami,,,,Yency,Almonte,United States Miami,4164138.0,,US,United States,Miami,6252001.0,25.5584,-80.4582
799,255,almoral01,1994.0,United States,Hialeah,,,,Albert,Almora,United States Hialeah,4158476.0,,US,United States,Hialeah,6252001.0,25.8275,-80.2724
801,257,alomaro01,1968.0,Puerto Rico,Ponce,,,,Roberto,Alomar,Puerto Rico Ponce,4566880.0,,PR,Puerto Rico,Ponce,6252001.0,18.0111,-66.6141
802,258,alomasa01,1943.0,Puerto Rico,Salinas,,,,Sandy,Alomar,Puerto Rico Salinas,4568040.0,,PR,Puerto Rico,Salinas,6252001.0,17.9775,-66.2979
803,259,alomasa02,1966.0,Puerto Rico,Salinas,,,,Sandy,Alomar,Puerto Rico Salinas,4568040.0,,PR,Puerto Rico,Salinas,6252001.0,17.9775,-66.2979
805,261,aloufe01,1935.0,Dominican Republic,Bajos de Haina,,,,Felipe,Alou,Dominican Republic Bajos de Haina,3512128.0,,DO,Dominican Republic,Bajos de Haina,3508796.0,18.4167,-70.0333
806,262,alouje01,1942.0,Dominican Republic,Bajos de Haina,,,,Jesus,Alou,Dominican Republic Bajos de Haina,3512128.0,,DO,Dominican Republic,Bajos de Haina,3508796.0,18.4167,-70.0333
807,263,alouma01,1938.0,Dominican Republic,Bajos de Haina,2011.0,D.R.,Santo Domingo,Matty,Alou,Dominican Republic Bajos de Haina,3512128.0,,DO,Dominican Republic,Bajos de Haina,3508796.0,18.4167,-70.0333
808,264,aloumo01,1966.0,United States,Atlanta,,,,Moises,Alou,United States Atlanta,4180439.0,,US,United States,Atlanta,6252001.0,33.6026,-84.4769
816,265,alperwh01,1879.0,United States,Etna,1942.0,USA,Pittsburgh,Whitey,Alpermann,United States Etna,4963848.0,,US,United States,Etna,6252001.0,44.7932,-69.1322
821,266,alstode01,1952.0,United States,Valhalla,,,,Dell,Alston,United States Valhalla,5142090.0,,US,United States,Valhalla,6252001.0,41.0856,-73.7776
822,267,alstoga01,1971.0,United States,Mount Vernon,,,,Garvin,Alston,United States Mount Vernon,4078348.0,,US,United States,Mount Vernon,6252001.0,31.0974,-88.035
836,268,alstoto01,1926.0,United States,Greensboro,1993.0,USA,Winston-Salem,Tom,Alston,United States Greensboro,4065282.0,,US,United States,Greensboro,6252001.0,32.7167,-87.5905
843,269,alstowa01,1911.0,United States,Venice,1984.0,USA,Oxford,Walter,Alston,United States Venice,4176380.0,,US,United States,Venice,6252001.0,27.0602,-82.3533
847,271,altavda01,1992.0,United States,McKeesport,,,,Dan,Altavilla,United States McKeesport,5200499.0,,US,United States,McKeesport,6252001.0,40.3478,-79.8642
848,272,altener01,1894.0,United States,Avon,1981.0,USA,Napa,Ernie,Alten,United States Avon,4254021.0,,US,United States,Avon,6252001.0,39.7668,-86.4013
859,273,altenje01,1893.0,United States,Ashley,1973.0,USA,Lansing,Jesse,Altenburg,United States Ashley,4984460.0,,US,United States,Ashley,6252001.0,43.1891,-84.488
862,274,altheaa01,1991.0,Germany,Landstuhl,,,,Aaron,Altherr,Germany Landstuhl,2881477.0,EU,DE,Germany,Landstuhl,2921044.0,49.4131,7.5702
863,275,altizda01,1876.0,United States,Pearl,1964.0,USA,Pleasant Hill,Dave,Altizer,United States Pearl,4246787.0,,US,United States,Pearl,6252001.0,39.4441,-90.63799999999999
865,276,altmage01,1933.0,United States,Goldsboro,,,,George,Altman,United States Goldsboro,4468261.0,,US,United States,Goldsboro,6252001.0,35.3664,-77.9221
868,277,altobjo01,1932.0,United States,Detroit,,,,Joe,Altobelli,United States Detroit,4685987.0,,US,United States,Detroit,6252001.0,33.6627,-95.2385
871,278,altroni01,1876.0,United States,Cincinnati,1965.0,USA,Washington,Nick,Altrock,United States Cincinnati,4508722.0,,US,United States,Cincinnati,6252001.0,39.0584,-84.3396
875,280,alusige01,1935.0,United States,Ashley,2018.0,USA,Woodbridge,George,Alusik,United States Ashley,4984460.0,,US,United States,Ashley,6252001.0,43.1891,-84.488
878,281,alvarab01,1982.0,United States,Los Angeles,,,,Abe,Alvarez,United States Los Angeles,5368361.0,,US,United States,Los Angeles,6252001.0,33.7866,-118.2987
882,285,alvarga01,1974.0,Mexico,Navojoa,,,,Gabe,Alvarez,Mexico Navojoa,3995019.0,,MX,Mexico,Navojoa,3996063.0,27.0703,-109.4437
883,286,alvarhe01,1990.0,Venezuela,Valencia,,,,Henderson,Alvarez,Venezuela Valencia,3625549.0,SA,VE,Venezuela,Valencia,3625428.0,10.1806,-68.0039
884,287,alvarjo01,1956.0,United States,Tampa,,,,Jose,Alvarez,United States Tampa,4174757.0,,US,United States,Tampa,6252001.0,27.872,-82.4388
888,290,alvarju01,1973.0,United States,Coral Gables,,,,Juan,Alvarez,United States Coral Gables,4151871.0,,US,United States,Coral Gables,6252001.0,25.7641,-80.2702
889,291,alvarlu01,1949.0,Puerto Rico,Lajas,2001.0,P.R.,Lajas,Luis,Alvarado,Puerto Rico Lajas,4565898.0,,PR,Puerto Rico,Lajas,4566966.0,18.05,-67.0593
890,292,alvaror01,1952.0,Puerto Rico,Rio Grande,2016.0,P.R.,Rio Grande,Orlando,Alvarez,Puerto Rico Rio Grande,4567817.0,,PR,Puerto Rico,Rio Grande,6252001.0,18.3802,-65.8313
893,295,alvarrj01,1991.0,United States,West Palm Beach,,,,R. J.,Alvarez,United States West Palm Beach,4177887.0,,US,United States,West Palm Beach,6252001.0,26.6396,-80.0827
896,298,alvarto01,1979.0,Venezuela,Caracas,,,,Tony,Alvarez,Venezuela Caracas,3646738.0,SA,VE,Venezuela,Caracas,3625428.0,10.5048,-66.9208
899,301,alvisma01,1938.0,United States,Jasper,,,,Max,Alvis,United States Jasper,4069659.0,,US,United States,Jasper,6252001.0,33.8312,-87.2775
911,303,alyeabr01,1940.0,United States,Passaic,,,,Brant,Alyea,United States Passaic,5102443.0,,US,United States,Passaic,6252001.0,40.8565,-74.1231
912,304,amalfjo01,1934.0,United States,San Pedro,,,,Joey,Amalfitano,United States San Pedro,5392528.0,,US,United States,San Pedro,6252001.0,33.7329,-118.2951
913,305,amarari01,1962.0,United States,Visalia,,,,Rich,Amaral,United States Visalia,5406567.0,,US,United States,Visalia,6252001.0,36.317,-119.3087
915,307,amaroru01,1936.0,Mexico,Nuevo Laredo,2017.0,USA,Weston,Ruben,Amaro,Mexico Nuevo Laredo,3522551.0,,MX,Mexico,Nuevo Laredo,3996063.0,27.4758,-99.6738
917,308,amaroru02,1965.0,United States,Philadelphia,,,,Ruben,Amaro,United States Philadelphia,4440906.0,,US,United States,Philadelphia,6252001.0,32.7572,-89.1154
921,309,amblewa01,1915.0,United States,Abington,1998.0,USA,Ponte Vedra Beach,Wayne,Ambler,United States Abington,4928662.0,,US,United States,Abington,6252001.0,42.1167,-70.9543
924,310,ambrech01,1979.0,United States,Beaumont,,,,Chip,Ambres,United States Beaumont,4672989.0,,US,United States,Beaumont,6252001.0,30.0211,-94.1157
926,311,ambrihe01,1984.0,United States,Orange,,,,Hector,Ambriz,United States Orange,4716805.0,,US,United States,Orange,6252001.0,30.0709,-93.8659
932,312,amelued01,1959.0,United States,Fullerton,,,,Ed,Amelung,United States Fullerton,5059296.0,,US,United States,Fullerton,6252001.0,46.1951,-98.3882
935,313,amesre01,1882.0,United States,Warren,1936.0,USA,Warren,Red,Ames,United States Warren,4135349.0,,US,United States,Warren,6252001.0,33.614000000000004,-92.0778
950,314,amesst01,1988.0,United States,Vancouver,,,,Steve,Ames,United States Vancouver,5814616.0,,US,United States,Vancouver,6252001.0,45.6025,-122.5125
952,316,amoledo01,1874.0,United States,Coatesville,1912.0,USA,Wilmington,Doc,Amole,United States Coatesville,4255959.0,,US,United States,Coatesville,6252001.0,39.6878,-86.6703
956,319,anckewa01,1893.0,United States,New York,1954.0,USA,Englewood,Walter,Ancker,United States New York,5128581.0,,US,United States,New York,6252001.0,40.6052,-74.1795
957,320,anderal01,1914.0,United States,Gainesville,1985.0,USA,Albany,Alf,Anderson,United States Gainesville,4156404.0,,US,United States,Gainesville,6252001.0,29.5733,-82.3979
963,321,anderal02,1964.0,United States,Lancaster,,,,Allan,Anderson,United States Lancaster,4297354.0,,US,United States,Lancaster,6252001.0,37.6584,-84.5969
976,322,anderan01,1922.0,United States,Bremerton,1982.0,USA,Seattle,Andy,Anderson,United States Bremerton,5788054.0,,US,United States,Bremerton,6252001.0,47.5686,-122.6373
977,323,anderbi01,1895.0,United States,Boston,1983.0,USA,Medford,Bill,Anderson,United States Boston,4285208.0,,US,United States,Boston,6252001.0,37.7408,-85.5948
980,324,anderbo01,1935.0,United States,East Chicago,2015.0,USA,Tulsa,Bob,Anderson,United States East Chicago,4919857.0,,US,United States,East Chicago,6252001.0,41.6349,-87.4627
981,325,anderbr01,1964.0,United States,Silver Spring,,,,Brady,Anderson,United States Silver Spring,4369596.0,,US,United States,Silver Spring,6252001.0,38.9907,-77.0261
982,326,anderbr02,1972.0,United States,Portsmouth,,,,Brian,Anderson,United States Portsmouth,4521816.0,,US,United States,Portsmouth,6252001.0,38.7947,-82.9286
987,327,anderbr03,1982.0,United States,Tucson,,,,Brian,Anderson,United States Tucson,5318313.0,,US,United States,Tucson,6252001.0,32.0839,-110.9004
988,328,anderbr04,1988.0,United States,Midland,,,,Brett,Anderson,United States Midland,4209111.0,,US,United States,Midland,6252001.0,32.5607,-84.8573
995,329,anderbr05,1986.0,United States,Thousand Oaks,,,,Bryan,Anderson,United States Thousand Oaks,5402405.0,,US,United States,Thousand Oaks,6252001.0,34.1706,-118.8376
996,330,anderbr06,1993.0,United States,Edmond,,,,Brian,Anderson,United States Edmond,4535740.0,,US,United States,Edmond,6252001.0,35.6211,-97.4757
997,331,anderbu01,1956.0,United States,Westbury,,,,Bud,Anderson,United States Westbury,5144040.0,,US,United States,Westbury,6252001.0,40.7588,-73.5661
998,332,anderch01,1987.0,United States,Wichita Falls,,,,Chase,Anderson,United States Wichita Falls,4741752.0,,US,United States,Wichita Falls,6252001.0,33.8581,-98.5755
999,333,anderco01,1990.0,United States,Quincy,,,,Cody,Anderson,United States Quincy,4169510.0,,US,United States,Quincy,6252001.0,30.5497,-84.6069
1008,334,andercr01,1938.0,United States,Washington,,,,Craig,Anderson,United States Washington,4140963.0,,US,United States,Washington,6252001.0,38.8325,-76.998
1029,335,anderda01,1868.0,United States,Chester,1897.0,USA,Chester,Dave,Anderson,United States Chester,4235724.0,,US,United States,Chester,6252001.0,37.9188,-89.8218
1046,336,anderda02,1960.0,United States,Louisville,,,,Dave,Anderson,United States Louisville,4073771.0,,US,United States,Louisville,6252001.0,31.7943,-85.5581
1055,337,anderdr01,1981.0,United States,Kearney,,,,Drew,Anderson,United States Kearney,4393269.0,,US,United States,Kearney,6252001.0,39.3652,-94.3621
1057,338,anderdr02,1994.0,United States,Reno,,,,Drew,Anderson,United States Reno,5511077.0,,US,United States,Reno,6252001.0,39.3809,-119.6859
1058,339,anderdw01,1947.0,United States,Oakland,,,,Dwain,Anderson,United States Oakland,4166628.0,,US,United States,Oakland,6252001.0,28.5547,-81.6322
1070,340,anderfe01,1918.0,United States,Maple City,1978.0,USA,Joplin,Ferrell,Anderson,United States Maple City,5000687.0,,US,United States,Maple City,6252001.0,44.858999999999995,-85.8814
1072,342,anderga01,1972.0,United States,Los Angeles,,,,Garret,Anderson,United States Los Angeles,5368361.0,,US,United States,Los Angeles,6252001.0,33.7866,-118.2987
1073,343,anderge01,1889.0,United States,Cleveland,1962.0,USA,Cleveland,George,Anderson,United States Cleveland,4055815.0,,US,United States,Cleveland,6252001.0,33.9778,-86.5598
1089,344,andergo01,1880.0,United States,Cleveland,1923.0,USA,South Bend,Goat,Anderson,United States Cleveland,4055815.0,,US,United States,Cleveland,6252001.0,33.9778,-86.5598
1106,346,anderha02,1931.0,United States,North East,1998.0,USA,Greenville,Harry,Anderson,United States North East,4363889.0,,US,United States,North East,6252001.0,39.6045,-75.9538
1110,347,anderja01,1979.0,United States,Danville,,,,Jason,Anderson,United States Danville,4190729.0,,US,United States,Danville,6252001.0,32.6057,-83.2454
1123,348,anderji01,1957.0,United States,Los Angeles,,,,Jim,Anderson,United States Los Angeles,5368361.0,,US,United States,Los Angeles,6252001.0,33.7866,-118.2987
1124,349,anderji02,1976.0,United States,Portsmouth,,,,Jimmy,Anderson,United States Portsmouth,4521816.0,,US,United States,Portsmouth,6252001.0,38.7947,-82.9286
1129,350,anderjo01,1873.0,Norway,Sarpsborg,1949.0,USA,Worcester,John,Anderson,Norway Sarpsborg,3140084.0,EU,NO,Norway,Sarpsborg,3144096.0,59.2115,11.1903
1131,352,anderjo03,1982.0,United States,Somerset,,,,Josh,Anderson,United States Somerset,4308922.0,,US,United States,Somerset,6252001.0,37.1029,-84.5443
1141,353,anderju01,1992.0,United States,Houston,,,,Justin,Anderson,United States Houston,4430529.0,,US,United States,Houston,6252001.0,33.9026,-88.96700000000001
1147,354,anderke01,1963.0,United States,Florence,,,,Kent,Anderson,United States Florence,4062577.0,,US,United States,Florence,6252001.0,34.8305,-87.656
1163,355,anderla01,1952.0,United States,Maywood,,,,Larry,Anderson,United States Maywood,4397550.0,,US,United States,Maywood,6252001.0,39.9333,-91.6148
1171,356,anderla02,1953.0,United States,Portland,,,,Larry,Andersen,United States Portland,4650946.0,,US,United States,Portland,6252001.0,36.5673,-86.5059
1180,357,anderla03,1987.0,United States,Oakland,,,,Lars,Anderson,United States Oakland,4166628.0,,US,United States,Oakland,6252001.0,28.5547,-81.6322
1192,358,anderma01,1976.0,United States,Louisville,,,,Matt,Anderson,United States Louisville,4073771.0,,US,United States,Louisville,6252001.0,31.7943,-85.5581
1201,359,anderma02,1974.0,United States,Montgomery,,,,Marlon,Anderson,United States Montgomery,4076784.0,,US,United States,Montgomery,6252001.0,32.2334,-86.2085
1210,360,andermi01,1951.0,United States,Florence,,,,Mike,Anderson,United States Florence,4062577.0,,US,United States,Florence,6252001.0,34.8305,-87.656
1226,361,andermi02,1966.0,United States,Austin,,,,Mike,Anderson,United States Austin,4099974.0,,US,United States,Austin,6252001.0,34.9921,-91.9798
1232,362,anderre01,1912.0,United States,Lawton,1972.0,USA,Sioux City,Red,Anderson,United States Lawton,4540737.0,,US,United States,Lawton,6252001.0,34.5915,-98.3698
1235,363,anderri01,1953.0,United States,Inglewood,1989.0,USA,Wilmington,Rick,Anderson,United States Inglewood,5359488.0,,US,United States,Inglewood,6252001.0,33.9376,-118.3582
1236,364,anderri02,1956.0,United States,Everett,,,,Rick,Anderson,United States Everett,4936008.0,,US,United States,Everett,6252001.0,42.4112,-71.0514
1240,365,andersc01,1962.0,United States,Corvallis,,,,Scott,Anderson,United States Corvallis,5720727.0,,US,United States,Corvallis,6252001.0,44.5393,-123.2799
1241,366,andersp01,1934.0,United States,Bridgewater,2010.0,USA,Thousand Oaks,Sparky,Anderson,United States Bridgewater,4748925.0,,US,United States,Bridgewater,6252001.0,38.3859,-78.9937
1247,367,anderta01,1993.0,United States,Boynton Beach,,,,Tanner,Anderson,United States Boynton Beach,4148677.0,,US,United States,Boynton Beach,6252001.0,26.5088,-80.1896
1248,368,anderti01,1993.0,United States,Tuscaloosa,,,,Tim,Anderson,United States Tuscaloosa,4094455.0,,US,United States,Tuscaloosa,6252001.0,33.1669,-87.5064
1249,369,anderty01,1989.0,United States,Las Vegas,,,,Tyler,Anderson,United States Las Vegas,5475433.0,,US,United States,Las Vegas,6252001.0,35.5949,-105.2272
1251,370,anderva01,1866.0,United States,Geneva,1941.0,USA,Rockford,Varney,Anderson,United States Geneva,4063926.0,,US,United States,Geneva,6252001.0,31.0414,-85.8847
1259,371,anderwa01,1897.0,United States,Grand Rapids,1990.0,USA,Battle Creek,Walter,Anderson,United States Grand Rapids,4994358.0,,US,United States,Grand Rapids,6252001.0,42.8697,-85.6628
1262,372,anderwi01,1886.0,United States,Lillian,1950.0,USA,Fort Worth,Wingo,Anderson,United States Lillian,4072630.0,,US,United States,Lillian,6252001.0,30.3972,-87.4745
1263,373,andinro01,1984.0,United States,Miami,,,,Robert,Andino,United States Miami,4164138.0,,US,United States,Miami,6252001.0,25.5584,-80.4582
1269,374,andrast01,1978.0,United States,Woodland,,,,Steve,Andrade,United States Woodland,4231769.0,,US,United States,Woodland,6252001.0,32.79,-84.5654
1276,375,andrecl01,1978.0,United States,Dunedin,,,,Clayton,Andrews,United States Dunedin,4153759.0,,US,United States,Dunedin,6252001.0,28.0303,-82.7816
1277,376,andreed01,1859.0,United States,Painesville,1934.0,USA,West Palm Beach,Ed,Andrews,United States Painesville,5166009.0,,US,United States,Painesville,6252001.0,41.7059,-81.1997
1278,377,andreel01,1901.0,United States,Greenwood,1979.0,USA,Greenwood,Elbert,Andrews,United States Greenwood,4113143.0,,US,United States,Greenwood,6252001.0,35.1955,-94.25299999999999
1293,378,andreer01,1918.0,United States,Jeffersonville,2008.0,USA,Bradenton,Ernie,Andres,United States Jeffersonville,4259671.0,,US,United States,Jeffersonville,6252001.0,38.3078,-85.7359
1297,379,andrefr01,1952.0,United States,Lafayette,,,,Fred,Andrews,United States Lafayette,4071267.0,,US,United States,Lafayette,6252001.0,32.9252,-85.4426
1306,380,andrehu01,1922.0,United States,Burbank,2012.0,USA,Dodge City,Hub,Andrews,United States Burbank,4885983.0,,US,United States,Burbank,6252001.0,41.7402,-87.7723
1311,381,andreiv01,1907.0,United States,Dora,1970.0,USA,Birmingham,Ivy,Andrews,United States Dora,4059070.0,,US,United States,Dora,6252001.0,33.7357,-87.0546
1313,382,andreji01,1865.0,United States,Shelburne Falls,1907.0,USA,Chicago,Jim,Andrews,United States Shelburne Falls,4950749.0,,US,United States,Shelburne Falls,6252001.0,42.6022,-72.7391
1314,383,andrejo01,1923.0,United States,Brockton,1976.0,USA,Barnstable,John,Andre,United States Brockton,4931429.0,,US,United States,Brockton,6252001.0,42.0774,-71.0446
1316,384,andrejo02,1949.0,United States,Monterey Park,,,,John,Andrews,United States Monterey Park,5374406.0,,US,United States,Monterey Park,6252001.0,34.048,-118.115
1317,385,andrejo03,1990.0,United States,Worcester,,,,John,Andreoli,United States Worcester,4956184.0,,US,United States,Worcester,6252001.0,42.2303,-71.7938
1321,386,andreki01,1953.0,United States,Glendale,,,,Kim,Andrew,United States Glendale,5254404.0,,US,United States,Glendale,6252001.0,43.1353,-87.9356
1327,387,andremi01,1943.0,United States,Los Angeles,,,,Mike,Andrews,United States Los Angeles,5368361.0,,US,United States,Los Angeles,6252001.0,33.7866,-118.2987
1328,388,andrena01,1913.0,United States,Pembroke,1991.0,USA,Winston-Salem,Nate,Andrews,United States Pembroke,4215251.0,,US,United States,Pembroke,6252001.0,32.1812,-81.6656
1335,389,andrero01,1952.0,United States,Santa Monica,,,,Rob,Andrews,United States Santa Monica,5393212.0,,US,United States,Santa Monica,6252001.0,34.0125,-118.4682
1336,390,andresh01,1971.0,United States,Dallas,,,,Shane,Andrews,United States Dallas,4190598.0,,US,United States,Dallas,6252001.0,33.8992,-84.8572
1343,391,andrest01,1917.0,United States,Lynn,1995.0,USA,Bradenton,Stan,Andrews,United States Lynn,4923096.0,,US,United States,Lynn,6252001.0,40.0519,-84.93
1346,392,andrewa01,1859.0,United States,Philadelphia,1940.0,USA,Indianapolis,Wally,Andrews,United States Philadelphia,4440906.0,,US,United States,Philadelphia,6252001.0,32.7572,-89.1154
1350,393,andrima01,1989.0,United States,Redlands,,,,Matt,Andriese,United States Redlands,5386754.0,,US,United States,Redlands,6252001.0,34.0393,-117.1725
1352,394,andrubi01,1907.0,United States,Beaumont,1982.0,USA,Washington,Bill,Andrus,United States Beaumont,4672989.0,,US,United States,Beaumont,6252001.0,30.0211,-94.1157
1356,396,andrufr01,1850.0,United States,Washington,1937.0,USA,Detroit,Fred,Andrus,United States Washington,4140963.0,,US,United States,Washington,6252001.0,38.8325,-76.998
1380,401,angelno01,1947.0,United States,San Francisco,,,,Norm,Angelini,United States San Francisco,5391959.0,,US,United States,San Francisco,6252001.0,37.6811,-122.4806
1382,402,anglema01,1985.0,United States,Columbus,,,,Matt,Angle,United States Columbus,4188985.0,,US,United States,Columbus,6252001.0,32.4245,-84.9481
1395,403,angleto01,1904.0,United States,Baltimore,1952.0,USA,Wichita,Tom,Angley,United States Baltimore,4347778.0,,US,United States,Baltimore,6252001.0,39.2293,-76.6907
1399,404,ankenpa01,1912.0,United States,Houston,1989.0,USA,Houston,Pat,Ankenman,United States Houston,4430529.0,,US,United States,Houston,6252001.0,33.9026,-88.96700000000001
1407,406,annade01,1986.0,United States,Glenwood,,,,Dean,Anna,United States Glenwood,4112430.0,,US,United States,Glenwood,6252001.0,34.3192,-93.5559
1418,407,annisbi01,1857.0,United States,Stoneham,1923.0,USA,Kennebunkport,Bill,Annis,United States Stoneham,4952121.0,,US,United States,Stoneham,6252001.0,42.4828,-71.0978
1419,408,ansonca01,1852.0,United States,Marshalltown,1922.0,USA,Chicago,Cap,Anson,United States Marshalltown,4866371.0,,US,United States,Marshalltown,6252001.0,42.0405,-92.9127
1421,409,anthoer01,1967.0,United States,San Diego,,,,Eric,Anthony,United States San Diego,5391811.0,,US,United States,San Diego,6252001.0,32.5799,-117.0694
1424,412,antonbi01,1927.0,United States,Brooklyn,1993.0,USA,Fridley,Bill,Antonello,United States Brooklyn,4349594.0,,US,United States,Brooklyn,6252001.0,39.2259,-76.6153
1430,413,antonjo01,1915.0,United States,Memphis,1990.0,USA,Memphis,John,Antonelli,United States Memphis,4261256.0,,US,United States,Memphis,6252001.0,38.4642,-85.7775
1436,414,antonjo02,1930.0,United States,Rochester,,,,Johnny,Antonelli,United States Rochester,4248284.0,,US,United States,Rochester,6252001.0,39.7182,-89.5649
1447,415,antonma01,1985.0,United States,Peabody,,,,Matt,Antonelli,United States Peabody,4277079.0,,US,United States,Peabody,6252001.0,38.1737,-97.1184
1451,418,apodabo01,1950.0,United States,Los Angeles,,,,Bob,Apodaca,United States Los Angeles,5368361.0,,US,United States,Los Angeles,6252001.0,33.7866,-118.2987
1454,420,appieke01,1967.0,United States,Lancaster,,,,Kevin,Appier,United States Lancaster,4297354.0,,US,United States,Lancaster,6252001.0,37.6584,-84.5969
1468,421,appleed01,1892.0,United States,Arlington,1932.0,USA,Arlington,Ed,Appleton,United States Arlington,4282663.0,,US,United States,Arlington,6252001.0,36.7903,-89.0128
1484,422,applefr01,1879.0,United States,Williamsport,1968.0,USA,Williamsport,Fred,Applegate,United States Williamsport,4528434.0,,US,United States,Williamsport,6252001.0,39.6117,-83.1251
1487,423,applepe01,1904.0,United States,Terryville,1974.0,USA,Trenton,Pete,Appleton,United States Terryville,4844084.0,,US,United States,Terryville,6252001.0,41.6762,-73.0092
1488,424,applilu01,1907.0,United States,High Point,1991.0,USA,Cumming,Luke,Appling,United States High Point,4471025.0,,US,United States,High Point,6252001.0,35.9359,-79.9395
1499,435,archech01,1988.0,United States,Raleigh,,,,Chris,Archer,United States Raleigh,4247770.0,,US,United States,Raleigh,6252001.0,37.8256,-88.5324
1502,436,archefr01,1910.0,United States,Johnson City,1981.0,USA,Charlotte,Fred,Archer,United States Johnson City,4633419.0,,US,United States,Johnson City,6252001.0,36.3125,-82.37700000000001
1505,437,archeji01,1883.0,Ireland,Dublin,1958.0,USA,Milwaukee,Jimmy,Archer,Ireland Dublin,2964574.0,EU,IE,Ireland,Dublin,2661886.0,53.2851,-6.3713
1506,438,archeji02,1932.0,United States,Max Meadows,,,,Jim,Archer,United States Max Meadows,4772066.0,,US,United States,Max Meadows,6252001.0,36.9056,-80.9244
1507,439,archige01,1914.0,United States,Nashville,2001.0,USA,Nashville,George,Archie,United States Nashville,4123271.0,,US,United States,Nashville,6252001.0,33.9576,-93.8707
1519,444,ardelda01,1941.0,United States,Seattle,,,,Dan,Ardell,United States Seattle,5809844.0,,US,United States,Seattle,6252001.0,47.3957,-122.3036
1520,445,ardizru01,1919.0,Italy,Oleggio,2015.0,USA,San Francisco,Rugger,Ardizoia,Italy Oleggio,3172079.0,EU,IT,Italy,Oleggio,3175395.0,45.5967,8.6421
1521,446,ardnejo01,1858.0,United States,Mount Vernon,1935.0,USA,Cleveland,Joe,Ardner,United States Mount Vernon,4078348.0,,US,United States,Mount Vernon,6252001.0,31.0974,-88.035
1536,448,arellfr01,1882.0,United States,Santa Cruz,1918.0,USA,San Jose,Frank,Arellanes,United States Santa Cruz,5393052.0,,US,United States,Santa Cruz,6252001.0,36.9689,-121.9903
1538,449,arenano01,1991.0,United States,Newport Beach,,,,Nolan,Arenado,United States Newport Beach,5376890.0,,US,United States,Newport Beach,6252001.0,33.6045,-117.9021
1539,450,arencjp01,1986.0,United States,Miami,,,,J. P.,Arencibia,United States Miami,4164138.0,,US,United States,Miami,6252001.0,25.5584,-80.4582
1544,451,arftha01,1922.0,United States,Manchester,2002.0,USA,St. Louis,Hank,Arft,United States Manchester,4207625.0,,US,United States,Manchester,6252001.0,32.8721,-84.6312
1559,452,ariasal01,1967.0,United States,New York,,,,Alex,Arias,United States New York,5128581.0,,US,United States,New York,6252001.0,40.6052,-74.1795
1561,454,ariasge01,1972.0,United States,Tucson,,,,George,Arias,United States Tucson,5318313.0,,US,United States,Tucson,6252001.0,32.0839,-110.9004
1564,457,arletbu01,1899.0,United States,Elmhurst,1964.0,USA,Minneapolis,Buzz,Arlett,United States Elmhurst,4891010.0,,US,United States,Elmhurst,6252001.0,41.8957,-87.9435
1567,458,arlicdo01,1943.0,United States,Wayne,,,,Don,Arlich,United States Wayne,4554839.0,,US,United States,Wayne,6252001.0,34.9154,-97.329
1575,459,arlinst01,1945.0,United States,Seattle,2016.0,USA,San Diego,Steve,Arlin,United States Seattle,5809844.0,,US,United States,Seattle,6252001.0,47.3957,-122.3036
1579,463,armbrch01,1880.0,United States,Cincinnati,1964.0,USA,Grants Pass,Charlie,Armbruster,United States Cincinnati,4508722.0,,US,United States,Cincinnati,6252001.0,39.0584,-84.3396
1581,464,armbred01,1948.0,Bahamas,Nassau,,,,Ed,Armbrister,Bahamas Nassau,3571824.0,,BS,Bahamas,Nassau,1861060.0,25.0833,-77.35
1582,465,armbrha01,1882.0,United States,Liverpool,1953.0,USA,Cincinnati,Harry,Armbruster,United States Liverpool,4707158.0,,US,United States,Liverpool,6252001.0,29.2667,-95.2889
1586,467,armoubi99,1869.0,United States,Homestead,1922.0,USA,Minneapolis,Bill,Armour,United States Homestead,4159050.0,,US,United States,Homestead,6252001.0,25.2846,-80.6246
1589,468,armstbo01,1850.0,United States,Baltimore,1917.0,USA,Fort Worth,Robert,Armstrong,United States Baltimore,4347778.0,,US,United States,Baltimore,6252001.0,39.2293,-76.6907
1591,469,armstge01,1924.0,United States,Orange,1993.0,USA,Orange,George,Armstrong,United States Orange,4716805.0,,US,United States,Orange,6252001.0,30.0709,-93.8659
1598,471,armstja01,1965.0,United States,Englewood,,,,Jack,Armstrong,United States Englewood,4154465.0,,US,United States,Englewood,6252001.0,26.92,-82.3048
1604,472,armstmi01,1954.0,United States,Glen Cove,,,,Mike,Armstrong,United States Glen Cove,5118626.0,,US,United States,Glen Cove,6252001.0,40.8627,-73.6351
1605,473,armstsh01,1990.0,United States,New Bern,,,,Shawn,Armstrong,United States New Bern,4481682.0,,US,United States,New Bern,6252001.0,35.0987,-77.1045
1606,474,arndtha01,1879.0,United States,South Bend,1921.0,USA,South Bend,Harry,Arndt,United States South Bend,4926563.0,,US,United States,South Bend,6252001.0,41.5968,-86.29299999999999
1608,475,arndtla01,1963.0,United States,Fremont,2014.0,USA,Tucson,Larry,Arndt,United States Fremont,4467254.0,,US,United States,Fremont,6252001.0,35.5553,-77.958
1616,476,arnolbi01,1851.0,United States,Middletown,1899.0,USA,Albany,Billy,Arnold,United States Middletown,4143637.0,,US,United States,Middletown,6252001.0,39.4851,-75.6794
1629,477,arnolch01,1947.0,United States,Long Beach,,,,Chris,Arnold,United States Long Beach,4434069.0,,US,United States,Long Beach,6252001.0,30.3598,-89.1646
1634,478,arnolja01,1974.0,United States,Dearborn,,,,Jamie,Arnold,United States Dearborn,4990510.0,,US,United States,Dearborn,6252001.0,42.2931,-83.2548
1635,479,arnolsc01,1962.0,United States,Lexington,,,,Scott,Arnold,United States Lexington,4072339.0,,US,United States,Lexington,6252001.0,34.9559,-87.3935
1652,480,arnolto01,1959.0,United States,El Paso,,,,Tony,Arnold,United States El Paso,4890813.0,,US,United States,El Paso,6252001.0,40.7389,-89.012
1655,481,arnovmo01,1910.0,United States,Superior,1959.0,USA,Superior,Morrie,Arnovich,United States Superior,5079887.0,,US,United States,Superior,6252001.0,40.0315,-98.0779
1660,482,arnsbbr01,1963.0,United States,Seattle,,,,Brad,Arnsberg,United States Seattle,5809844.0,,US,United States,Seattle,6252001.0,47.3957,-122.3036
1661,483,arntzor01,1909.0,United States,Beverly,1970.0,USA,Cedar Rapids,Orie,Arntzen,United States Beverly,4268263.0,,US,United States,Beverly,6252001.0,38.9844,-97.9818
1669,487,arrieja01,1986.0,United States,Farmington,,,,Jake,Arrieta,United States Farmington,4110443.0,,US,United States,Farmington,6252001.0,36.0436,-94.2539
1685,488,arrigge01,1941.0,United States,Chicago,,,,Gerry,Arrigo,United States Chicago,4887398.0,,US,United States,Chicago,6252001.0,41.6642,-87.5612
1688,490,arroybr01,1977.0,United States,Key West,,,,Bronson,Arroyo,United States Key West,4160812.0,,US,United States,Key West,2635167.0,24.5615,-81.7818
1689,491,arroych01,1995.0,United States,Tampa,,,,Christian,Arroyo,United States Tampa,4174757.0,,US,United States,Tampa,6252001.0,27.872,-82.4388
1691,492,arroyfe01,1952.0,United States,Sacramento,,,,Fernando,Arroyo,United States Sacramento,4307057.0,,US,United States,Sacramento,6252001.0,37.4177,-87.2736
1695,494,arroyru01,1950.0,United States,New York,,,,Rudy,Arroyo,United States New York,5128581.0,,US,United States,New York,6252001.0,40.6052,-74.1795
1698,496,arundha01,1855.0,United States,Philadelphia,1904.0,USA,Cleveland,Harry,Arundel,United States Philadelphia,4440906.0,,US,United States,Philadelphia,6252001.0,32.7572,-89.1154
1702,497,arundtu01,1862.0,United States,Auburn,1912.0,USA,Romulus,Tug,Arundel,United States Auburn,4180512.0,,US,United States,Auburn,6252001.0,34.0191,-83.8261
1717,498,asadora01,1962.0,United States,Fresno,,,,Randy,Asadoor,United States Fresno,4692400.0,,US,United States,Fresno,6252001.0,29.5293,-95.4626
1720,499,asbelji01,1914.0,United States,Dallas,1967.0,USA,San Mateo,Jim,Asbell,United States Dallas,4190598.0,,US,United States,Dallas,6252001.0,33.8992,-84.8572
1727,500,asbjoca01,1909.0,United States,Concord,1970.0,USA,Williamsport,Casper,Asbjornson,United States Concord,4189077.0,,US,United States,Concord,6252001.0,33.0998,-84.447
1741,504,ashburi01,1927.0,United States,Tilden,1997.0,USA,New York,Richie,Ashburn,United States Tilden,4736889.0,,US,United States,Tilden,6252001.0,28.4198,-98.5693
1743,505,ashbyal01,1951.0,United States,Long Beach,,,,Alan,Ashby,United States Long Beach,4434069.0,,US,United States,Long Beach,6252001.0,30.3598,-89.1646
1747,506,ashbyan01,1967.0,United States,Kansas City,,,,Andy,Ashby,United States Kansas City,4273837.0,,US,United States,Kansas City,6252001.0,38.9716,-94.6146
1749,507,asheral01,1991.0,United States,Lakeland,,,,Alec,Asher,United States Lakeland,4161438.0,,US,United States,Lakeland,6252001.0,27.9611,-81.9398
1752,508,ashfotu01,1954.0,United States,Memphis,,,,Tucker,Ashford,United States Memphis,4261256.0,,US,United States,Memphis,6252001.0,38.4642,-85.7775
1759,510,ashlebi01,1970.0,United States,Trenton,,,,Billy,Ashley,United States Trenton,4175637.0,,US,United States,Trenton,6252001.0,29.6133,-82.8176
1772,511,ashlene01,1984.0,United States,Vincennes,,,,Nevin,Ashley,United States Vincennes,4266307.0,,US,United States,Vincennes,6252001.0,38.6734,-87.5098
1773,512,asmusto01,1878.0,United States,Chicago,1963.0,USA,Arlington Heights,Tom,Asmussen,United States Chicago,4887398.0,,US,United States,Chicago,6252001.0,41.6642,-87.5612
1774,513,asprobo01,1938.0,United States,Brooklyn,,,,Bob,Aspromonte,United States Brooklyn,4349594.0,,US,United States,Brooklyn,6252001.0,39.2259,-76.6153
1780,514,asproke01,1931.0,United States,Brooklyn,,,,Ken,Aspromonte,United States Brooklyn,4349594.0,,US,United States,Brooklyn,6252001.0,39.2259,-76.6153
1786,515,asselbr01,1953.0,United States,Santa Barbara,,,,Brian,Asselstine,United States Santa Barbara,5392952.0,,US,United States,Santa Barbara,6252001.0,34.4038,-119.7194
1788,516,assenpa01,1960.0,United States,Detroit,,,,Paul,Assenmacher,United States Detroit,4685987.0,,US,United States,Detroit,6252001.0,33.6627,-95.2385
1793,519,astinba01,1991.0,United States,Forrest City,,,,Barrett,Astin,United States Forrest City,4111382.0,,US,United States,Forrest City,6252001.0,35.0091,-90.7886
1794,520,astrojo01,1922.0,United States,East Alton,2013.0,USA,Boca Raton,Joe,Astroth,United States East Alton,4237473.0,,US,United States,East Alton,6252001.0,38.8803,-90.083
1798,523,atchisc01,1976.0,United States,Denton,,,,Scott,Atchison,United States Denton,4353075.0,,US,United States,Denton,6252001.0,38.8595,-75.8357
1803,524,atchlju01,1973.0,United States,Sedro-Woolley,,,,Justin,Atchley,United States Sedro-Woolley,5809902.0,,US,United States,Sedro-Woolley,6252001.0,48.5274,-122.2329
1804,525,atherch01,1873.0,United States,New Brunswick,1935.0,Austria,Vienna,Charlie,Atherton,United States New Brunswick,5101717.0,,US,United States,New Brunswick,6252001.0,40.488,-74.4544
1805,526,atherke01,1959.0,United States,Newport News,,,,Keith,Atherton,United States Newport News,4776024.0,,US,United States,Newport News,6252001.0,36.9864,-76.4165
1807,528,atkinal01,1861.0,United States,Clinton,1952.0,USA,McNatt,Al,Atkinson,United States Clinton,4106074.0,,US,United States,Clinton,6252001.0,35.6045,-92.4758
1832,529,atkinbi01,1954.0,Canada,Chatham,,,,Bill,Atkinson,Canada Chatham,5920457.0,,CA,Canada,Chatham,6251999.0,42.4209,-82.1993
1833,530,atkined01,1851.0,United States,Baltimore,,,,Ed,Atkinson,United States Baltimore,4347778.0,,US,United States,Baltimore,6252001.0,39.2293,-76.6907
1835,531,atkinga01,1979.0,United States,Orange,,,,Garrett,Atkins,United States Orange,4716805.0,,US,United States,Orange,6252001.0,30.0709,-93.8659
1841,532,atkinja01,1921.0,United States,Birmingham,2009.0,USA,Hanceville,James,Atkins,United States Birmingham,4049979.0,,US,United States,Birmingham,6252001.0,33.3555,-86.8274
1843,533,atkinle01,1904.0,United States,Chicago,1961.0,USA,Chicago,Lefty,Atkinson,United States Chicago,4887398.0,,US,United States,Chicago,6252001.0,41.6642,-87.5612
1844,534,atkinmi01,1985.0,United States,Browns Summit,,,,Mitch,Atkins,United States Browns Summit,4457556.0,,US,United States,Browns Summit,6252001.0,36.2019,-79.7101
1845,535,atkinto01,1887.0,United States,Ponca,1956.0,USA,Cleveland,Tommy,Atkins,United States Ponca,5075615.0,,US,United States,Ponca,6252001.0,42.5693,-96.7128
1846,536,attredi01,1897.0,United States,Chicago,1964.0,USA,Chicago,Dick,Attreau,United States Chicago,4887398.0,,US,United States,Chicago,6252001.0,41.6642,-87.5612
1847,537,atwelto01,1924.0,United States,Leesburg,2003.0,USA,Purcellville,Toby,Atwell,United States Leesburg,4072156.0,,US,United States,Leesburg,6252001.0,34.1911,-85.7705
1854,538,atwoobi01,1911.0,United States,Rome,1993.0,USA,Snyder,Bill,Atwood,United States Rome,4219762.0,,US,United States,Rome,6252001.0,34.2507,-85.1465
1859,539,atzja01,1879.0,United States,Washington,1945.0,USA,New Orleans,Jake,Atz,United States Washington,4140963.0,,US,United States,Washington,6252001.0,38.8325,-76.998
1880,541,aubremi01,1982.0,United States,Shreveport,,,,Michael,Aubrey,United States Shreveport,4341513.0,,US,United States,Shreveport,6252001.0,32.3401,-93.6092
1881,542,aucoide01,1970.0,Canada,Lachine,,,,Derek,Aucoin,Canada Lachine,6545041.0,,CA,Canada,Lachine,6251999.0,45.4167,-73.6667
1882,543,auderi01,1971.0,United States,Van Nuys,,,,Rich,Aude,United States Van Nuys,5405693.0,,US,United States,Van Nuys,6252001.0,34.1781,-118.4574
1883,544,auerbri01,1950.0,United States,Woodland Hills,,,,Rick,Auerbach,United States Woodland Hills,5410438.0,,US,United States,Woodland Hills,6252001.0,34.1554,-118.5957
1884,545,augenbr01,1986.0,United States,Sebastian,,,,Bryan,Augenstein,United States Sebastian,4172372.0,,US,United States,Sebastian,6252001.0,27.791999999999998,-80.4807
1885,546,augusda01,1949.0,United States,Follansbee,,,,Dave,Augustine,United States Follansbee,5280285.0,,US,United States,Follansbee,6252001.0,40.3296,-80.585
1886,547,augusdo01,1963.0,United States,Inglewood,,,,Don,August,United States Inglewood,5359488.0,,US,United States,Inglewood,6252001.0,33.9376,-118.3582
1887,548,augusje01,1952.0,United States,Kewaunee,,,,Jerry,Augustine,United States Kewaunee,5258490.0,,US,United States,Kewaunee,6252001.0,44.4401,-87.5594
1888,549,aukerel01,1910.0,United States,Norcatur,2006.0,USA,Vero Beach,Elden,Auker,United States Norcatur,5446057.0,,US,United States,Norcatur,6252001.0,39.8447,-100.2007
1889,550,auldsle01,1920.0,United States,Farmerville,1999.0,USA,Hondo,Tex,Aulds,United States Farmerville,4324179.0,,US,United States,Farmerville,6252001.0,32.7534,-92.318
1891,551,aultdo01,1950.0,United States,Beaumont,2004.0,USA,Tarpon Springs,Doug,Ault,United States Beaumont,4672989.0,,US,United States,Beaumont,6252001.0,30.0211,-94.1157
1893,552,aumonph01,1989.0,Canada,Gatineau,,,,Phillippe,Aumont,Canada Gatineau,5959974.0,,CA,Canada,Gatineau,6251999.0,45.3932,-75.8288
1894,553,aurilri01,1971.0,United States,Brooklyn,,,,Rich,Aurilia,United States Brooklyn,4349594.0,,US,United States,Brooklyn,6252001.0,39.2259,-76.6153
1901,554,ausanjo01,1965.0,United States,Kingston,,,,Joe,Ausanio,United States Kingston,4204015.0,,US,United States,Kingston,6252001.0,34.2501,-84.9973
1916,555,ausmubr01,1969.0,United States,New Haven,,,,Brad,Ausmus,United States New Haven,4302374.0,,US,United States,New Haven,6252001.0,37.6438,-85.54700000000001
1923,556,austde01,1940.0,United States,Tecumseh,,,,Dennis,Aust,United States Tecumseh,4280350.0,,US,United States,Tecumseh,6252001.0,39.0217,-95.5379
1928,558,austije01,1976.0,United States,San Bernardino,,,,Jeff,Austin,United States San Bernardino,5391710.0,,US,United States,San Bernardino,6252001.0,34.0831,-117.2711
1929,559,austiji01,1879.0,United Kingdom,Swansea,1965.0,USA,Laguna Beach,Jimmy,Austin,United Kingdom Swansea,2636432.0,EU,GB,United Kingdom,Swansea,2635167.0,51.5775,-4.0481
1930,560,austiji02,1963.0,United States,Farmville,,,,Jim,Austin,United States Farmville,4465984.0,,US,United States,Farmville,6252001.0,35.5806,-77.5793
1932,561,austiri01,1946.0,United States,Seattle,,,,Rick,Austin,United States Seattle,5809844.0,,US,United States,Seattle,6252001.0,47.3957,-122.3036
1933,562,austity01,1991.0,United States,Conyers,,,,Tyler,Austin,United States Conyers,4189213.0,,US,United States,Conyers,6252001.0,33.6111,-84.0683
1935,563,autryal01,1952.0,United States,Modesto,,,,Al,Autry,United States Modesto,5373900.0,,US,United States,Modesto,6252001.0,37.6236,-120.9966
1937,564,autrych01,1885.0,United States,Humboldt,1976.0,USA,Santa Rosa,Chick,Autry,United States Humboldt,4273255.0,,US,United States,Humboldt,6252001.0,37.8045,-95.42200000000001
1943,565,autrych02,1903.0,United States,Martindale,1950.0,USA,Savannah,Chick,Autry,United States Martindale,4709410.0,,US,United States,Martindale,6252001.0,29.8394,-97.8508
1945,567,avenbr01,1972.0,United States,Orange,,,,Bruce,Aven,United States Orange,4716805.0,,US,United States,Orange,6252001.0,30.0709,-93.8659
1951,568,averiea01,1902.0,United States,Snohomish,1983.0,USA,Everett,Earl,Averill,United States Snohomish,5810988.0,,US,United States,Snohomish,6252001.0,47.8579,-122.09200000000001
1952,569,averiea02,1931.0,United States,Cleveland,2015.0,USA,Tacoma,Earl,Averill,United States Cleveland,4055815.0,,US,United States,Cleveland,6252001.0,33.9778,-86.5598
1968,570,averyst01,1970.0,United States,Trenton,,,,Steve,Avery,United States Trenton,4175637.0,,US,United States,Trenton,6252001.0,29.6133,-82.8176
1981,571,averyxa01,1990.0,United States,Atlanta,,,,Xavier,Avery,United States Atlanta,4180439.0,,US,United States,Atlanta,6252001.0,33.6026,-84.4769
1989,572,avilaal01,1987.0,United States,Hialeah,,,,Alex,Avila,United States Hialeah,4158476.0,,US,United States,Hialeah,6252001.0,25.8275,-80.2724
1990,573,avilabo01,1924.0,Mexico,Veracruz,2004.0,Mexico,Veracruz,Bobby,Avila,Mexico Veracruz,3514783.0,,MX,Mexico,Veracruz,3164670.0,19.1794,-96.1358
1991,574,avilalu01,1989.0,Venezuela,Caracas,,,,Luis,Avilan,Venezuela Caracas,3646738.0,SA,VE,Venezuela,Caracas,3625428.0,10.5048,-66.9208
1992,575,avilemi01,1981.0,United States,New York,,,,Mike,Aviles,United States New York,5128581.0,,US,United States,New York,6252001.0,40.6052,-74.1795
1993,576,avilera01,1952.0,Puerto Rico,Manati,,,,Ramon,Aviles,Puerto Rico Manati,4566137.0,,PR,Puerto Rico,Manati,6252001.0,18.4274,-66.4921
1994,577,avreaja01,1920.0,United States,Cleburne,1987.0,USA,Dallas,Jay,Avrea,United States Cleburne,4681976.0,,US,United States,Cleburne,6252001.0,32.3485,-97.3311
1995,578,axelrdy01,1985.0,United States,Santa Barbara,,,,Dylan,Axelrod,United States Santa Barbara,5392952.0,,US,United States,Santa Barbara,6252001.0,34.4038,-119.7194
1996,579,axforjo01,1983.0,Canada,Simcoe,,,,John,Axford,Canada Simcoe,6147962.0,,CA,Canada,Simcoe,6251999.0,42.8334,-80.2997
1997,580,ayalabe01,1951.0,Puerto Rico,Yauco,,,,Benny,Ayala,Puerto Rico Yauco,4568917.0,,PR,Puerto Rico,Yauco,4566966.0,18.035,-66.8499
1998,581,ayalabo01,1969.0,United States,Ventura,,,,Bobby,Ayala,United States Ventura,5405878.0,,US,United States,Ventura,6252001.0,34.2788,-119.1651
1999,582,ayalalu01,1978.0,Mexico,Los Mochis,,,,Luis,Ayala,Mexico Los Mochis,3997479.0,,MX,Mexico,Los Mochis,3996063.0,25.793000000000003,-108.9981
2003,586,aydelja01,1861.0,United States,Marion,1926.0,USA,Detroit,Jake,Aydelott,United States Marion,4049048.0,,US,United States,Marion,6252001.0,38.0266,-75.7579
2025,587,ayersbi01,1919.0,United States,Newnan,1980.0,USA,Newnan,Bill,Ayers,United States Newnan,4212684.0,,US,United States,Newnan,6252001.0,33.361,-84.8142
2027,589,aylwadi01,1925.0,United States,Baltimore,1983.0,USA,Spring Valley,Dick,Aylward,United States Baltimore,4347778.0,,US,United States,Baltimore,6252001.0,39.2293,-76.6907
2029,590,ayraubo01,1966.0,United States,South Lake Tahoe,,,,Bob,Ayrault,United States South Lake Tahoe,5397664.0,,US,United States,South Lake Tahoe,6252001.0,38.8981,-119.9984
2030,591,ayraujo01,1971.0,United States,Rochester,,,,Joe,Ayrault,United States Rochester,4248284.0,,US,United States,Rochester,6252001.0,39.7182,-89.5649
2044,595,babcobo01,1949.0,United States,New Castle,,,,Bob,Babcock,United States New Castle,4143834.0,,US,United States,New Castle,6252001.0,39.5929,-75.6515
2051,596,babelo01,1928.0,United States,Pisgah,1984.0,USA,Omaha,Loren,Babe,United States Pisgah,4083725.0,,US,United States,Pisgah,6252001.0,34.6809,-85.8478
2053,597,babicjo01,1913.0,United States,Albion,2001.0,USA,Richmond,Johnny,Babich,United States Albion,4232568.0,,US,United States,Albion,6252001.0,38.374,-88.0636
2062,598,babinch01,1895.0,United States,Cranston,1957.0,USA,Providence,Charlie,Babington,United States Cranston,5221659.0,,US,United States,Cranston,6252001.0,41.7614,-71.5061
2063,599,babitsh01,1959.0,United States,Oakland,,,,Shooty,Babitt,United States Oakland,4166628.0,,US,United States,Oakland,6252001.0,28.5547,-81.6322
2075,600,backebr01,1978.0,United States,Galveston,,,,Brandon,Backe,United States Galveston,4692883.0,,US,United States,Galveston,6252001.0,29.2243,-94.9637
2077,601,backmle01,1888.0,United States,Cleves,1975.0,USA,Cincinnati,Les,Backman,United States Cleves,4508944.0,,US,United States,Cleves,6252001.0,39.1937,-84.734
2079,602,backmwa01,1959.0,United States,Hillsboro,,,,Wally,Backman,United States Hillsboro,4240782.0,,US,United States,Hillsboro,6252001.0,39.0317,-89.5237
2091,603,baconed01,1895.0,United States,Frankfort,1963.0,USA,Louisville,Eddie,Bacon,United States Frankfort,4271764.0,,US,United States,Frankfort,6252001.0,39.7333,-96.5223
2098,604,bacsimi01,1952.0,United States,Dallas,,,,Mike,Bacsik,United States Dallas,4190598.0,,US,United States,Dallas,6252001.0,33.8992,-84.8572
2105,605,bacsimi02,1977.0,United States,Dallas,,,,Mike,Bacsik,United States Dallas,4190598.0,,US,United States,Dallas,6252001.0,33.8992,-84.8572
2113,607,badenbu01,1983.0,United States,Atlanta,,,,Burke,Badenhop,United States Atlanta,4180439.0,,US,United States,Atlanta,6252001.0,33.6026,-84.4769
2122,609,baderha01,1994.0,United States,Bronxville,,,,Harrison,Bader,United States Bronxville,5110269.0,,US,United States,Bronxville,6252001.0,40.9391,-73.8353
2126,613,baekch01,1980.0,South Korea,Busan,,,,Cha-Seung,Baek,South Korea Busan,1838524.0,AS,KR,South Korea,Busan,1835841.0,35.1003,129.0442
2133,619,baezke01,1967.0,United States,Brooklyn,,,,Kevin,Baez,United States Brooklyn,4349594.0,,US,United States,Brooklyn,6252001.0,39.2259,-76.6153
2141,622,bagbyji01,1889.0,United States,Barnett,1954.0,USA,Marietta,Jim,Bagby,United States Barnett,4375817.0,,US,United States,Barnett,6252001.0,38.3967,-92.6686
2142,623,bagbyji02,1916.0,United States,Cleveland,1988.0,USA,Marietta,Jim,Bagby,United States Cleveland,4055815.0,,US,United States,Cleveland,6252001.0,33.9778,-86.5598
2158,624,bagwebi01,1895.0,United States,Choudrant,1976.0,USA,Choudrant,Bill,Bagwell,United States Choudrant,4319883.0,,US,United States,Choudrant,6252001.0,32.5556,-92.5224
2159,625,bagweje01,1968.0,United States,Boston,,,,Jeff,Bagwell,United States Boston,4285208.0,,US,United States,Boston,6252001.0,37.7408,-85.5948
2162,626,bahnsst01,1944.0,United States,Council Bluffs,,,,Stan,Bahnsen,United States Council Bluffs,4852832.0,,US,United States,Council Bluffs,6252001.0,41.2324,-95.8751
2165,628,bahrefr01,1858.0,United States,Poughkeepsie,1888.0,USA,Poughkeepsie,Frank,Bahret,United States Poughkeepsie,5132143.0,,US,United States,Poughkeepsie,6252001.0,41.6919,-73.8642
2166,629,baichgr01,1889.0,United States,Toledo,1956.0,USA,San Jose,Grover,Baichley,United States Toledo,4251330.0,,US,United States,Toledo,6252001.0,39.2772,-88.2468
2172,631,bailebi01,1888.0,United States,Fort Smith,1926.0,USA,Houston,Bill,Bailey,United States Fort Smith,4111410.0,,US,United States,Fort Smith,6252001.0,35.2502,-94.3703
2174,632,bailebi02,1881.0,United States,Shawnee,1967.0,USA,Seattle,Bill,Bailey,United States Shawnee,4279247.0,,US,United States,Shawnee,6252001.0,39.0452,-94.7189
2178,633,bailebo01,1942.0,United States,Long Beach,2018.0,USA,Las Vegas,Bob,Bailey,United States Long Beach,4434069.0,,US,United States,Long Beach,6252001.0,30.3598,-89.1646
2182,634,baileco01,1971.0,United States,Herrin,,,,Cory,Bailey,United States Herrin,4240540.0,,US,United States,Herrin,6252001.0,37.8019,-89.0232
2183,635,baileed01,1931.0,United States,Strawberry Plains,2007.0,USA,Knoxville,Ed,Bailey,United States Strawberry Plains,4660483.0,,US,United States,Strawberry Plains,6252001.0,36.0687,-83.6568
2184,636,bailefr01,1895.0,United States,Mount Hope,1972.0,USA,Huntington,Fred,Bailey,United States Mount Hope,4275846.0,,US,United States,Mount Hope,6252001.0,37.8684,-97.6591
2188,637,bailege01,1893.0,United States,Pearsall,1973.0,USA,Houston,Gene,Bailey,United States Pearsall,4718107.0,,US,United States,Pearsall,6252001.0,28.8923,-99.0944
2190,638,baileha01,1876.0,United States,Palmyra,1922.0,USA,Toledo,Harvey,Bailey,United States Palmyra,4262746.0,,US,United States,Palmyra,6252001.0,38.4105,-86.0888
2200,639,baileho01,1957.0,United States,Grand Haven,,,,Howard,Bailey,United States Grand Haven,4994325.0,,US,United States,Grand Haven,6252001.0,43.0301,-86.1865
2201,640,baileho02,1986.0,United States,La Grange,,,,Homer,Bailey,United States La Grange,4204230.0,,US,United States,La Grange,6252001.0,33.0243,-85.0739
2208,641,baileje01,1978.0,United States,Longview,,,,Jeff,Bailey,United States Longview,4707814.0,,US,United States,Longview,6252001.0,32.4264,-94.7117
2210,642,baileji01,1934.0,United States,Strawberry Plains,,,,Jim,Bailey,United States Strawberry Plains,4660483.0,,US,United States,Strawberry Plains,6252001.0,36.0687,-83.6568
2212,644,bailema01,1961.0,United States,Springfield,,,,Mark,Bailey,United States Springfield,4224162.0,,US,United States,Springfield,6252001.0,32.3697,-81.3618
2233,646,bailesc01,1961.0,United States,Chillicothe,,,,Scott,Bailes,United States Chillicothe,4381104.0,,US,United States,Chillicothe,6252001.0,39.7966,-93.5509
2237,648,bailesw01,1895.0,United States,Joliet,1939.0,USA,Joliet,Sweetbread,Bailey,United States Joliet,4898015.0,,US,United States,Joliet,6252001.0,41.4712,-87.9391
2239,649,bailobo01,1951.0,United States,Connellsville,,,,Bob,Bailor,United States Connellsville,5185237.0,,US,United States,Connellsville,6252001.0,40.0265,-79.5566
2240,650,baineha01,1959.0,United States,Easton,,,,Harold,Baines,United States Easton,4270781.0,,US,United States,Easton,6252001.0,39.3391,-95.0999
2248,651,bainlo01,1922.0,United States,Staples,1996.0,USA,Chetek,Loren,Bain,United States Staples,5048555.0,,US,United States,Staples,6252001.0,46.3536,-94.7633
2249,652,bairdal01,1895.0,United States,Cleburne,1976.0,USA,Shreveport,Al,Baird,United States Cleburne,4681976.0,,US,United States,Cleburne,6252001.0,32.3485,-97.3311
2252,653,bairdbo01,1940.0,United States,Knoxville,1974.0,USA,Chattanooga,Bob,Baird,United States Knoxville,4634946.0,,US,United States,Knoxville,6252001.0,35.8585,-84.1206
2256,655,bairdo01,1949.0,United States,Defiance,,,,Doug,Bair,United States Defiance,4383671.0,,US,United States,Defiance,6252001.0,38.6616,-90.8302
2259,656,baislje01,1982.0,United States,Tampa,,,,Jeff,Baisley,United States Tampa,4174757.0,,US,United States,Tampa,6252001.0,27.872,-82.4388
2262,657,bajenje01,1978.0,United States,Pomona,,,,Jeff,Bajenaru,United States Pomona,4404162.0,,US,United States,Pomona,6252001.0,36.8441,-91.9137
2265,658,bakelje01,1864.0,United States,Blackwood,1915.0,USA,Philadelphia,Jersey,Bakley,United States Blackwood,4500845.0,,US,United States,Blackwood,6252001.0,39.7897,-75.0355
2267,659,bakenda01,1945.0,United States,Columbus,2014.0,USA,Galena,Dave,Bakenhaster,United States Columbus,4188985.0,,US,United States,Columbus,6252001.0,32.4245,-84.9481
2280,660,bakeral01,1906.0,United States,Batesville,1982.0,USA,Kenedy,Al,Baker,United States Batesville,4100525.0,,US,United States,Batesville,6252001.0,35.7826,-91.6352
2285,662,bakerbo01,1878.0,United States,Troy,1940.0,USA,New York,Bock,Baker,United States Troy,4094163.0,,US,United States,Troy,6252001.0,31.7595,-86.0107
2301,663,bakerch01,1856.0,United States,West Boylston,1937.0,USA,Goffstown,Charlie,Baker,United States West Boylston,4954850.0,,US,United States,West Boylston,6252001.0,42.3584,-71.7838
2302,664,bakerch02,1952.0,United States,Seattle,,,,Chuck,Baker,United States Seattle,5809844.0,,US,United States,Seattle,6252001.0,47.3957,-122.3036
2304,666,bakerde01,1892.0,United States,Sherwood,1973.0,USA,Olmos Park,Del,Baker,United States Sherwood,4828193.0,,US,United States,Sherwood,6252001.0,34.8807,-92.2303
2309,667,bakerdo01,1961.0,United States,Fullerton,,,,Doug,Baker,United States Fullerton,5059296.0,,US,United States,Fullerton,6252001.0,46.1951,-98.3882
2312,668,bakerdu01,1949.0,United States,Riverside,,,,Dusty,Baker,United States Riverside,4086224.0,,US,United States,Riverside,6252001.0,33.6166,-86.1996
2322,669,bakerer01,1875.0,United States,Concord,1945.0,USA,Homer,Ernie,Baker,United States Concord,4189077.0,,US,United States,Concord,6252001.0,33.0998,-84.447
2332,670,bakerfl01,1916.0,United States,Luray,2004.0,USA,Youngstown,Floyd,Baker,United States Luray,4274886.0,,US,United States,Luray,6252001.0,39.1039,-98.6851
2335,671,bakerfr01,1886.0,United States,Trappe,1963.0,USA,Trappe,Home Run,Baker,United States Trappe,4371620.0,,US,United States,Trappe,6252001.0,38.6647,-76.0507
2336,672,bakerfr02,1944.0,United States,Bartow,2010.0,USA,Raleigh,Frank,Baker,United States Bartow,4146723.0,,US,United States,Bartow,6252001.0,27.8957,-81.8127
2338,673,bakerfr03,1946.0,United States,Meridian,,,,Frank,Baker,United States Meridian,4435764.0,,US,United States,Meridian,6252001.0,32.3574,-88.656
2343,675,bakerge02,1925.0,United States,Davenport,1999.0,USA,Davenport,Gene,Baker,United States Davenport,4152805.0,,US,United States,Davenport,6252001.0,28.1951,-81.6062
2350,676,bakerho01,1888.0,United States,Bridgeport,1964.0,USA,Bridgeport,Howard,Baker,United States Bridgeport,4234416.0,,US,United States,Bridgeport,6252001.0,38.7067,-87.7657
2362,677,bakerja01,1950.0,United States,Birmingham,,,,Jack,Baker,United States Birmingham,4049979.0,,US,United States,Birmingham,6252001.0,33.3555,-86.8274
2365,679,bakerje02,1895.0,United States,Cleveland,1976.0,USA,West Los Angeles,Jesse,Baker,United States Cleveland,4055815.0,,US,United States,Cleveland,6252001.0,33.9778,-86.5598
2381,680,bakerje03,1981.0,Germany,Bad Kissingen,,,,Jeff,Baker,Germany Bad Kissingen,2953424.0,EU,DE,Germany,Bad Kissingen,2921044.0,50.2023,10.0778
2382,681,bakerjo01,1981.0,United States,Alameda,,,,John,Baker,United States Alameda,5322737.0,,US,United States,Alameda,6252001.0,37.7351,-122.2431
2383,682,bakerki01,1869.0,United States,Aurora,1927.0,USA,Covington,Kirtley,Baker,United States Aurora,4048332.0,,US,United States,Aurora,6252001.0,39.0719,-84.9452
2397,683,bakerne01,1904.0,United States,La Porte,1982.0,USA,Houston,Neal,Baker,United States La Porte,4704108.0,,US,United States,La Porte,6252001.0,29.6658,-95.0194
2400,684,bakerno01,1862.0,United States,Philadelphia,1949.0,USA,Hurffville,Norm,Baker,United States Philadelphia,4440906.0,,US,United States,Philadelphia,6252001.0,32.7572,-89.1154
2405,685,bakerph01,1856.0,United States,Philadelphia,1940.0,USA,Washington,Phil,Baker,United States Philadelphia,4440906.0,,US,United States,Philadelphia,6252001.0,32.7572,-89.1154
2409,686,bakersc01,1970.0,United States,San Jose,,,,Scott,Baker,United States San Jose,4910485.0,,US,United States,San Jose,6252001.0,40.3011,-89.6872
2411,687,bakersc02,1981.0,United States,Shreveport,,,,Scott,Baker,United States Shreveport,4341513.0,,US,United States,Shreveport,6252001.0,32.3401,-93.6092
2413,688,bakerst01,1956.0,United States,Eugene,,,,Steve,Baker,United States Eugene,5725846.0,,US,United States,Eugene,6252001.0,44.0197,-123.1008
2415,690,bakerto02,1934.0,United States,Port Townsend,1980.0,USA,Port Townsend,Tom,Baker,United States Port Townsend,5807239.0,,US,United States,Port Townsend,6252001.0,48.104,-122.7945
2416,691,bakertr01,1891.0,United States,Pendleton,1975.0,USA,Placerville,Tracy,Baker,United States Pendleton,4262901.0,,US,United States,Pendleton,6252001.0,39.9975,-85.7466
2420,692,bakopa01,1972.0,United States,Lafayette,,,,Paul,Bako,United States Lafayette,4071267.0,,US,United States,Lafayette,6252001.0,32.9252,-85.4426
2429,693,balasmi01,1910.0,United States,Lowell,1996.0,USA,Westford,Mike,Balas,United States Lowell,4119972.0,,US,United States,Lowell,6252001.0,36.2554,-94.1308
2436,694,balazjo01,1950.0,Canada,Toronto,,,,John,Balaz,Canada Toronto,6167865.0,,CA,Canada,Toronto,6251999.0,43.5972,-79.6931
2437,695,balbost01,1957.0,United States,Brockton,,,,Steve,Balboni,United States Brockton,4931429.0,,US,United States,Brockton,6252001.0,42.0774,-71.0446
2439,696,balcebo01,1925.0,United States,San Pedro,1990.0,USA,San Pedro,Bobby,Balcena,United States San Pedro,5392528.0,,US,United States,San Pedro,6252001.0,33.7329,-118.2951
2440,697,baldero01,1981.0,United States,Woonsocket,,,,Rocco,Baldelli,United States Woonsocket,5225809.0,,US,United States,Woonsocket,6252001.0,41.9853,-71.5184
2442,698,baldsja01,1936.0,United States,Greenville,,,,Jack,Baldschun,United States Greenville,4065302.0,,US,United States,Greenville,6252001.0,31.81,-86.6229
2462,699,baldwbi01,1948.0,United States,Tazewell,2011.0,USA,Hudson,Billy,Baldwin,United States Tazewell,4661964.0,,US,United States,Tazewell,6252001.0,36.471,-83.5552
2464,700,baldwda01,1938.0,United States,Tucson,,,,Dave,Baldwin,United States Tucson,5318313.0,,US,United States,Tucson,6252001.0,32.0839,-110.9004
2465,701,baldwfr01,1928.0,United States,High Bridge,2004.0,USA,Beaver,Frank,Baldwin,United States High Bridge,5099025.0,,US,United States,High Bridge,6252001.0,40.6684,-74.8937
2466,702,baldwha01,1900.0,United States,Baltimore,1958.0,USA,Baltimore,Harry,Baldwin,United States Baltimore,4347778.0,,US,United States,Baltimore,6252001.0,39.2293,-76.6907
2468,703,baldwhe01,1894.0,United States,Chadds Ford,1964.0,USA,West Chester,Henry,Baldwin,United States Chadds Ford,4557084.0,,US,United States,Chadds Ford,6252001.0,39.8648,-75.5885
2469,704,baldwja01,1971.0,United States,Pinehurst,,,,James,Baldwin,United States Pinehurst,4485272.0,,US,United States,Pinehurst,6252001.0,35.1884,-79.4732
2472,705,baldwje01,1965.0,United States,Milford,,,,Jeff,Baldwin,United States Milford,4143658.0,,US,United States,Milford,6252001.0,38.9187,-75.4291
2489,706,baldwki01,1864.0,United States,Newport,1897.0,USA,Cincinnati,Kid,Baldwin,United States Newport,4123830.0,,US,United States,Newport,6252001.0,35.5988,-91.2571
2507,708,baldwma01,1863.0,United States,Pittsburgh,1929.0,USA,Pittsburgh,Mark,Baldwin,United States Pittsburgh,5206379.0,,US,United States,Pittsburgh,6252001.0,40.3323,-80.081
2508,709,baldwof01,1881.0,United States,Carson City,1942.0,USA,Los Angeles,Orson,Baldwin,United States Carson City,4988138.0,,US,United States,Carson City,6252001.0,43.1695,-84.8653
2510,710,baldwre01,1954.0,United States,River Rouge,,,,Reggie,Baldwin,United States River Rouge,5007247.0,,US,United States,River Rouge,6252001.0,42.2692,-83.1364
2511,711,baldwri01,1953.0,United States,Fresno,,,,Rick,Baldwin,United States Fresno,4692400.0,,US,United States,Fresno,6252001.0,29.5293,-95.4626
2515,713,balenmi01,1886.0,United States,Calumet,1955.0,USA,Altus,Mike,Balenti,United States Calumet,4531994.0,,US,United States,Calumet,6252001.0,35.5476,-98.1512
2518,715,balesco01,1986.0,United States,Huntington Beach,,,,Collin,Balester,United States Huntington Beach,5358705.0,,US,United States,Huntington Beach,6252001.0,33.6647,-117.9663
2519,716,balesle01,1944.0,United States,Los Angeles,,,,Lee,Bales,United States Los Angeles,5368361.0,,US,United States,Los Angeles,6252001.0,33.7866,-118.2987
2520,717,balfogr01,1977.0,Australia,Sydney,,,,Grant,Balfour,Australia Sydney,2147714.0,OC,AU,Australia,Sydney,2077456.0,-33.9486,151.0147
2523,718,ballaje01,1963.0,United States,Billings,,,,Jeff,Ballard,United States Billings,5640350.0,,US,United States,Billings,6252001.0,45.7745,-108.4995
2524,719,ballar01,1872.0,United States,Madison,1915.0,USA,Chicago,Art,Ball,United States Madison,4074267.0,,US,United States,Madison,6252001.0,34.643,-86.8168
2545,720,balleja01,1960.0,United States,Stayton,,,,Jay,Baller,United States Stayton,5754464.0,,US,United States,Stayton,6252001.0,44.8021,-122.7624
2547,722,ballima01,1949.0,United States,Glendale,2014.0,USA,Okeechobee,Mark,Ballinger,United States Glendale,5254404.0,,US,United States,Glendale,6252001.0,43.1353,-87.9356
2553,723,ballje01,1969.0,United States,Merced,,,,Jeff,Ball,United States Merced,5372253.0,,US,United States,Merced,6252001.0,37.2308,-120.5144
2555,725,ballne01,1881.0,United States,Grand Haven,1957.0,USA,Bridgeport,Neal,Ball,United States Grand Haven,4994325.0,,US,United States,Grand Haven,6252001.0,43.0301,-86.1865
2557,727,balsato01,1937.0,United States,Brooklyn,,,,Tony,Balsamo,United States Brooklyn,4349594.0,,US,United States,Brooklyn,6252001.0,39.2259,-76.6153
2563,728,bambege01,1923.0,United States,Staten Island,2004.0,USA,North Redington Beach,George,Bamberger,United States Staten Island,5139568.0,,US,United States,Staten Island,6252001.0,40.5085,-74.2445
2564,729,bambeha01,1924.0,United States,Lebanon,2010.0,USA,Reading,Hal,Bamberger,United States Lebanon,4242790.0,,US,United States,Lebanon,6252001.0,38.6053,-89.7992
2580,730,banckst01,1853.0,United States,Philadelphia,1888.0,USA,Philadelphia,Studs,Bancker,United States Philadelphia,4440906.0,,US,United States,Philadelphia,6252001.0,32.7572,-89.1154
2584,731,bancrda01,1891.0,United States,Sioux City,1972.0,USA,Superior,Dave,Bancroft,United States Sioux City,4876523.0,,US,United States,Sioux City,6252001.0,42.3684,-96.318
2586,732,bancrfr99,1846.0,United States,Lancaster,1921.0,USA,Cincinnati,Frank,Bancroft,United States Lancaster,4297354.0,,US,United States,Lancaster,6252001.0,37.6584,-84.5969
2599,733,bandaan01,1993.0,United States,Corpus Christi,,,,Anthony,Banda,United States Corpus Christi,4683416.0,,US,United States,Corpus Christi,6252001.0,27.6349,-97.3103
2600,734,bandoch01,1956.0,United States,Cleveland,,,,Chris,Bando,United States Cleveland,4055815.0,,US,United States,Cleveland,6252001.0,33.9778,-86.5598
2616,735,bandosa01,1944.0,United States,Cleveland,,,,Sal,Bando,United States Cleveland,4055815.0,,US,United States,Cleveland,6252001.0,33.9778,-86.5598
2632,736,bandyje01,1990.0,United States,West Hills,,,,Jett,Bandy,United States West Hills,8030162.0,,US,United States,West Hills,6252001.0,34.1957,-118.6466
2633,737,baneed01,1952.0,United States,Chicago,,,,Eddie,Bane,United States Chicago,4887398.0,,US,United States,Chicago,6252001.0,41.6642,-87.5612
2634,738,baneydi01,1946.0,United States,Fullerton,,,,Dick,Baney,United States Fullerton,5059296.0,,US,United States,Fullerton,6252001.0,46.1951,-98.3882
2637,739,banisje01,1964.0,United States,Weatherford,,,,Jeff,Banister,United States Weatherford,4554858.0,,US,United States,Weatherford,6252001.0,35.535,-98.6996
2641,741,bankhsc01,1963.0,United States,Raleigh,,,,Scott,Bankhead,United States Raleigh,4247770.0,,US,United States,Raleigh,6252001.0,37.8256,-88.5324
2646,742,banksbi01,1874.0,United States,Danville,1936.0,USA,Danville,Bill,Yerrick,United States Danville,4190729.0,,US,United States,Danville,6252001.0,32.6057,-83.2454
2659,743,banksbr01,1970.0,United States,Mesa,,,,Brian,Banks,United States Mesa,5304391.0,,US,United States,Mesa,6252001.0,33.3429,-111.6347
2662,744,bankser01,1931.0,United States,Dallas,2015.0,USA,Chicago,Ernie,Banks,United States Dallas,4190598.0,,US,United States,Dallas,6252001.0,33.8992,-84.8572
2669,745,banksev01,1893.0,United States,Barnesville,1970.0,USA,Griffin,Bill,Bankston,United States Barnesville,4181110.0,,US,United States,Barnesville,6252001.0,33.0457,-84.1515
2674,747,banksjo01,1982.0,United States,Baltimore,,,,Josh,Banks,United States Baltimore,4347778.0,,US,United States,Baltimore,6252001.0,39.2293,-76.6907
2676,748,bankswe01,1983.0,United States,Dallas,,,,Wes,Bankston,United States Dallas,4190598.0,,US,United States,Dallas,6252001.0,33.8992,-84.8572
2683,749,bankswi01,1969.0,United States,Jersey City,,,,Willie,Banks,United States Jersey City,5099836.0,,US,United States,Jersey City,6252001.0,40.7053,-74.0866
2684,750,bannial01,1951.0,United States,Montebello,,,,Alan,Bannister,United States Montebello,5374322.0,,US,United States,Montebello,6252001.0,34.010999999999996,-118.1145
2685,751,bannibr01,1981.0,United States,Scottsdale,,,,Brian,Bannister,United States Scottsdale,5313457.0,,US,United States,Scottsdale,6252001.0,33.4669,-111.9151
2686,752,bannifl01,1955.0,United States,Pierre,,,,Floyd,Bannister,United States Pierre,5767918.0,,US,United States,Pierre,6252001.0,44.3695,-100.3211
2687,753,banniji01,1865.0,United States,New York,1952.0,USA,St. Paul,Jim,Banning,United States New York,5128581.0,,US,United States,New York,6252001.0,40.6052,-74.1795
2688,754,bannoji01,1871.0,United States,Amesbury,1948.0,USA,Glen Rock,Jimmy,Bannon,United States Amesbury,4929004.0,,US,United States,Amesbury,6252001.0,42.8559,-70.9367
2689,755,bannoto01,1869.0,United States,Amesbury,1950.0,USA,Lynn,Tom,Bannon,United States Amesbury,4929004.0,,US,United States,Amesbury,6252001.0,42.8559,-70.9367
2690,756,bantaja01,1925.0,United States,Hutchinson,2006.0,USA,Hutchinson,Jack,Banta,United States Hutchinson,4273299.0,,US,United States,Hutchinson,6252001.0,38.055,-97.9311
2693,757,bantzbr01,1987.0,United States,Arlington,,,,Brandon,Bantz,United States Arlington,4282663.0,,US,United States,Arlington,6252001.0,36.7903,-89.0128
2709,759,baptitr01,1971.0,United States,Forest Grove,,,,Travis,Baptist,United States Forest Grove,5727190.0,,US,United States,Forest Grove,6252001.0,45.5981,-123.1818
2710,760,barajro01,1975.0,United States,Ontario,,,,Rod,Barajas,United States Ontario,5129887.0,,US,United States,Ontario,6252001.0,43.2291,-77.3088
2715,761,barbajo01,1992.0,United States,Miami,,,,Johnny,Barbato,United States Miami,4164138.0,,US,United States,Miami,6252001.0,25.5584,-80.4582
2720,762,barbare01,1920.0,United States,Simpsonville,2003.0,USA,Simpsonville,Red,Barbary,United States Simpsonville,4308453.0,,US,United States,Simpsonville,6252001.0,38.2312,-85.3548
2722,763,barbawa01,1891.0,United States,Greenville,1965.0,USA,Greenville,Walter,Barbare,United States Greenville,4065302.0,,US,United States,Greenville,6252001.0,31.81,-86.6229
2742,764,barbebr01,1967.0,United States,Long Beach,,,,Bret,Barberie,United States Long Beach,4434069.0,,US,United States,Long Beach,6252001.0,30.3598,-89.1646
2746,765,barbebr02,1973.0,United States,Hamilton,,,,Brian,Barber,United States Hamilton,4065965.0,,US,United States,Hamilton,6252001.0,34.1534,-88.0085
2761,766,barbech01,1854.0,United States,Philadelphia,1910.0,USA,Philadelphia,Charlie,Barber,United States Philadelphia,4440906.0,,US,United States,Philadelphia,6252001.0,32.7572,-89.1154
2765,767,barbeda01,1905.0,United States,Greensboro,1968.0,USA,Albemarle,Dave,Barbee,United States Greensboro,4065282.0,,US,United States,Greensboro,6252001.0,32.7167,-87.5905
2772,768,barbefr01,1882.0,United States,New Town,1965.0,USA,Ocala,Frank,Barberich,United States New Town,5690711.0,,US,United States,New Town,6252001.0,47.9718,-102.4716
2773,769,barbeja01,1882.0,United States,New York,1969.0,USA,Milwaukee,Jap,Barbeau,United States New York,5128581.0,,US,United States,New York,6252001.0,40.6052,-74.1795
2774,770,barbest01,1938.0,United States,Takoma Park,2007.0,USA,Henderson,Steve,Barber,United States Takoma Park,4370890.0,,US,United States,Takoma Park,6252001.0,38.9816,-77.0044
2775,771,barbest02,1948.0,United States,Grand Rapids,,,,Steve,Barber,United States Grand Rapids,4994358.0,,US,United States,Grand Rapids,6252001.0,42.8697,-85.6628
2779,773,barbiji01,1941.0,United States,Schenectady,,,,Jim,Barbieri,United States Schenectady,5136454.0,,US,United States,Schenectady,6252001.0,42.7823,-73.9448
2781,775,barclcu01,1931.0,United States,Chicago,1985.0,USA,Missoula,Curt,Barclay,United States Chicago,4887398.0,,US,United States,Chicago,6252001.0,41.6642,-87.5612
2783,776,barclge01,1876.0,United States,Millville,1909.0,USA,Philadelphia,George,Barclay,United States Millville,4503078.0,,US,United States,Millville,6252001.0,39.3673,-75.0293
2790,777,bardda01,1985.0,United States,Houston,,,,Daniel,Bard,United States Houston,4430529.0,,US,United States,Houston,6252001.0,33.9026,-88.96700000000001
2797,778,bardebr01,1981.0,United States,Templeton,,,,Brian,Barden,United States Templeton,4952731.0,,US,United States,Templeton,6252001.0,42.54600000000001,-72.065
2800,779,bardjo01,1978.0,United States,Ithaca,,,,Josh,Bard,United States Ithaca,4997346.0,,US,United States,Ithaca,6252001.0,43.2828,-84.6088
2802,780,bardlu01,1990.0,United States,Charlotte,,,,Luke,Bard,United States Charlotte,4460243.0,,US,United States,Charlotte,6252001.0,35.0562,-80.8194
2808,781,barera01,1949.0,United States,Miami,1994.0,USA,Miami,Ray,Bare,United States Miami,4164138.0,,US,United States,Miami,6252001.0,25.5584,-80.4582
2813,782,barfije01,1959.0,United States,Joliet,,,,Jesse,Barfield,United States Joliet,4898015.0,,US,United States,Joliet,6252001.0,41.4712,-87.9391
2815,783,barfijo01,1964.0,United States,Pine Bluff,2016.0,USA,Little Rock,John,Barfield,United States Pine Bluff,4126226.0,,US,United States,Pine Bluff,6252001.0,34.1897,-92.0448
2817,785,barfocl01,1891.0,United States,Richmond,1971.0,USA,Highland Park,Clyde,Barfoot,United States Richmond,4263681.0,,US,United States,Richmond,6252001.0,39.8335,-84.8983
2832,786,bargagr01,1959.0,United States,Inglewood,,,,Greg,Bargar,United States Inglewood,5359488.0,,US,United States,Inglewood,6252001.0,33.9376,-118.3582
2833,787,bargecy01,1885.0,United States,Jamestown,1964.0,USA,Columbia,Cy,Barger,United States Jamestown,4259636.0,,US,United States,Jamestown,6252001.0,39.9579,-86.6236
2846,788,barkbr01,1968.0,United States,Baltimore,,,,Brian,Bark,United States Baltimore,4347778.0,,US,United States,Baltimore,6252001.0,39.2293,-76.6907
2848,789,barkeal01,1839.0,United States,Lost Creek,1912.0,USA,Rockford,Al,Barker,United States Lost Creek,4813112.0,,US,United States,Lost Creek,6252001.0,39.1725,-80.3777
2849,790,barkean01,1974.0,United States,Miami,,,,Andy,Barkett,United States Miami,4164138.0,,US,United States,Miami,6252001.0,25.5584,-80.4582
2854,791,barkegl01,1971.0,United States,Albany,,,,Glen,Barker,United States Albany,4179320.0,,US,United States,Albany,6252001.0,31.5105,-84.3087
2867,792,barkeke01,1975.0,United States,Bristol,,,,Kevin,Barker,United States Bristol,4148912.0,,US,United States,Bristol,6252001.0,30.4223,-84.9466
2879,793,barkele01,1955.0,United States,Fort Knox,,,,Len,Barker,United States Fort Knox,7259771.0,,US,United States,Fort Knox,6252001.0,37.8928,-85.9489
2880,794,barkera01,1936.0,United States,Martinsburg,2018.0,USA,Martinsburg,Ray,Barker,United States Martinsburg,4397311.0,,US,United States,Martinsburg,6252001.0,39.0968,-91.6646
2883,795,barkeri01,1972.0,United States,Revere,,,,Richie,Barker,United States Revere,4832294.0,,US,United States,Revere,6252001.0,42.4125,-71.0034
2884,796,barkese01,1980.0,United States,Bakersfield,,,,Sean,Barker,United States Bakersfield,5325738.0,,US,United States,Bakersfield,6252001.0,35.2944,-118.9052
2885,797,barklbr01,1975.0,United States,Conroe,,,,Brian,Barkley,United States Conroe,4682991.0,,US,United States,Conroe,6252001.0,30.1877,-95.4288
2887,798,barklje01,1959.0,United States,Hickory,,,,Jeff,Barkley,United States Hickory,4429661.0,,US,United States,Hickory,6252001.0,32.32,-89.0093
