,playerID,birthYear,birthCountry,birthCity,nameFirst,nameLast,Position,HoF,country_iso_code,latitude,longitude,flags
0,aardsda01,1981,United States,Denver,David,Aardsma,P,N,US,35.4837,-80.9898,https://upload.wikimedia.org/wikipedia/en/a/a4/Flag_of_the_United_States.svg
1,aaronha01,1934,United States,Mobile,Hank,Aaron,RF,Y,US,30.5928,-88.1946,https://upload.wikimedia.org/wikipedia/en/a/a4/Flag_of_the_United_States.svg
2,aaronto01,1939,United States,Mobile,Tommie,Aaron,1B,N,US,30.5928,-88.1946,https://upload.wikimedia.org/wikipedia/en/a/a4/Flag_of_the_United_States.svg
3,aasedo01,1954,United States,Orange,Don,Aase,P,N,US,30.0709,-93.8659,https://upload.wikimedia.org/wikipedia/en/a/a4/Flag_of_the_United_States.svg
4,abadan01,1972,United States,Palm Beach,Andy,Abad,1B,N,US,26.7206,-80.0388,https://upload.wikimedia.org/wikipedia/en/a/a4/Flag_of_the_United_States.svg
5,abadijo01,1850,United States,Philadelphia,John,Abadie,1B,N,US,40.0076,-75.134,https://upload.wikimedia.org/wikipedia/en/a/a4/Flag_of_the_United_States.svg
6,abbated01,1877,United States,Latrobe,Ed,Abbaticchio,2B,N,US,40.2917,-79.4054,https://upload.wikimedia.org/wikipedia/en/a/a4/Flag_of_the_United_States.svg
7,abbeybe01,1869,United States,Essex,Bert,Abbey,P,N,US,39.3055,-76.4518,https://upload.wikimedia.org/wikipedia/en/a/a4/Flag_of_the_United_States.svg
8,abbeych01,1866,United States,Falls City,Charlie,Abbey,LF,N,US,28.9814,-98.0156,https://upload.wikimedia.org/wikipedia/en/a/a4/Flag_of_the_United_States.svg
9,abbotda01,1862,United States,Portage,Dan,Abbott,P,N,US,41.5681,-87.1749,https://upload.wikimedia.org/wikipedia/en/a/a4/Flag_of_the_United_States.svg
10,abbotfr01,1874,United States,Versailles,Fred,Abbott,C,N,US,39.0511,-85.2235,https://upload.wikimedia.org/wikipedia/en/a/a4/Flag_of_the_United_States.svg
11,abbotgl01,1951,United States,Little Rock,Glenn,Abbott,P,N,US,34.6725,-92.3529,https://upload.wikimedia.org/wikipedia/en/a/a4/Flag_of_the_United_States.svg
12,abbotje01,1972,United States,Atlanta,Jeff,Abbott,LF,N,US,33.6026,-84.4769,https://upload.wikimedia.org/wikipedia/en/a/a4/Flag_of_the_United_States.svg
13,abbotji01,1967,United States,Flint,Jim,Abbott,P,N,US,32.2079,-95.3948,https://upload.wikimedia.org/wikipedia/en/a/a4/Flag_of_the_United_States.svg
14,abbotku01,1969,United States,Zanesville,Kurt,Abbott,SS,N,US,39.9275,-82.0032,https://upload.wikimedia.org/wikipedia/en/a/a4/Flag_of_the_United_States.svg
15,abbotky01,1968,United States,Newburyport,Kyle,Abbott,P,N,US,42.8133,-70.8814,https://upload.wikimedia.org/wikipedia/en/a/a4/Flag_of_the_United_States.svg
17,abbotpa01,1967,United States,Van Nuys,Paul,Abbott,P,N,US,34.1781,-118.4574,https://upload.wikimedia.org/wikipedia/en/a/a4/Flag_of_the_United_States.svg
18,aberal01,1927,United States,Cleveland,Al,Aber,P,N,US,33.9778,-86.5598,https://upload.wikimedia.org/wikipedia/en/a/a4/Flag_of_the_United_States.svg
20,abercre01,1980,United States,Columbus,Reggie,Abercrombie,LF,N,US,43.3354,-89.03,https://upload.wikimedia.org/wikipedia/en/a/a4/Flag_of_the_United_States.svg
21,abernbi01,1929,United States,Torrance,Bill,Abernathie,P,N,US,33.8104,-118.3531,https://upload.wikimedia.org/wikipedia/en/a/a4/Flag_of_the_United_States.svg
22,abernbr01,1977,United States,Atlanta,Brent,Abernathy,2B,N,US,33.6026,-84.4769,https://upload.wikimedia.org/wikipedia/en/a/a4/Flag_of_the_United_States.svg
24,abernte02,1933,United States,Stanley,Ted,Abernathy,P,N,US,35.3516,-81.0959,https://upload.wikimedia.org/wikipedia/en/a/a4/Flag_of_the_United_States.svg
25,abernwo01,1915,United States,Forest City,Woody,Abernathy,P,N,US,35.3339,-81.8702,https://upload.wikimedia.org/wikipedia/en/a/a4/Flag_of_the_United_States.svg
26,aberscl01,1921,United States,Chicago,Cliff,Aberson,LF,N,US,41.6642,-87.5612,https://upload.wikimedia.org/wikipedia/en/a/a4/Flag_of_the_United_States.svg
27,ablesha01,1883,United States,Terrell,Harry,Ables,P,N,US,32.7332,-96.195,https://upload.wikimedia.org/wikipedia/en/a/a4/Flag_of_the_United_States.svg
28,abnersh01,1966,United States,Hamilton,Shawn,Abner,LF,N,US,34.1534,-88.0085,https://upload.wikimedia.org/wikipedia/en/a/a4/Flag_of_the_United_States.svg
29,abramca01,1924,United States,Philadelphia,Cal,Abrams,RF,N,US,40.0076,-75.134,https://upload.wikimedia.org/wikipedia/en/a/a4/Flag_of_the_United_States.svg
30,abramge01,1899,United States,Seattle,George,Abrams,P,N,US,47.3957,-122.3036,https://upload.wikimedia.org/wikipedia/en/a/a4/Flag_of_the_United_States.svg
31,abregjo01,1962,United States,Corpus Christi,Johnny,Abrego,P,N,US,27.6349,-97.3103,https://upload.wikimedia.org/wikipedia/en/a/a4/Flag_of_the_United_States.svg
32,abreujo01,1913,United States,Oakland,Joe,Abreu,3B,N,US,28.5547,-81.6322,https://upload.wikimedia.org/wikipedia/en/a/a4/Flag_of_the_United_States.svg
34,accarje01,1981,United States,Phoenix,Jeremy,Accardo,P,N,US,39.4833,-76.5776,https://upload.wikimedia.org/wikipedia/en/a/a4/Flag_of_the_United_States.svg
35,achteaj01,1988,United States,Toledo,A. J.,Achter,P,N,US,39.2772,-88.2468,https://upload.wikimedia.org/wikipedia/en/a/a4/Flag_of_the_United_States.svg
36,ackerji01,1958,United States,Freer,Jim,Acker,P,N,US,27.88,-98.6061,https://upload.wikimedia.org/wikipedia/en/a/a4/Flag_of_the_United_States.svg
37,ackerto01,1930,United States,Paterson,Tom,Acker,P,N,US,40.897,-74.1573,https://upload.wikimedia.org/wikipedia/en/a/a4/Flag_of_the_United_States.svg
38,ackledu01,1988,United States,Winston-Salem,Dustin,Ackley,2B,N,US,36.0403,-80.1933,https://upload.wikimedia.org/wikipedia/en/a/a4/Flag_of_the_United_States.svg
39,acklefr01,1937,United States,Hayward,Fritz,Ackley,P,N,US,45.9552,-91.2783,https://upload.wikimedia.org/wikipedia/en/a/a4/Flag_of_the_United_States.svg
40,acrema01,1968,United States,Concord,Mark,Acre,P,N,US,33.0998,-84.447,https://upload.wikimedia.org/wikipedia/en/a/a4/Flag_of_the_United_States.svg
41,adairbi99,1913,United States,Mobile,Bill,Adair,,N,US,30.5928,-88.1946,https://upload.wikimedia.org/wikipedia/en/a/a4/Flag_of_the_United_States.svg
42,adairje01,1936,United States,Sand Springs,Jerry,Adair,2B,N,US,36.1341,-96.1426,https://upload.wikimedia.org/wikipedia/en/a/a4/Flag_of_the_United_States.svg
43,adairji01,1907,United States,Waxahachie,Jimmy,Adair,SS,N,US,32.3773,-96.9162,https://upload.wikimedia.org/wikipedia/en/a/a4/Flag_of_the_United_States.svg
44,adamja01,1991,United States,Overland Park,Jason,Adam,P,N,US,38.8591,-94.6314,https://upload.wikimedia.org/wikipedia/en/a/a4/Flag_of_the_United_States.svg
45,adamsac01,1910,United States,Willows,Ace,Adams,P,N,US,39.5353,-122.2597,https://upload.wikimedia.org/wikipedia/en/a/a4/Flag_of_the_United_States.svg
46,adamsau01,1986,United States,Montgomery,Austin,Adams,P,N,US,32.2334,-86.2085,https://upload.wikimedia.org/wikipedia/en/a/a4/Flag_of_the_United_States.svg
47,adamsau02,1991,United States,Tampa,Austin,Adams,P,N,US,27.872,-82.4388,https://upload.wikimedia.org/wikipedia/en/a/a4/Flag_of_the_United_States.svg
48,adamsba01,1882,United States,Tipton,Babe,Adams,P,N,US,40.2817,-86.0423,https://upload.wikimedia.org/wikipedia/en/a/a4/Flag_of_the_United_States.svg
49,adamsbe01,1891,United States,Wharton,Bert,Adams,C,N,US,29.3205,-96.0858,https://upload.wikimedia.org/wikipedia/en/a/a4/Flag_of_the_United_States.svg
50,adamsbo01,1901,United States,Holyoke,Bob,Adams,P,N,US,42.202,-72.6262,https://upload.wikimedia.org/wikipedia/en/a/a4/Flag_of_the_United_States.svg
51,adamsbo02,1907,United States,Birmingham,Bob,Adams,P,N,US,33.3555,-86.8274,https://upload.wikimedia.org/wikipedia/en/a/a4/Flag_of_the_United_States.svg
52,adamsbo03,1921,United States,Tuolumne,Bobby,Adams,3B,N,US,37.9678,-120.2357,https://upload.wikimedia.org/wikipedia/en/a/a4/Flag_of_the_United_States.svg
53,adamsbo04,1952,United States,Pittsburgh,Bob,Adams,1B,N,US,40.3323,-80.081,https://upload.wikimedia.org/wikipedia/en/a/a4/Flag_of_the_United_States.svg
54,adamsbu01,1915,United States,Trinidad,Buster,Adams,LF,N,US,32.1383,-96.0831,https://upload.wikimedia.org/wikipedia/en/a/a4/Flag_of_the_United_States.svg
55,adamsch01,1994,United States,Scottsdale,Chance,Adams,P,N,US,33.4669,-111.9151,https://upload.wikimedia.org/wikipedia/en/a/a4/Flag_of_the_United_States.svg
57,adamsda02,1987,United States,Margate,David,Adams,3B,N,,26.2465,-80.2119,https://upload.wikimedia.org/wikipedia/en/a/a4/Flag_of_the_United_States.svg
58,adamsdi01,1920,United States,Tuolumne,Dick,Adams,1B,N,US,37.9678,-120.2357,https://upload.wikimedia.org/wikipedia/en/a/a4/Flag_of_the_United_States.svg
60,adamsge01,1855,United States,Worcester,George,Adams,1B,N,US,42.2303,-71.7938,https://upload.wikimedia.org/wikipedia/en/a/a4/Flag_of_the_United_States.svg
61,adamsgl01,1947,United States,Northbridge,Glenn,Adams,DH,N,US,42.1494,-71.6564,https://upload.wikimedia.org/wikipedia/en/a/a4/Flag_of_the_United_States.svg
62,adamshe01,1928,United States,Hollywood,Herb,Adams,LF,N,US,26.0293,-80.1678,https://upload.wikimedia.org/wikipedia/en/a/a4/Flag_of_the_United_States.svg
65,adamsjo02,1971,United States,Lakewood,Joel,Adamson,P,N,US,36.2416,-86.6117,https://upload.wikimedia.org/wikipedia/en/a/a4/Flag_of_the_United_States.svg
66,adamska01,1891,United States,Columbus,Karl,Adams,P,N,US,43.3354,-89.03,https://upload.wikimedia.org/wikipedia/en/a/a4/Flag_of_the_United_States.svg
67,adamsla01,1989,United States,Talihina,Lane,Adams,LF,N,US,34.7381,-94.9978,https://upload.wikimedia.org/wikipedia/en/a/a4/Flag_of_the_United_States.svg
68,adamsma01,1988,United States,Philipsburg,Matt,Adams,1B,N,US,40.8863,-78.219,https://upload.wikimedia.org/wikipedia/en/a/a4/Flag_of_the_United_States.svg
69,adamsmi01,1947,United States,San Diego,Mike,Adamson,P,N,US,32.8312,-117.1226,https://upload.wikimedia.org/wikipedia/en/a/a4/Flag_of_the_United_States.svg
70,adamsmi02,1948,United States,Cincinnati,Mike,Adams,LF,N,US,39.0584,-84.3396,https://upload.wikimedia.org/wikipedia/en/a/a4/Flag_of_the_United_States.svg
71,adamsmi03,1978,United States,Corpus Christi,Mike,Adams,P,N,US,27.6349,-97.3103,https://upload.wikimedia.org/wikipedia/en/a/a4/Flag_of_the_United_States.svg
72,adamsre01,1921,United States,Parlier,Red,Adams,P,N,US,36.6103,-119.5375,https://upload.wikimedia.org/wikipedia/en/a/a4/Flag_of_the_United_States.svg
73,adamsri01,1878,United States,Paris,Rick,Adams,P,N,US,35.2941,-93.7265,https://upload.wikimedia.org/wikipedia/en/a/a4/Flag_of_the_United_States.svg
74,adamsri02,1959,United States,Upland,Ricky,Adams,SS,N,US,40.4548,-85.499,https://upload.wikimedia.org/wikipedia/en/a/a4/Flag_of_the_United_States.svg
75,adamsru01,1980,United States,Laurinburg,Russ,Adams,SS,N,US,34.7599,-79.4673,https://upload.wikimedia.org/wikipedia/en/a/a4/Flag_of_the_United_States.svg
76,adamsry01,1987,United States,New Orleans,Ryan,Adams,2B,N,US,29.9198,-89.999,https://upload.wikimedia.org/wikipedia/en/a/a4/Flag_of_the_United_States.svg
78,adamssp02,1898,United States,Layton,Spencer,Adams,2B,N,US,41.0846,-111.9274,https://upload.wikimedia.org/wikipedia/en/a/a4/Flag_of_the_United_States.svg
79,adamste01,1973,United States,Mobile,Terry,Adams,P,N,US,30.5928,-88.1946,https://upload.wikimedia.org/wikipedia/en/a/a4/Flag_of_the_United_States.svg
80,adamswi01,1890,United States,Clearfield,Willie,Adams,P,N,US,41.0216,-78.439,https://upload.wikimedia.org/wikipedia/en/a/a4/Flag_of_the_United_States.svg
81,adamswi02,1972,United States,Gallup,Willie,Adams,P,N,US,35.5065,-108.7414,https://upload.wikimedia.org/wikipedia/en/a/a4/Flag_of_the_United_States.svg
82,adcocjo01,1927,United States,Coushatta,Joe,Adcock,1B,N,US,32.0231,-93.2648,https://upload.wikimedia.org/wikipedia/en/a/a4/Flag_of_the_United_States.svg
83,adcocna01,1988,United States,Elizabethtown,Nathan,Adcock,P,N,US,37.4665,-88.2867,https://upload.wikimedia.org/wikipedia/en/a/a4/Flag_of_the_United_States.svg
84,addisbo01,1925,United States,Mineral,Bob,Addis,LF,N,US,37.9986,-77.8781,https://upload.wikimedia.org/wikipedia/en/a/a4/Flag_of_the_United_States.svg
85,adducji01,1959,United States,Chicago,Jim,Adduci,LF,N,US,41.6642,-87.5612,https://upload.wikimedia.org/wikipedia/en/a/a4/Flag_of_the_United_States.svg
86,adenhni01,1986,United States,Silver Spring,Nick,Adenhart,P,N,US,38.9907,-77.0261,https://upload.wikimedia.org/wikipedia/en/a/a4/Flag_of_the_United_States.svg
87,aderhmo01,1915,United States,Mount Olive,Morrie,Aderholt,LF,N,US,33.6768,-86.8717,https://upload.wikimedia.org/wikipedia/en/a/a4/Flag_of_the_United_States.svg
88,adkinde01,1918,United States,Norcatur,Dewey,Adkins,P,N,US,39.8447,-100.2007,https://upload.wikimedia.org/wikipedia/en/a/a4/Flag_of_the_United_States.svg
89,adkindi01,1920,United States,Electra,Dick,Adkins,SS,N,US,34.0362,-98.9155,https://upload.wikimedia.org/wikipedia/en/a/a4/Flag_of_the_United_States.svg
90,adkindo01,1872,United States,Troy,Doc,Adkins,P,N,US,31.7595,-86.0107,https://upload.wikimedia.org/wikipedia/en/a/a4/Flag_of_the_United_States.svg
91,adkingr01,1897,United States,Jacksonville,Grady,Adkins,P,N,US,33.830999999999996,-85.7752,https://upload.wikimedia.org/wikipedia/en/a/a4/Flag_of_the_United_States.svg
92,adkinhe01,1874,United States,Fulton,Harry,Atkinson,LF,N,US,43.3171,-76.4162,https://upload.wikimedia.org/wikipedia/en/a/a4/Flag_of_the_United_States.svg
93,adkinjo01,1977,United States,Huntington,Jon,Adkins,P,N,US,35.0963,-94.3313,https://upload.wikimedia.org/wikipedia/en/a/a4/Flag_of_the_United_States.svg
94,adkinst01,1964,United States,Chicago,Steve,Adkins,P,N,US,41.6642,-87.5612,https://upload.wikimedia.org/wikipedia/en/a/a4/Flag_of_the_United_States.svg
95,adlemti01,1987,United States,Staten Island,Tim,Adleman,P,N,US,40.5085,-74.2445,https://upload.wikimedia.org/wikipedia/en/a/a4/Flag_of_the_United_States.svg
96,adlesda01,1943,United States,Long Beach,Dave,Adlesh,C,N,US,30.3598,-89.1646,https://upload.wikimedia.org/wikipedia/en/a/a4/Flag_of_the_United_States.svg
97,afenitr01,1963,United States,Escondido,Troy,Afenir,C,N,US,33.0895,-117.1128,https://upload.wikimedia.org/wikipedia/en/a/a4/Flag_of_the_United_States.svg
98,affelje01,1979,United States,Phoenix,Jeremy,Affeldt,P,N,US,39.4833,-76.5776,https://upload.wikimedia.org/wikipedia/en/a/a4/Flag_of_the_United_States.svg
99,agbaybe01,1971,United States,Honolulu,Benny,Agbayani,LF,N,US,21.2811,-157.8266,https://upload.wikimedia.org/wikipedia/en/a/a4/Flag_of_the_United_States.svg
100,ageeto01,1942,United States,Magnolia,Tommie,Agee,LF,N,US,33.2426,-93.23,https://upload.wikimedia.org/wikipedia/en/a/a4/Flag_of_the_United_States.svg
101,agganha01,1929,United States,Lynn,Harry,Agganis,1B,N,US,40.0519,-84.93,https://upload.wikimedia.org/wikipedia/en/a/a4/Flag_of_the_United_States.svg
102,aglerjo01,1887,United States,Coshocton,Joe,Agler,1B,N,US,40.2754,-81.866,https://upload.wikimedia.org/wikipedia/en/a/a4/Flag_of_the_United_States.svg
103,agnewsa01,1887,United States,Farmington,Sam,Agnew,C,N,US,36.0436,-94.2539,https://upload.wikimedia.org/wikipedia/en/a/a4/Flag_of_the_United_States.svg
104,aguilch01,1979,United States,Redwood City,Chris,Aguila,LF,N,US,37.4245,-122.296,https://upload.wikimedia.org/wikipedia/en/a/a4/Flag_of_the_United_States.svg
105,aguilri01,1961,United States,San Gabriel,Rick,Aguilera,P,N,US,34.0899,-118.0871,https://upload.wikimedia.org/wikipedia/en/a/a4/Flag_of_the_United_States.svg
106,aguirha01,1931,United States,Azusa,Hank,Aguirre,P,N,US,34.123000000000005,-117.8988,https://upload.wikimedia.org/wikipedia/en/a/a4/Flag_of_the_United_States.svg
107,ahearch01,1858,United States,Troy,Bill,Ahearn,C,N,US,31.7595,-86.0107,https://upload.wikimedia.org/wikipedia/en/a/a4/Flag_of_the_United_States.svg
108,ahearpa01,1969,United States,San Francisco,Pat,Ahearne,P,N,US,37.6811,-122.4806,https://upload.wikimedia.org/wikipedia/en/a/a4/Flag_of_the_United_States.svg
109,ahmedni01,1990,United States,Springfield,Nick,Ahmed,SS,N,US,32.3697,-81.3618,https://upload.wikimedia.org/wikipedia/en/a/a4/Flag_of_the_United_States.svg
110,aikenwi01,1954,United States,Seneca,Willie,Aikens,1B,N,US,39.8473,-96.0316,https://upload.wikimedia.org/wikipedia/en/a/a4/Flag_of_the_United_States.svg
111,aingeda01,1959,United States,Eugene,Danny,Ainge,2B,N,US,44.0563,-123.1173,https://upload.wikimedia.org/wikipedia/en/a/a4/Flag_of_the_United_States.svg
112,ainswku01,1978,United States,Baton Rouge,Kurt,Ainsworth,P,N,US,30.3608,-91.0917,https://upload.wikimedia.org/wikipedia/en/a/a4/Flag_of_the_United_States.svg
113,aitchra01,1887,United States,Tyndall,Raleigh,Aitchison,P,N,US,42.99,-97.8633,https://upload.wikimedia.org/wikipedia/en/a/a4/Flag_of_the_United_States.svg
114,aitonge01,1890,United States,Kingman,George,Aiton,LF,N,US,40.0174,-87.2569,https://upload.wikimedia.org/wikipedia/en/a/a4/Flag_of_the_United_States.svg
115,akejo01,1861,United States,Altoona,John,Ake,3B,N,US,29.0219,-81.6323,https://upload.wikimedia.org/wikipedia/en/a/a4/Flag_of_the_United_States.svg
116,akerfda01,1962,United States,Denver,Darrel,Akerfelds,P,N,US,35.4837,-80.9898,https://upload.wikimedia.org/wikipedia/en/a/a4/Flag_of_the_United_States.svg
117,akerja01,1940,United States,Tulare,Jack,Aker,P,N,US,36.1996,-119.34,https://upload.wikimedia.org/wikipedia/en/a/a4/Flag_of_the_United_States.svg
118,akersbi01,1904,United States,Chattanooga,Bill,Akers,SS,N,US,34.4262,-98.6514,https://upload.wikimedia.org/wikipedia/en/a/a4/Flag_of_the_United_States.svg
119,akersje01,1887,United States,Shelbyville,Jerry,Akers,P,N,US,39.458,-88.8058,https://upload.wikimedia.org/wikipedia/en/a/a4/Flag_of_the_United_States.svg
120,albanjo01,1933,United States,New York,Joe,Albanese,P,N,US,40.6052,-74.1795,https://upload.wikimedia.org/wikipedia/en/a/a4/Flag_of_the_United_States.svg
121,alberbu01,1950,United States,Williamsport,Butch,Alberts,DH,N,US,41.2398,-77.0371,https://upload.wikimedia.org/wikipedia/en/a/a4/Flag_of_the_United_States.svg
122,albercy01,1882,United States,Grand Rapids,Cy,Alberts,P,N,US,42.8697,-85.6628,https://upload.wikimedia.org/wikipedia/en/a/a4/Flag_of_the_United_States.svg
123,albergu01,1860,United States,Reading,Gus,Alberts,3B,N,US,42.528,-71.109,https://upload.wikimedia.org/wikipedia/en/a/a4/Flag_of_the_United_States.svg
124,alberma01,1983,United States,Houston,Matt,Albers,P,N,US,29.7868,-95.3905,https://upload.wikimedia.org/wikipedia/en/a/a4/Flag_of_the_United_States.svg
125,albosed01,1918,United States,Saginaw,Ed,Albosta,P,N,US,43.3869,-84.0926,https://upload.wikimedia.org/wikipedia/en/a/a4/Flag_of_the_United_States.svg
127,albrija01,1921,United States,St. Petersburg,Jack,Albright,SS,N,US,27.6705,-82.7119,https://upload.wikimedia.org/wikipedia/en/a/a4/Flag_of_the_United_States.svg
128,alburvi01,1947,United States,Key West,Vic,Albury,P,N,US,24.5615,-81.7818,https://upload.wikimedia.org/wikipedia/en/a/a4/Flag_of_the_United_States.svg
129,alcocsc01,1885,United States,Wooster,Scotty,Alcock,3B,N,US,40.8142,-81.9387,https://upload.wikimedia.org/wikipedia/en/a/a4/Flag_of_the_United_States.svg
130,alderda01,1918,United States,Belden,Dale,Alderson,P,N,US,34.3057,-88.8462,https://upload.wikimedia.org/wikipedia/en/a/a4/Flag_of_the_United_States.svg
131,aldremi01,1961,United States,Carmel,Mike,Aldrete,1B,N,US,39.9714,-86.1295,https://upload.wikimedia.org/wikipedia/en/a/a4/Flag_of_the_United_States.svg
132,aldresc01,1968,United States,Flint,Scott,Aldred,P,N,US,32.2079,-95.3948,https://upload.wikimedia.org/wikipedia/en/a/a4/Flag_of_the_United_States.svg
133,aldrico01,1979,United States,San Angelo,Cory,Aldridge,RF,N,US,31.4193,-100.4803,https://upload.wikimedia.org/wikipedia/en/a/a4/Flag_of_the_United_States.svg
134,aldrija01,1961,United States,Alexandria,Jay,Aldrich,P,N,US,38.9406,-84.3943,https://upload.wikimedia.org/wikipedia/en/a/a4/Flag_of_the_United_States.svg
135,aldrivi01,1893,United States,Crane,Vic,Aldridge,P,N,US,38.8949,-86.9002,https://upload.wikimedia.org/wikipedia/en/a/a4/Flag_of_the_United_States.svg
137,alexada01,1903,United States,Greeneville,Dale,Alexander,1B,N,US,36.1294,-82.866,https://upload.wikimedia.org/wikipedia/en/a/a4/Flag_of_the_United_States.svg
138,alexado01,1950,United States,Cordova,Doyle,Alexander,P,N,US,35.16,-89.7768,https://upload.wikimedia.org/wikipedia/en/a/a4/Flag_of_the_United_States.svg
139,alexaga01,1953,United States,Los Angeles,Gary,Alexander,C,N,US,33.7866,-118.2987,https://upload.wikimedia.org/wikipedia/en/a/a4/Flag_of_the_United_States.svg
140,alexage01,1968,United States,Baton Rouge,Gerald,Alexander,P,N,US,30.3608,-91.0917,https://upload.wikimedia.org/wikipedia/en/a/a4/Flag_of_the_United_States.svg
141,alexahu01,1917,United States,Buffalo,Hugh,Alexander,RF,N,US,39.8499,-89.3879,https://upload.wikimedia.org/wikipedia/en/a/a4/Flag_of_the_United_States.svg
142,alexama01,1947,United States,Shreveport,Matt,Alexander,DH,N,US,32.3401,-93.6092,https://upload.wikimedia.org/wikipedia/en/a/a4/Flag_of_the_United_States.svg
143,alexani01,1858,United States,Pana,Nin,Alexander,C,N,US,39.3971,-89.1048,https://upload.wikimedia.org/wikipedia/en/a/a4/Flag_of_the_United_States.svg
144,alexape01,1887,United States,Elba,Pete,Alexander,P,N,US,31.4137,-86.0777,https://upload.wikimedia.org/wikipedia/en/a/a4/Flag_of_the_United_States.svg
145,alexasc01,1989,United States,Santa Rosa,Scott,Alexander,P,N,US,26.2555,-97.8257,https://upload.wikimedia.org/wikipedia/en/a/a4/Flag_of_the_United_States.svg
146,alexawa01,1891,United States,Atlanta,Walt,Alexander,C,N,US,33.6026,-84.4769,https://upload.wikimedia.org/wikipedia/en/a/a4/Flag_of_the_United_States.svg
147,alfarja01,1977,United States,San Antonio,Jason,Alfaro,SS,N,US,28.3371,-82.2882,https://upload.wikimedia.org/wikipedia/en/a/a4/Flag_of_the_United_States.svg
148,alforan01,1994,United States,Columbia,Anthony,Alford,LF,N,US,38.4325,-90.2027,https://upload.wikimedia.org/wikipedia/en/a/a4/Flag_of_the_United_States.svg
149,allanan01,1961,United States,Richmond,Andy,Allanson,C,N,US,39.8335,-84.8983,https://upload.wikimedia.org/wikipedia/en/a/a4/Flag_of_the_United_States.svg
150,allarbr01,1958,United States,Spring Valley,Brian,Allard,P,N,US,39.6083,-84.02600000000001,https://upload.wikimedia.org/wikipedia/en/a/a4/Flag_of_the_United_States.svg
151,allarko01,1997,United States,Anaheim,Kolby,Allard,P,N,US,33.8055,-117.9223,https://upload.wikimedia.org/wikipedia/en/a/a4/Flag_of_the_United_States.svg
152,allenbe01,1939,United States,East Liverpool,Bernie,Allen,2B,N,US,40.6774,-80.6006,https://upload.wikimedia.org/wikipedia/en/a/a4/Flag_of_the_United_States.svg
153,allenbo01,1867,United States,Marion,Bob,Allen,SS,N,US,38.0266,-75.7579,https://upload.wikimedia.org/wikipedia/en/a/a4/Flag_of_the_United_States.svg
154,allenbo02,1894,United States,Muscoda,Bob,Allen,LF,N,US,43.2074,-90.45700000000001,https://upload.wikimedia.org/wikipedia/en/a/a4/Flag_of_the_United_States.svg
155,allenbo03,1914,United States,Smithville,Bob,Allen,P,N,US,39.3917,-94.5592,https://upload.wikimedia.org/wikipedia/en/a/a4/Flag_of_the_United_States.svg
156,allenbo04,1937,United States,Tatum,Bob,Allen,P,N,US,32.3266,-94.596,https://upload.wikimedia.org/wikipedia/en/a/a4/Flag_of_the_United_States.svg
157,allenbr01,1986,United States,Conroe,Brandon,Allen,1B,N,US,30.1877,-95.4288,https://upload.wikimedia.org/wikipedia/en/a/a4/Flag_of_the_United_States.svg
158,allench01,1975,United States,Dallas,Chad,Allen,LF,N,US,33.8992,-84.8572,https://upload.wikimedia.org/wikipedia/en/a/a4/Flag_of_the_United_States.svg
159,allenco01,1988,United States,Orlando,Cody,Allen,P,N,US,28.3774,-81.1888,https://upload.wikimedia.org/wikipedia/en/a/a4/Flag_of_the_United_States.svg
161,allendu01,1972,United States,Oklahoma City,Dusty,Allen,1B,N,US,35.3267,-97.3534,https://upload.wikimedia.org/wikipedia/en/a/a4/Flag_of_the_United_States.svg
162,allenet01,1904,United States,Cincinnati,Ethan,Allen,LF,N,US,39.0584,-84.3396,https://upload.wikimedia.org/wikipedia/en/a/a4/Flag_of_the_United_States.svg
163,allenfr01,1888,United States,Newbern,Frank,Allen,P,N,US,36.1009,-89.2514,https://upload.wikimedia.org/wikipedia/en/a/a4/Flag_of_the_United_States.svg
164,allenga01,1955,United States,Culver City,Gary,Allenson,C,N,US,33.9924,-118.3991,https://upload.wikimedia.org/wikipedia/en/a/a4/Flag_of_the_United_States.svg
165,allengr01,1993,United States,San Diego,Greg,Allen,LF,N,US,32.8312,-117.1226,https://upload.wikimedia.org/wikipedia/en/a/a4/Flag_of_the_United_States.svg
166,allenha01,1846,United States,Augusta,Ham,Allen,SS,N,US,35.2788,-91.3527,https://upload.wikimedia.org/wikipedia/en/a/a4/Flag_of_the_United_States.svg
169,allenho01,1899,United States,DeLand,Horace,Allen,LF,N,US,29.0266,-81.3349,https://upload.wikimedia.org/wikipedia/en/a/a4/Flag_of_the_United_States.svg
170,allenja01,1855,United States,Woodstock,Jack,Allen,3B,N,US,38.875,-78.516,https://upload.wikimedia.org/wikipedia/en/a/a4/Flag_of_the_United_States.svg
171,allenja02,1958,United States,Yakima,Jamie,Allen,3B,N,US,46.5445,-120.7444,https://upload.wikimedia.org/wikipedia/en/a/a4/Flag_of_the_United_States.svg
172,allenje01,1972,United States,Anderson,Jermaine,Allensworth,LF,N,US,36.6506,-94.4436,https://upload.wikimedia.org/wikipedia/en/a/a4/Flag_of_the_United_States.svg
173,allenjo01,1890,United States,Berkeley Springs,John,Allen,P,N,US,39.5526,-78.1877,https://upload.wikimedia.org/wikipedia/en/a/a4/Flag_of_the_United_States.svg
174,allenjo02,1904,United States,Lenoir,Johnny,Allen,P,N,US,35.9188,-81.5403,https://upload.wikimedia.org/wikipedia/en/a/a4/Flag_of_the_United_States.svg
175,allenki01,1953,United States,Fontana,Kim,Allen,2B,N,US,38.4102,-94.8718,https://upload.wikimedia.org/wikipedia/en/a/a4/Flag_of_the_United_States.svg
176,allenll01,1950,United States,Merced,Lloyd,Allen,P,N,US,37.2308,-120.5144,https://upload.wikimedia.org/wikipedia/en/a/a4/Flag_of_the_United_States.svg
177,allenlu01,1978,United States,Covington,Luke,Allen,RF,N,US,33.5146,-83.8626,https://upload.wikimedia.org/wikipedia/en/a/a4/Flag_of_the_United_States.svg
178,allenmy01,1854,United States,Kingston,Myron,Allen,LF,N,US,35.8717,-84.4954,https://upload.wikimedia.org/wikipedia/en/a/a4/Flag_of_the_United_States.svg
179,allenne01,1958,United States,Kansas City,Neil,Allen,P,N,US,38.9716,-94.6146,https://upload.wikimedia.org/wikipedia/en/a/a4/Flag_of_the_United_States.svg
180,allenni01,1888,United States,Norton,Nick,Allen,C,N,US,39.8407,-99.8878,https://upload.wikimedia.org/wikipedia/en/a/a4/Flag_of_the_United_States.svg
181,allenpe01,1868,United States,Columbiana,Pete,Allen,C,N,US,33.177,-86.6161,https://upload.wikimedia.org/wikipedia/en/a/a4/Flag_of_the_United_States.svg
183,allenro02,1959,United States,Los Angeles,Rod,Allen,DH,N,US,33.7866,-118.2987,https://upload.wikimedia.org/wikipedia/en/a/a4/Flag_of_the_United_States.svg
184,allensl01,1886,United States,West Plains,Sled,Allen,C,N,US,36.7284,-91.8717,https://upload.wikimedia.org/wikipedia/en/a/a4/Flag_of_the_United_States.svg
185,alleyge01,1940,United States,Richmond,Gene,Alley,SS,N,US,39.8335,-84.8983,https://upload.wikimedia.org/wikipedia/en/a/a4/Flag_of_the_United_States.svg
186,alliebo01,1952,United States,New Bedford,Bob,Allietta,C,N,US,41.6127,-70.9167,https://upload.wikimedia.org/wikipedia/en/a/a4/Flag_of_the_United_States.svg
187,alliega01,1931,United States,Statesville,Gair,Allie,SS,N,US,35.799,-80.89399999999999,https://upload.wikimedia.org/wikipedia/en/a/a4/Flag_of_the_United_States.svg
188,allisan01,1848,United States,New York,Andy,Allison,1B,N,US,40.6052,-74.1795,https://upload.wikimedia.org/wikipedia/en/a/a4/Flag_of_the_United_States.svg
189,allisar01,1849,United States,Philadelphia,Art,Allison,RF,N,US,40.0076,-75.134,https://upload.wikimedia.org/wikipedia/en/a/a4/Flag_of_the_United_States.svg
190,allisbi01,1850,United States,New York,Bill,Allison,1B,N,US,40.6052,-74.1795,https://upload.wikimedia.org/wikipedia/en/a/a4/Flag_of_the_United_States.svg
191,allisbo01,1934,United States,Raytown,Bob,Allison,RF,N,,38.9944,-94.4641,https://upload.wikimedia.org/wikipedia/en/a/a4/Flag_of_the_United_States.svg
192,allisda01,1966,United States,Front Royal,Dana,Allison,P,N,US,38.9268,-78.1796,https://upload.wikimedia.org/wikipedia/en/a/a4/Flag_of_the_United_States.svg
193,allisdo01,1846,United States,Philadelphia,Doug,Allison,C,N,US,40.0076,-75.134,https://upload.wikimedia.org/wikipedia/en/a/a4/Flag_of_the_United_States.svg
194,allisma01,1887,United States,Owensboro,Mack,Allison,P,N,US,37.751999999999995,-87.1514,https://upload.wikimedia.org/wikipedia/en/a/a4/Flag_of_the_United_States.svg
195,allismi01,1890,United States,Elk Rapids,Milo,Allison,RF,N,US,44.8955,-85.4082,https://upload.wikimedia.org/wikipedia/en/a/a4/Flag_of_the_United_States.svg
196,allrebe01,1965,United States,Mesa,Beau,Allred,RF,N,US,33.3429,-111.6347,https://upload.wikimedia.org/wikipedia/en/a/a4/Flag_of_the_United_States.svg
197,almanar01,1972,United States,El Paso,Armando,Almanza,P,N,US,40.7389,-89.012,https://upload.wikimedia.org/wikipedia/en/a/a4/Flag_of_the_United_States.svg
198,almonbi01,1952,United States,Providence,Bill,Almon,SS,N,US,37.405,-87.7505,https://upload.wikimedia.org/wikipedia/en/a/a4/Flag_of_the_United_States.svg
199,almonye01,1994,United States,Miami,Yency,Almonte,P,N,US,25.5584,-80.4582,https://upload.wikimedia.org/wikipedia/en/a/a4/Flag_of_the_United_States.svg
200,almoral01,1994,United States,Hialeah,Albert,Almora,LF,N,US,25.8275,-80.2724,https://upload.wikimedia.org/wikipedia/en/a/a4/Flag_of_the_United_States.svg
201,aloumo01,1966,United States,Atlanta,Moises,Alou,LF,N,US,33.6026,-84.4769,https://upload.wikimedia.org/wikipedia/en/a/a4/Flag_of_the_United_States.svg
202,alperwh01,1879,United States,Etna,Whitey,Alpermann,2B,N,US,44.7932,-69.1322,https://upload.wikimedia.org/wikipedia/en/a/a4/Flag_of_the_United_States.svg
203,alstode01,1952,United States,Valhalla,Dell,Alston,RF,N,US,41.0856,-73.7776,https://upload.wikimedia.org/wikipedia/en/a/a4/Flag_of_the_United_States.svg
204,alstoga01,1971,United States,Mount Vernon,Garvin,Alston,P,N,US,31.0974,-88.035,https://upload.wikimedia.org/wikipedia/en/a/a4/Flag_of_the_United_States.svg
205,alstoto01,1926,United States,Greensboro,Tom,Alston,1B,N,US,32.7167,-87.5905,https://upload.wikimedia.org/wikipedia/en/a/a4/Flag_of_the_United_States.svg
206,alstowa01,1911,United States,Venice,Walter,Alston,1B,Y,US,27.0602,-82.3533,https://upload.wikimedia.org/wikipedia/en/a/a4/Flag_of_the_United_States.svg
207,altavda01,1992,United States,McKeesport,Dan,Altavilla,P,N,US,40.3478,-79.8642,https://upload.wikimedia.org/wikipedia/en/a/a4/Flag_of_the_United_States.svg
208,altener01,1894,United States,Avon,Ernie,Alten,P,N,US,39.7668,-86.4013,https://upload.wikimedia.org/wikipedia/en/a/a4/Flag_of_the_United_States.svg
210,altizda01,1876,United States,Pearl,Dave,Altizer,SS,N,US,39.4441,-90.63799999999999,https://upload.wikimedia.org/wikipedia/en/a/a4/Flag_of_the_United_States.svg
211,altmage01,1933,United States,Goldsboro,George,Altman,RF,N,US,35.3664,-77.9221,https://upload.wikimedia.org/wikipedia/en/a/a4/Flag_of_the_United_States.svg
212,altobjo01,1932,United States,Detroit,Joe,Altobelli,1B,N,US,42.3834,-83.1024,https://upload.wikimedia.org/wikipedia/en/a/a4/Flag_of_the_United_States.svg
213,altroni01,1876,United States,Cincinnati,Nick,Altrock,P,N,US,39.0584,-84.3396,https://upload.wikimedia.org/wikipedia/en/a/a4/Flag_of_the_United_States.svg
215,alvarab01,1982,United States,Los Angeles,Abe,Alvarez,P,N,US,33.7866,-118.2987,https://upload.wikimedia.org/wikipedia/en/a/a4/Flag_of_the_United_States.svg
216,alvarjo01,1956,United States,Tampa,Jose,Alvarez,P,N,US,27.872,-82.4388,https://upload.wikimedia.org/wikipedia/en/a/a4/Flag_of_the_United_States.svg
217,alvarju01,1973,United States,Coral Gables,Juan,Alvarez,P,N,US,25.7641,-80.2702,https://upload.wikimedia.org/wikipedia/en/a/a4/Flag_of_the_United_States.svg
218,alvarrj01,1991,United States,West Palm Beach,R. J.,Alvarez,P,N,US,26.6396,-80.0827,https://upload.wikimedia.org/wikipedia/en/a/a4/Flag_of_the_United_States.svg
219,alvisma01,1938,United States,Jasper,Max,Alvis,3B,N,US,33.8312,-87.2775,https://upload.wikimedia.org/wikipedia/en/a/a4/Flag_of_the_United_States.svg
221,alyeabr01,1940,United States,Passaic,Brant,Alyea,LF,N,US,40.8565,-74.1231,https://upload.wikimedia.org/wikipedia/en/a/a4/Flag_of_the_United_States.svg
222,amalfjo01,1934,United States,San Pedro,Joey,Amalfitano,2B,N,US,33.7329,-118.2951,https://upload.wikimedia.org/wikipedia/en/a/a4/Flag_of_the_United_States.svg
223,amarari01,1962,United States,Visalia,Rich,Amaral,LF,N,US,36.317,-119.3087,https://upload.wikimedia.org/wikipedia/en/a/a4/Flag_of_the_United_States.svg
224,amaroru02,1965,United States,Philadelphia,Ruben,Amaro,RF,N,US,40.0076,-75.134,https://upload.wikimedia.org/wikipedia/en/a/a4/Flag_of_the_United_States.svg
225,amblewa01,1915,United States,Abington,Wayne,Ambler,SS,N,US,42.1167,-70.9543,https://upload.wikimedia.org/wikipedia/en/a/a4/Flag_of_the_United_States.svg
226,ambrech01,1979,United States,Beaumont,Chip,Ambres,LF,N,US,30.0849,-94.1451,https://upload.wikimedia.org/wikipedia/en/a/a4/Flag_of_the_United_States.svg
227,ambrihe01,1984,United States,Orange,Hector,Ambriz,P,N,US,30.0709,-93.8659,https://upload.wikimedia.org/wikipedia/en/a/a4/Flag_of_the_United_States.svg
228,amelued01,1959,United States,Fullerton,Ed,Amelung,RF,N,US,46.1951,-98.3882,https://upload.wikimedia.org/wikipedia/en/a/a4/Flag_of_the_United_States.svg
229,amesre01,1882,United States,Warren,Red,Ames,P,N,US,33.614000000000004,-92.0778,https://upload.wikimedia.org/wikipedia/en/a/a4/Flag_of_the_United_States.svg
230,amesst01,1988,United States,Vancouver,Steve,Ames,P,N,US,45.6025,-122.5125,https://upload.wikimedia.org/wikipedia/en/a/a4/Flag_of_the_United_States.svg
231,amoledo01,1874,United States,Coatesville,Doc,Amole,P,N,US,39.6878,-86.6703,https://upload.wikimedia.org/wikipedia/en/a/a4/Flag_of_the_United_States.svg
232,anckewa01,1893,United States,New York,Walter,Ancker,P,N,US,40.6052,-74.1795,https://upload.wikimedia.org/wikipedia/en/a/a4/Flag_of_the_United_States.svg
233,anderal01,1914,United States,Gainesville,Alf,Anderson,SS,N,US,29.5733,-82.3979,https://upload.wikimedia.org/wikipedia/en/a/a4/Flag_of_the_United_States.svg
234,anderal02,1964,United States,Lancaster,Allan,Anderson,P,N,US,32.5922,-96.7737,https://upload.wikimedia.org/wikipedia/en/a/a4/Flag_of_the_United_States.svg
235,anderan01,1922,United States,Bremerton,Andy,Anderson,SS,N,US,47.5686,-122.6373,https://upload.wikimedia.org/wikipedia/en/a/a4/Flag_of_the_United_States.svg
236,anderbi01,1895,United States,Boston,Bill,Anderson,P,N,US,37.7408,-85.5948,https://upload.wikimedia.org/wikipedia/en/a/a4/Flag_of_the_United_States.svg
237,anderbo01,1935,United States,East Chicago,Bob,Anderson,P,N,US,41.6349,-87.4627,https://upload.wikimedia.org/wikipedia/en/a/a4/Flag_of_the_United_States.svg
238,anderbr01,1964,United States,Silver Spring,Brady,Anderson,LF,N,US,38.9907,-77.0261,https://upload.wikimedia.org/wikipedia/en/a/a4/Flag_of_the_United_States.svg
239,anderbr02,1972,United States,Portsmouth,Brian,Anderson,P,N,US,38.7947,-82.9286,https://upload.wikimedia.org/wikipedia/en/a/a4/Flag_of_the_United_States.svg
240,anderbr03,1982,United States,Tucson,Brian,Anderson,LF,N,US,32.0839,-110.9004,https://upload.wikimedia.org/wikipedia/en/a/a4/Flag_of_the_United_States.svg
241,anderbr04,1988,United States,Midland,Brett,Anderson,P,N,US,32.5607,-84.8573,https://upload.wikimedia.org/wikipedia/en/a/a4/Flag_of_the_United_States.svg
242,anderbr05,1986,United States,Thousand Oaks,Bryan,Anderson,C,N,US,34.1706,-118.8376,https://upload.wikimedia.org/wikipedia/en/a/a4/Flag_of_the_United_States.svg
243,anderbr06,1993,United States,Edmond,Brian,Anderson,3B,N,US,35.6211,-97.4757,https://upload.wikimedia.org/wikipedia/en/a/a4/Flag_of_the_United_States.svg
244,anderbu01,1956,United States,Westbury,Bud,Anderson,P,N,US,40.7588,-73.5661,https://upload.wikimedia.org/wikipedia/en/a/a4/Flag_of_the_United_States.svg
245,anderch01,1987,United States,Wichita Falls,Chase,Anderson,P,N,US,33.8581,-98.5755,https://upload.wikimedia.org/wikipedia/en/a/a4/Flag_of_the_United_States.svg
246,anderco01,1990,United States,Quincy,Cody,Anderson,P,N,US,30.5497,-84.6069,https://upload.wikimedia.org/wikipedia/en/a/a4/Flag_of_the_United_States.svg
247,andercr01,1938,United States,Washington,Craig,Anderson,P,N,US,38.9047,-77.0163,https://upload.wikimedia.org/wikipedia/en/a/a4/Flag_of_the_United_States.svg
248,anderda01,1868,United States,Chester,Dave,Anderson,P,N,US,41.357,-74.2769,https://upload.wikimedia.org/wikipedia/en/a/a4/Flag_of_the_United_States.svg
249,anderda02,1960,United States,Louisville,Dave,Anderson,SS,N,US,31.7943,-85.5581,https://upload.wikimedia.org/wikipedia/en/a/a4/Flag_of_the_United_States.svg
250,anderdr01,1981,United States,Kearney,Drew,Anderson,LF,N,US,39.3652,-94.3621,https://upload.wikimedia.org/wikipedia/en/a/a4/Flag_of_the_United_States.svg
251,anderdr02,1994,United States,Reno,Drew,Anderson,P,N,US,39.3809,-119.6859,https://upload.wikimedia.org/wikipedia/en/a/a4/Flag_of_the_United_States.svg
252,anderdw01,1947,United States,Oakland,Dwain,Anderson,SS,N,US,28.5547,-81.6322,https://upload.wikimedia.org/wikipedia/en/a/a4/Flag_of_the_United_States.svg
253,anderfe01,1918,United States,Maple City,Ferrell,Anderson,C,N,US,44.858999999999995,-85.8814,https://upload.wikimedia.org/wikipedia/en/a/a4/Flag_of_the_United_States.svg
255,anderga01,1972,United States,Los Angeles,Garret,Anderson,LF,N,US,33.7866,-118.2987,https://upload.wikimedia.org/wikipedia/en/a/a4/Flag_of_the_United_States.svg
256,anderge01,1889,United States,Cleveland,George,Anderson,RF,N,US,33.9778,-86.5598,https://upload.wikimedia.org/wikipedia/en/a/a4/Flag_of_the_United_States.svg
257,andergo01,1880,United States,Cleveland,Goat,Anderson,RF,N,US,33.9778,-86.5598,https://upload.wikimedia.org/wikipedia/en/a/a4/Flag_of_the_United_States.svg
259,anderha02,1931,United States,North East,Harry,Anderson,LF,N,US,39.6045,-75.9538,https://upload.wikimedia.org/wikipedia/en/a/a4/Flag_of_the_United_States.svg
260,anderja01,1979,United States,Danville,Jason,Anderson,P,N,US,36.5831,-79.4088,https://upload.wikimedia.org/wikipedia/en/a/a4/Flag_of_the_United_States.svg
261,anderji01,1957,United States,Los Angeles,Jim,Anderson,SS,N,US,33.7866,-118.2987,https://upload.wikimedia.org/wikipedia/en/a/a4/Flag_of_the_United_States.svg
262,anderji02,1976,United States,Portsmouth,Jimmy,Anderson,P,N,US,38.7947,-82.9286,https://upload.wikimedia.org/wikipedia/en/a/a4/Flag_of_the_United_States.svg
264,anderjo03,1982,United States,Somerset,Josh,Anderson,LF,N,US,37.1029,-84.5443,https://upload.wikimedia.org/wikipedia/en/a/a4/Flag_of_the_United_States.svg
265,anderju01,1992,United States,Houston,Justin,Anderson,P,N,US,29.7868,-95.3905,https://upload.wikimedia.org/wikipedia/en/a/a4/Flag_of_the_United_States.svg
266,anderke01,1963,United States,Florence,Kent,Anderson,SS,N,US,34.8305,-87.656,https://upload.wikimedia.org/wikipedia/en/a/a4/Flag_of_the_United_States.svg
267,anderla01,1952,United States,Maywood,Larry,Anderson,P,N,US,39.9333,-91.6148,https://upload.wikimedia.org/wikipedia/en/a/a4/Flag_of_the_United_States.svg
268,anderla02,1953,United States,Portland,Larry,Andersen,P,N,US,27.8913,-97.328,https://upload.wikimedia.org/wikipedia/en/a/a4/Flag_of_the_United_States.svg
269,anderla03,1987,United States,Oakland,Lars,Anderson,1B,N,US,28.5547,-81.6322,https://upload.wikimedia.org/wikipedia/en/a/a4/Flag_of_the_United_States.svg
270,anderma01,1976,United States,Louisville,Matt,Anderson,P,N,US,31.7943,-85.5581,https://upload.wikimedia.org/wikipedia/en/a/a4/Flag_of_the_United_States.svg
271,anderma02,1974,United States,Montgomery,Marlon,Anderson,2B,N,US,32.2334,-86.2085,https://upload.wikimedia.org/wikipedia/en/a/a4/Flag_of_the_United_States.svg
272,andermi01,1951,United States,Florence,Mike,Anderson,RF,N,US,34.8305,-87.656,https://upload.wikimedia.org/wikipedia/en/a/a4/Flag_of_the_United_States.svg
273,andermi02,1966,United States,Austin,Mike,Anderson,P,N,US,34.9921,-91.9798,https://upload.wikimedia.org/wikipedia/en/a/a4/Flag_of_the_United_States.svg
274,anderre01,1912,United States,Lawton,Red,Anderson,P,N,US,34.5915,-98.3698,https://upload.wikimedia.org/wikipedia/en/a/a4/Flag_of_the_United_States.svg
275,anderri01,1953,United States,Inglewood,Rick,Anderson,P,N,US,33.9376,-118.3582,https://upload.wikimedia.org/wikipedia/en/a/a4/Flag_of_the_United_States.svg
276,anderri02,1956,United States,Everett,Rick,Anderson,P,N,US,42.4112,-71.0514,https://upload.wikimedia.org/wikipedia/en/a/a4/Flag_of_the_United_States.svg
277,andersc01,1962,United States,Corvallis,Scott,Anderson,P,N,US,44.5697,-123.278,https://upload.wikimedia.org/wikipedia/en/a/a4/Flag_of_the_United_States.svg
278,andersp01,1934,United States,Bridgewater,Sparky,Anderson,2B,Y,US,38.3859,-78.9937,https://upload.wikimedia.org/wikipedia/en/a/a4/Flag_of_the_United_States.svg
279,anderta01,1993,United States,Boynton Beach,Tanner,Anderson,P,N,US,26.5088,-80.1896,https://upload.wikimedia.org/wikipedia/en/a/a4/Flag_of_the_United_States.svg
280,anderti01,1993,United States,Tuscaloosa,Tim,Anderson,SS,N,US,33.1669,-87.5064,https://upload.wikimedia.org/wikipedia/en/a/a4/Flag_of_the_United_States.svg
281,anderty01,1989,United States,Las Vegas,Tyler,Anderson,P,N,US,35.5949,-105.2272,https://upload.wikimedia.org/wikipedia/en/a/a4/Flag_of_the_United_States.svg
282,anderva01,1866,United States,Geneva,Varney,Anderson,P,N,US,31.0414,-85.8847,https://upload.wikimedia.org/wikipedia/en/a/a4/Flag_of_the_United_States.svg
283,anderwa01,1897,United States,Grand Rapids,Walter,Anderson,P,N,US,42.8697,-85.6628,https://upload.wikimedia.org/wikipedia/en/a/a4/Flag_of_the_United_States.svg
284,anderwi01,1886,United States,Lillian,Wingo,Anderson,P,N,US,30.3972,-87.4745,https://upload.wikimedia.org/wikipedia/en/a/a4/Flag_of_the_United_States.svg
285,andinro01,1984,United States,Miami,Robert,Andino,2B,N,US,25.5584,-80.4582,https://upload.wikimedia.org/wikipedia/en/a/a4/Flag_of_the_United_States.svg
286,andrast01,1978,United States,Woodland,Steve,Andrade,P,N,US,45.9149,-122.7504,https://upload.wikimedia.org/wikipedia/en/a/a4/Flag_of_the_United_States.svg
287,andrecl01,1978,United States,Dunedin,Clayton,Andrews,P,N,US,28.0303,-82.7816,https://upload.wikimedia.org/wikipedia/en/a/a4/Flag_of_the_United_States.svg
288,andreed01,1859,United States,Painesville,Ed,Andrews,LF,N,US,41.7059,-81.1997,https://upload.wikimedia.org/wikipedia/en/a/a4/Flag_of_the_United_States.svg
289,andreel01,1901,United States,Greenwood,Elbert,Andrews,P,N,US,35.1955,-94.25299999999999,https://upload.wikimedia.org/wikipedia/en/a/a4/Flag_of_the_United_States.svg
290,andreer01,1918,United States,Jeffersonville,Ernie,Andres,3B,N,US,38.3078,-85.7359,https://upload.wikimedia.org/wikipedia/en/a/a4/Flag_of_the_United_States.svg
291,andrefr01,1952,United States,Lafayette,Fred,Andrews,2B,N,US,32.9252,-85.4426,https://upload.wikimedia.org/wikipedia/en/a/a4/Flag_of_the_United_States.svg
292,andrehu01,1922,United States,Burbank,Hub,Andrews,P,N,US,41.7402,-87.7723,https://upload.wikimedia.org/wikipedia/en/a/a4/Flag_of_the_United_States.svg
293,andreiv01,1907,United States,Dora,Ivy,Andrews,P,N,US,33.7357,-87.0546,https://upload.wikimedia.org/wikipedia/en/a/a4/Flag_of_the_United_States.svg
294,andreji01,1865,United States,Shelburne Falls,Jim,Andrews,RF,N,US,42.6022,-72.7391,https://upload.wikimedia.org/wikipedia/en/a/a4/Flag_of_the_United_States.svg
295,andrejo01,1923,United States,Brockton,John,Andre,P,N,US,42.0774,-71.0446,https://upload.wikimedia.org/wikipedia/en/a/a4/Flag_of_the_United_States.svg
296,andrejo02,1949,United States,Monterey Park,John,Andrews,P,N,US,34.048,-118.115,https://upload.wikimedia.org/wikipedia/en/a/a4/Flag_of_the_United_States.svg
297,andrejo03,1990,United States,Worcester,John,Andreoli,LF,N,US,42.2303,-71.7938,https://upload.wikimedia.org/wikipedia/en/a/a4/Flag_of_the_United_States.svg
298,andreki01,1953,United States,Glendale,Kim,Andrew,2B,N,US,43.1353,-87.9356,https://upload.wikimedia.org/wikipedia/en/a/a4/Flag_of_the_United_States.svg
299,andremi01,1943,United States,Los Angeles,Mike,Andrews,2B,N,US,33.7866,-118.2987,https://upload.wikimedia.org/wikipedia/en/a/a4/Flag_of_the_United_States.svg
300,andrena01,1913,United States,Pembroke,Nate,Andrews,P,N,US,32.1812,-81.6656,https://upload.wikimedia.org/wikipedia/en/a/a4/Flag_of_the_United_States.svg
301,andrero01,1952,United States,Santa Monica,Rob,Andrews,2B,N,US,34.0125,-118.4682,https://upload.wikimedia.org/wikipedia/en/a/a4/Flag_of_the_United_States.svg
302,andresh01,1971,United States,Dallas,Shane,Andrews,3B,N,US,33.8992,-84.8572,https://upload.wikimedia.org/wikipedia/en/a/a4/Flag_of_the_United_States.svg
303,andrest01,1917,United States,Lynn,Stan,Andrews,C,N,US,40.0519,-84.93,https://upload.wikimedia.org/wikipedia/en/a/a4/Flag_of_the_United_States.svg
304,andrewa01,1859,United States,Philadelphia,Wally,Andrews,1B,N,US,40.0076,-75.134,https://upload.wikimedia.org/wikipedia/en/a/a4/Flag_of_the_United_States.svg
305,andrima01,1989,United States,Redlands,Matt,Andriese,P,N,US,34.0393,-117.1725,https://upload.wikimedia.org/wikipedia/en/a/a4/Flag_of_the_United_States.svg
306,andrubi01,1907,United States,Beaumont,Bill,Andrus,3B,N,US,30.0849,-94.1451,https://upload.wikimedia.org/wikipedia/en/a/a4/Flag_of_the_United_States.svg
307,andrufr01,1850,United States,Washington,Fred,Andrus,RF,N,US,38.9047,-77.0163,https://upload.wikimedia.org/wikipedia/en/a/a4/Flag_of_the_United_States.svg
308,angelno01,1947,United States,San Francisco,Norm,Angelini,P,N,US,37.6811,-122.4806,https://upload.wikimedia.org/wikipedia/en/a/a4/Flag_of_the_United_States.svg
309,anglema01,1985,United States,Columbus,Matt,Angle,LF,N,US,43.3354,-89.03,https://upload.wikimedia.org/wikipedia/en/a/a4/Flag_of_the_United_States.svg
310,angleto01,1904,United States,Baltimore,Tom,Angley,C,N,US,39.2293,-76.6907,https://upload.wikimedia.org/wikipedia/en/a/a4/Flag_of_the_United_States.svg
311,ankenpa01,1912,United States,Houston,Pat,Ankenman,2B,N,US,29.7868,-95.3905,https://upload.wikimedia.org/wikipedia/en/a/a4/Flag_of_the_United_States.svg
312,ankieri01,1979,United States,Fort Pierce,Rick,Ankiel,LF,N,,27.4256,-80.3425,https://upload.wikimedia.org/wikipedia/en/a/a4/Flag_of_the_United_States.svg
313,annade01,1986,United States,Glenwood,Dean,Anna,SS,N,US,41.5412,-87.6119,https://upload.wikimedia.org/wikipedia/en/a/a4/Flag_of_the_United_States.svg
314,annisbi01,1857,United States,Stoneham,Bill,Annis,LF,N,US,42.4828,-71.0978,https://upload.wikimedia.org/wikipedia/en/a/a4/Flag_of_the_United_States.svg
315,ansonca01,1852,United States,Marshalltown,Cap,Anson,1B,N,US,42.0405,-92.9127,https://upload.wikimedia.org/wikipedia/en/a/a4/Flag_of_the_United_States.svg
316,anthoer01,1967,United States,San Diego,Eric,Anthony,RF,N,US,32.8312,-117.1226,https://upload.wikimedia.org/wikipedia/en/a/a4/Flag_of_the_United_States.svg
319,antonbi01,1927,United States,Brooklyn,Bill,Antonello,LF,N,US,39.2259,-76.6153,https://upload.wikimedia.org/wikipedia/en/a/a4/Flag_of_the_United_States.svg
320,antonjo01,1915,United States,Memphis,John,Antonelli,3B,N,US,38.4642,-85.7775,https://upload.wikimedia.org/wikipedia/en/a/a4/Flag_of_the_United_States.svg
321,antonjo02,1930,United States,Rochester,Johnny,Antonelli,P,N,US,39.7182,-89.5649,https://upload.wikimedia.org/wikipedia/en/a/a4/Flag_of_the_United_States.svg
322,antonma01,1985,United States,Peabody,Matt,Antonelli,2B,N,US,38.1737,-97.1184,https://upload.wikimedia.org/wikipedia/en/a/a4/Flag_of_the_United_States.svg
323,apodabo01,1950,United States,Los Angeles,Bob,Apodaca,P,N,US,33.7866,-118.2987,https://upload.wikimedia.org/wikipedia/en/a/a4/Flag_of_the_United_States.svg
324,appieke01,1967,United States,Lancaster,Kevin,Appier,P,N,US,32.5922,-96.7737,https://upload.wikimedia.org/wikipedia/en/a/a4/Flag_of_the_United_States.svg
325,appleed01,1892,United States,Arlington,Ed,Appleton,P,N,US,48.1697,-122.1446,https://upload.wikimedia.org/wikipedia/en/a/a4/Flag_of_the_United_States.svg
326,applefr01,1879,United States,Williamsport,Fred,Applegate,P,N,US,41.2398,-77.0371,https://upload.wikimedia.org/wikipedia/en/a/a4/Flag_of_the_United_States.svg
327,applepe01,1904,United States,Terryville,Pete,Appleton,P,N,US,41.6762,-73.0092,https://upload.wikimedia.org/wikipedia/en/a/a4/Flag_of_the_United_States.svg
328,applilu01,1907,United States,High Point,Luke,Appling,SS,N,US,35.9359,-79.9395,https://upload.wikimedia.org/wikipedia/en/a/a4/Flag_of_the_United_States.svg
330,archech01,1988,United States,Raleigh,Chris,Archer,P,N,US,37.8256,-88.5324,https://upload.wikimedia.org/wikipedia/en/a/a4/Flag_of_the_United_States.svg
331,archefr01,1910,United States,Johnson City,Fred,Archer,P,N,US,36.3125,-82.37700000000001,https://upload.wikimedia.org/wikipedia/en/a/a4/Flag_of_the_United_States.svg
332,archeji02,1932,United States,Max Meadows,Jim,Archer,P,N,US,36.9056,-80.9244,https://upload.wikimedia.org/wikipedia/en/a/a4/Flag_of_the_United_States.svg
333,archige01,1914,United States,Nashville,George,Archie,3B,N,US,33.9576,-93.8707,https://upload.wikimedia.org/wikipedia/en/a/a4/Flag_of_the_United_States.svg
334,ardelda01,1941,United States,Seattle,Dan,Ardell,1B,N,US,47.3957,-122.3036,https://upload.wikimedia.org/wikipedia/en/a/a4/Flag_of_the_United_States.svg
335,ardnejo01,1858,United States,Mount Vernon,Joe,Ardner,2B,N,US,31.0974,-88.035,https://upload.wikimedia.org/wikipedia/en/a/a4/Flag_of_the_United_States.svg
337,arellfr01,1882,United States,Santa Cruz,Frank,Arellanes,P,N,US,36.9689,-121.9903,https://upload.wikimedia.org/wikipedia/en/a/a4/Flag_of_the_United_States.svg
338,arenano01,1991,United States,Newport Beach,Nolan,Arenado,3B,N,US,33.6045,-117.9021,https://upload.wikimedia.org/wikipedia/en/a/a4/Flag_of_the_United_States.svg
339,arencjp01,1986,United States,Miami,J. P.,Arencibia,C,N,US,25.5584,-80.4582,https://upload.wikimedia.org/wikipedia/en/a/a4/Flag_of_the_United_States.svg
340,arftha01,1922,United States,Manchester,Hank,Arft,1B,N,US,32.8721,-84.6312,https://upload.wikimedia.org/wikipedia/en/a/a4/Flag_of_the_United_States.svg
341,ariasal01,1967,United States,New York,Alex,Arias,SS,N,US,40.6052,-74.1795,https://upload.wikimedia.org/wikipedia/en/a/a4/Flag_of_the_United_States.svg
342,ariasge01,1972,United States,Tucson,George,Arias,3B,N,US,32.0839,-110.9004,https://upload.wikimedia.org/wikipedia/en/a/a4/Flag_of_the_United_States.svg
343,arletbu01,1899,United States,Elmhurst,Buzz,Arlett,RF,N,US,41.8957,-87.9435,https://upload.wikimedia.org/wikipedia/en/a/a4/Flag_of_the_United_States.svg
344,arlicdo01,1943,United States,Wayne,Don,Arlich,P,N,US,34.9154,-97.329,https://upload.wikimedia.org/wikipedia/en/a/a4/Flag_of_the_United_States.svg
345,arlinst01,1945,United States,Seattle,Steve,Arlin,P,N,US,47.3957,-122.3036,https://upload.wikimedia.org/wikipedia/en/a/a4/Flag_of_the_United_States.svg
346,armbrch01,1880,United States,Cincinnati,Charlie,Armbruster,C,N,US,39.0584,-84.3396,https://upload.wikimedia.org/wikipedia/en/a/a4/Flag_of_the_United_States.svg
347,armbrha01,1882,United States,Liverpool,Harry,Armbruster,LF,N,US,29.2667,-95.2889,https://upload.wikimedia.org/wikipedia/en/a/a4/Flag_of_the_United_States.svg
349,armoubi99,1869,United States,Homestead,Bill,Armour,,N,US,25.2846,-80.6246,https://upload.wikimedia.org/wikipedia/en/a/a4/Flag_of_the_United_States.svg
350,armstbo01,1850,United States,Baltimore,Robert,Armstrong,LF,N,US,39.2293,-76.6907,https://upload.wikimedia.org/wikipedia/en/a/a4/Flag_of_the_United_States.svg
351,armstge01,1924,United States,Orange,George,Armstrong,C,N,US,30.0709,-93.8659,https://upload.wikimedia.org/wikipedia/en/a/a4/Flag_of_the_United_States.svg
353,armstja01,1965,United States,Englewood,Jack,Armstrong,P,N,US,26.92,-82.3048,https://upload.wikimedia.org/wikipedia/en/a/a4/Flag_of_the_United_States.svg
354,armstmi01,1954,United States,Glen Cove,Mike,Armstrong,P,N,US,40.8627,-73.6351,https://upload.wikimedia.org/wikipedia/en/a/a4/Flag_of_the_United_States.svg
355,armstsh01,1990,United States,New Bern,Shawn,Armstrong,P,N,US,35.0987,-77.1045,https://upload.wikimedia.org/wikipedia/en/a/a4/Flag_of_the_United_States.svg
356,arndtha01,1879,United States,South Bend,Harry,Arndt,2B,N,US,41.5968,-86.29299999999999,https://upload.wikimedia.org/wikipedia/en/a/a4/Flag_of_the_United_States.svg
357,arndtla01,1963,United States,Fremont,Larry,Arndt,1B,N,US,35.5553,-77.958,https://upload.wikimedia.org/wikipedia/en/a/a4/Flag_of_the_United_States.svg
358,arnolbi01,1851,United States,Middletown,Billy,Arnold,RF,N,US,39.4851,-75.6794,https://upload.wikimedia.org/wikipedia/en/a/a4/Flag_of_the_United_States.svg
359,arnolch01,1947,United States,Long Beach,Chris,Arnold,2B,N,US,30.3598,-89.1646,https://upload.wikimedia.org/wikipedia/en/a/a4/Flag_of_the_United_States.svg
360,arnolja01,1974,United States,Dearborn,Jamie,Arnold,P,N,US,42.3127,-83.2129,https://upload.wikimedia.org/wikipedia/en/a/a4/Flag_of_the_United_States.svg
361,arnolsc01,1962,United States,Lexington,Scott,Arnold,P,N,US,34.9559,-87.3935,https://upload.wikimedia.org/wikipedia/en/a/a4/Flag_of_the_United_States.svg
362,arnolto01,1959,United States,El Paso,Tony,Arnold,P,N,US,40.7389,-89.012,https://upload.wikimedia.org/wikipedia/en/a/a4/Flag_of_the_United_States.svg
363,arnovmo01,1910,United States,Superior,Morrie,Arnovich,LF,N,US,46.6941,-92.0823,https://upload.wikimedia.org/wikipedia/en/a/a4/Flag_of_the_United_States.svg
364,arnsbbr01,1963,United States,Seattle,Brad,Arnsberg,P,N,US,47.3957,-122.3036,https://upload.wikimedia.org/wikipedia/en/a/a4/Flag_of_the_United_States.svg
365,arntzor01,1909,United States,Beverly,Orie,Arntzen,P,N,US,38.9844,-97.9818,https://upload.wikimedia.org/wikipedia/en/a/a4/Flag_of_the_United_States.svg
366,arrieja01,1986,United States,Farmington,Jake,Arrieta,P,N,US,36.0436,-94.2539,https://upload.wikimedia.org/wikipedia/en/a/a4/Flag_of_the_United_States.svg
367,arrigge01,1941,United States,Chicago,Gerry,Arrigo,P,N,US,41.6642,-87.5612,https://upload.wikimedia.org/wikipedia/en/a/a4/Flag_of_the_United_States.svg
368,arroybr01,1977,United States,Key West,Bronson,Arroyo,P,N,US,24.5615,-81.7818,https://upload.wikimedia.org/wikipedia/en/a/a4/Flag_of_the_United_States.svg
369,arroych01,1995,United States,Tampa,Christian,Arroyo,3B,N,US,27.872,-82.4388,https://upload.wikimedia.org/wikipedia/en/a/a4/Flag_of_the_United_States.svg
370,arroyfe01,1952,United States,Sacramento,Fernando,Arroyo,P,N,US,37.4177,-87.2736,https://upload.wikimedia.org/wikipedia/en/a/a4/Flag_of_the_United_States.svg
371,arroyru01,1950,United States,New York,Rudy,Arroyo,P,N,US,40.6052,-74.1795,https://upload.wikimedia.org/wikipedia/en/a/a4/Flag_of_the_United_States.svg
372,arundha01,1855,United States,Philadelphia,Harry,Arundel,P,N,US,40.0076,-75.134,https://upload.wikimedia.org/wikipedia/en/a/a4/Flag_of_the_United_States.svg
373,arundtu01,1862,United States,Auburn,Tug,Arundel,C,N,US,34.0191,-83.8261,https://upload.wikimedia.org/wikipedia/en/a/a4/Flag_of_the_United_States.svg
374,asadora01,1962,United States,Fresno,Randy,Asadoor,3B,N,US,29.5293,-95.4626,https://upload.wikimedia.org/wikipedia/en/a/a4/Flag_of_the_United_States.svg
375,asbelji01,1914,United States,Dallas,Jim,Asbell,LF,N,US,33.8992,-84.8572,https://upload.wikimedia.org/wikipedia/en/a/a4/Flag_of_the_United_States.svg
376,asbjoca01,1909,United States,Concord,Casper,Asbjornson,C,N,US,33.0998,-84.447,https://upload.wikimedia.org/wikipedia/en/a/a4/Flag_of_the_United_States.svg
379,ashbyal01,1951,United States,Long Beach,Alan,Ashby,C,N,US,30.3598,-89.1646,https://upload.wikimedia.org/wikipedia/en/a/a4/Flag_of_the_United_States.svg
380,ashbyan01,1967,United States,Kansas City,Andy,Ashby,P,N,US,38.9716,-94.6146,https://upload.wikimedia.org/wikipedia/en/a/a4/Flag_of_the_United_States.svg
381,asheral01,1991,United States,Lakeland,Alec,Asher,P,N,US,27.9611,-81.9398,https://upload.wikimedia.org/wikipedia/en/a/a4/Flag_of_the_United_States.svg
382,ashfotu01,1954,United States,Memphis,Tucker,Ashford,3B,N,US,38.4642,-85.7775,https://upload.wikimedia.org/wikipedia/en/a/a4/Flag_of_the_United_States.svg
384,ashlebi01,1970,United States,Trenton,Billy,Ashley,LF,N,US,29.6133,-82.8176,https://upload.wikimedia.org/wikipedia/en/a/a4/Flag_of_the_United_States.svg
385,ashlene01,1984,United States,Vincennes,Nevin,Ashley,C,N,US,38.6734,-87.5098,https://upload.wikimedia.org/wikipedia/en/a/a4/Flag_of_the_United_States.svg
386,asmusto01,1878,United States,Chicago,Tom,Asmussen,C,N,US,41.6642,-87.5612,https://upload.wikimedia.org/wikipedia/en/a/a4/Flag_of_the_United_States.svg
387,asprobo01,1938,United States,Brooklyn,Bob,Aspromonte,3B,N,US,39.2259,-76.6153,https://upload.wikimedia.org/wikipedia/en/a/a4/Flag_of_the_United_States.svg
388,asproke01,1931,United States,Brooklyn,Ken,Aspromonte,2B,N,US,39.2259,-76.6153,https://upload.wikimedia.org/wikipedia/en/a/a4/Flag_of_the_United_States.svg
389,asselbr01,1953,United States,Santa Barbara,Brian,Asselstine,LF,N,US,34.4038,-119.7194,https://upload.wikimedia.org/wikipedia/en/a/a4/Flag_of_the_United_States.svg
390,assenpa01,1960,United States,Detroit,Paul,Assenmacher,P,N,US,42.3834,-83.1024,https://upload.wikimedia.org/wikipedia/en/a/a4/Flag_of_the_United_States.svg
391,astinba01,1991,United States,Forrest City,Barrett,Astin,P,N,US,35.0091,-90.7886,https://upload.wikimedia.org/wikipedia/en/a/a4/Flag_of_the_United_States.svg
392,astrojo01,1922,United States,East Alton,Joe,Astroth,C,N,US,38.8803,-90.083,https://upload.wikimedia.org/wikipedia/en/a/a4/Flag_of_the_United_States.svg
393,atchisc01,1976,United States,Denton,Scott,Atchison,P,N,US,33.2176,-97.1421,https://upload.wikimedia.org/wikipedia/en/a/a4/Flag_of_the_United_States.svg
394,atchlju01,1973,United States,Sedro-Woolley,Justin,Atchley,P,N,US,48.5274,-122.2329,https://upload.wikimedia.org/wikipedia/en/a/a4/Flag_of_the_United_States.svg
395,atherch01,1873,United States,New Brunswick,Charlie,Atherton,3B,N,US,40.488,-74.4544,https://upload.wikimedia.org/wikipedia/en/a/a4/Flag_of_the_United_States.svg
396,atherke01,1959,United States,Newport News,Keith,Atherton,P,N,US,36.9864,-76.4165,https://upload.wikimedia.org/wikipedia/en/a/a4/Flag_of_the_United_States.svg
397,atkinal01,1861,United States,Clinton,Al,Atkinson,P,N,US,35.6045,-92.4758,https://upload.wikimedia.org/wikipedia/en/a/a4/Flag_of_the_United_States.svg
398,atkined01,1851,United States,Baltimore,Ed,Atkinson,RF,N,US,39.2293,-76.6907,https://upload.wikimedia.org/wikipedia/en/a/a4/Flag_of_the_United_States.svg
399,atkinga01,1979,United States,Orange,Garrett,Atkins,3B,N,US,30.0709,-93.8659,https://upload.wikimedia.org/wikipedia/en/a/a4/Flag_of_the_United_States.svg
400,atkinja01,1921,United States,Birmingham,James,Atkins,P,N,US,33.3555,-86.8274,https://upload.wikimedia.org/wikipedia/en/a/a4/Flag_of_the_United_States.svg
401,atkinle01,1904,United States,Chicago,Lefty,Atkinson,P,N,US,41.6642,-87.5612,https://upload.wikimedia.org/wikipedia/en/a/a4/Flag_of_the_United_States.svg
402,atkinmi01,1985,United States,Browns Summit,Mitch,Atkins,P,N,US,36.2019,-79.7101,https://upload.wikimedia.org/wikipedia/en/a/a4/Flag_of_the_United_States.svg
403,atkinto01,1887,United States,Ponca,Tommy,Atkins,P,N,US,42.5693,-96.7128,https://upload.wikimedia.org/wikipedia/en/a/a4/Flag_of_the_United_States.svg
404,attredi01,1897,United States,Chicago,Dick,Attreau,1B,N,US,41.6642,-87.5612,https://upload.wikimedia.org/wikipedia/en/a/a4/Flag_of_the_United_States.svg
405,atwelto01,1924,United States,Leesburg,Toby,Atwell,C,N,US,34.1911,-85.7705,https://upload.wikimedia.org/wikipedia/en/a/a4/Flag_of_the_United_States.svg
406,atwoobi01,1911,United States,Rome,Bill,Atwood,C,N,US,34.2507,-85.1465,https://upload.wikimedia.org/wikipedia/en/a/a4/Flag_of_the_United_States.svg
407,atzja01,1879,United States,Washington,Jake,Atz,2B,N,US,38.9047,-77.0163,https://upload.wikimedia.org/wikipedia/en/a/a4/Flag_of_the_United_States.svg
409,aubremi01,1982,United States,Shreveport,Michael,Aubrey,1B,N,US,32.3401,-93.6092,https://upload.wikimedia.org/wikipedia/en/a/a4/Flag_of_the_United_States.svg
410,auderi01,1971,United States,Van Nuys,Rich,Aude,1B,N,US,34.1781,-118.4574,https://upload.wikimedia.org/wikipedia/en/a/a4/Flag_of_the_United_States.svg
411,auerbri01,1950,United States,Woodland Hills,Rick,Auerbach,SS,N,US,34.1554,-118.5957,https://upload.wikimedia.org/wikipedia/en/a/a4/Flag_of_the_United_States.svg
412,augenbr01,1986,United States,Sebastian,Bryan,Augenstein,P,N,US,27.791999999999998,-80.4807,https://upload.wikimedia.org/wikipedia/en/a/a4/Flag_of_the_United_States.svg
413,augusda01,1949,United States,Follansbee,Dave,Augustine,LF,N,US,40.3296,-80.585,https://upload.wikimedia.org/wikipedia/en/a/a4/Flag_of_the_United_States.svg
414,augusdo01,1963,United States,Inglewood,Don,August,P,N,US,33.9376,-118.3582,https://upload.wikimedia.org/wikipedia/en/a/a4/Flag_of_the_United_States.svg
415,augusje01,1952,United States,Kewaunee,Jerry,Augustine,P,N,US,44.4401,-87.5594,https://upload.wikimedia.org/wikipedia/en/a/a4/Flag_of_the_United_States.svg
416,aukerel01,1910,United States,Norcatur,Elden,Auker,P,N,US,39.8447,-100.2007,https://upload.wikimedia.org/wikipedia/en/a/a4/Flag_of_the_United_States.svg
417,auldsle01,1920,United States,Farmerville,Tex,Aulds,C,N,US,32.7534,-92.318,https://upload.wikimedia.org/wikipedia/en/a/a4/Flag_of_the_United_States.svg
418,aultdo01,1950,United States,Beaumont,Doug,Ault,1B,N,US,30.0849,-94.1451,https://upload.wikimedia.org/wikipedia/en/a/a4/Flag_of_the_United_States.svg
419,aurilri01,1971,United States,Brooklyn,Rich,Aurilia,SS,N,US,39.2259,-76.6153,https://upload.wikimedia.org/wikipedia/en/a/a4/Flag_of_the_United_States.svg
420,ausanjo01,1965,United States,Kingston,Joe,Ausanio,P,N,US,35.8717,-84.4954,https://upload.wikimedia.org/wikipedia/en/a/a4/Flag_of_the_United_States.svg
421,ausmubr01,1969,United States,New Haven,Brad,Ausmus,C,N,US,37.6438,-85.54700000000001,https://upload.wikimedia.org/wikipedia/en/a/a4/Flag_of_the_United_States.svg
422,austde01,1940,United States,Tecumseh,Dennis,Aust,P,N,US,39.0217,-95.5379,https://upload.wikimedia.org/wikipedia/en/a/a4/Flag_of_the_United_States.svg
423,austije01,1976,United States,San Bernardino,Jeff,Austin,P,N,US,34.0831,-117.2711,https://upload.wikimedia.org/wikipedia/en/a/a4/Flag_of_the_United_States.svg
424,austiji02,1963,United States,Farmville,Jim,Austin,P,N,US,35.5806,-77.5793,https://upload.wikimedia.org/wikipedia/en/a/a4/Flag_of_the_United_States.svg
425,austiri01,1946,United States,Seattle,Rick,Austin,P,N,US,47.3957,-122.3036,https://upload.wikimedia.org/wikipedia/en/a/a4/Flag_of_the_United_States.svg
426,austity01,1991,United States,Conyers,Tyler,Austin,1B,N,US,33.6111,-84.0683,https://upload.wikimedia.org/wikipedia/en/a/a4/Flag_of_the_United_States.svg
427,autryal01,1952,United States,Modesto,Al,Autry,P,N,US,37.6374,-121.0028,https://upload.wikimedia.org/wikipedia/en/a/a4/Flag_of_the_United_States.svg
428,autrych01,1885,United States,Humboldt,Chick,Autry,1B,N,US,35.8254,-88.9045,https://upload.wikimedia.org/wikipedia/en/a/a4/Flag_of_the_United_States.svg
429,autrych02,1903,United States,Martindale,Chick,Autry,C,N,US,29.8394,-97.8508,https://upload.wikimedia.org/wikipedia/en/a/a4/Flag_of_the_United_States.svg
430,avenbr01,1972,United States,Orange,Bruce,Aven,LF,N,US,30.0709,-93.8659,https://upload.wikimedia.org/wikipedia/en/a/a4/Flag_of_the_United_States.svg
431,averiea01,1902,United States,Snohomish,Earl,Averill,LF,N,US,47.8579,-122.09200000000001,https://upload.wikimedia.org/wikipedia/en/a/a4/Flag_of_the_United_States.svg
432,averiea02,1931,United States,Cleveland,Earl,Averill,C,N,US,33.9778,-86.5598,https://upload.wikimedia.org/wikipedia/en/a/a4/Flag_of_the_United_States.svg
433,averyst01,1970,United States,Trenton,Steve,Avery,P,N,US,29.6133,-82.8176,https://upload.wikimedia.org/wikipedia/en/a/a4/Flag_of_the_United_States.svg
434,averyxa01,1990,United States,Atlanta,Xavier,Avery,LF,N,US,33.6026,-84.4769,https://upload.wikimedia.org/wikipedia/en/a/a4/Flag_of_the_United_States.svg
435,avilaal01,1987,United States,Hialeah,Alex,Avila,C,N,US,25.8275,-80.2724,https://upload.wikimedia.org/wikipedia/en/a/a4/Flag_of_the_United_States.svg
436,avilemi01,1981,United States,New York,Mike,Aviles,SS,N,US,40.6052,-74.1795,https://upload.wikimedia.org/wikipedia/en/a/a4/Flag_of_the_United_States.svg
437,avreaja01,1920,United States,Cleburne,Jay,Avrea,P,N,US,32.3485,-97.3311,https://upload.wikimedia.org/wikipedia/en/a/a4/Flag_of_the_United_States.svg
438,axelrdy01,1985,United States,Santa Barbara,Dylan,Axelrod,P,N,US,34.4038,-119.7194,https://upload.wikimedia.org/wikipedia/en/a/a4/Flag_of_the_United_States.svg
439,ayalabo01,1969,United States,Ventura,Bobby,Ayala,P,N,US,34.2788,-119.1651,https://upload.wikimedia.org/wikipedia/en/a/a4/Flag_of_the_United_States.svg
440,aydelja01,1861,United States,Marion,Jake,Aydelott,P,N,US,38.0266,-75.7579,https://upload.wikimedia.org/wikipedia/en/a/a4/Flag_of_the_United_States.svg
441,ayersbi01,1919,United States,Newnan,Bill,Ayers,P,N,US,33.361,-84.8142,https://upload.wikimedia.org/wikipedia/en/a/a4/Flag_of_the_United_States.svg
443,aylwadi01,1925,United States,Baltimore,Dick,Aylward,C,N,US,39.2293,-76.6907,https://upload.wikimedia.org/wikipedia/en/a/a4/Flag_of_the_United_States.svg
444,ayraubo01,1966,United States,South Lake Tahoe,Bob,Ayrault,P,N,US,38.8981,-119.9984,https://upload.wikimedia.org/wikipedia/en/a/a4/Flag_of_the_United_States.svg
445,ayraujo01,1971,United States,Rochester,Joe,Ayrault,C,N,US,39.7182,-89.5649,https://upload.wikimedia.org/wikipedia/en/a/a4/Flag_of_the_United_States.svg
446,babbch01,1873,United States,Milwaukie,Charlie,Babb,SS,N,,45.4445,-122.6219,https://upload.wikimedia.org/wikipedia/en/a/a4/Flag_of_the_United_States.svg
447,babcobo01,1949,United States,New Castle,Bob,Babcock,P,N,US,39.5929,-75.6515,https://upload.wikimedia.org/wikipedia/en/a/a4/Flag_of_the_United_States.svg
448,babelo01,1928,United States,Pisgah,Loren,Babe,3B,N,US,34.6809,-85.8478,https://upload.wikimedia.org/wikipedia/en/a/a4/Flag_of_the_United_States.svg
449,babicjo01,1913,United States,Albion,Johnny,Babich,P,N,US,38.374,-88.0636,https://upload.wikimedia.org/wikipedia/en/a/a4/Flag_of_the_United_States.svg
450,babinch01,1895,United States,Cranston,Charlie,Babington,LF,N,US,41.7614,-71.5061,https://upload.wikimedia.org/wikipedia/en/a/a4/Flag_of_the_United_States.svg
451,babitsh01,1959,United States,Oakland,Shooty,Babitt,2B,N,US,28.5547,-81.6322,https://upload.wikimedia.org/wikipedia/en/a/a4/Flag_of_the_United_States.svg
452,backebr01,1978,United States,Galveston,Brandon,Backe,P,N,US,29.2243,-94.9637,https://upload.wikimedia.org/wikipedia/en/a/a4/Flag_of_the_United_States.svg
453,backmle01,1888,United States,Cleves,Les,Backman,P,N,US,39.1937,-84.734,https://upload.wikimedia.org/wikipedia/en/a/a4/Flag_of_the_United_States.svg
454,backmwa01,1959,United States,Hillsboro,Wally,Backman,2B,N,US,32.0091,-97.1151,https://upload.wikimedia.org/wikipedia/en/a/a4/Flag_of_the_United_States.svg
455,baconed01,1895,United States,Frankfort,Eddie,Bacon,P,N,US,39.7333,-96.5223,https://upload.wikimedia.org/wikipedia/en/a/a4/Flag_of_the_United_States.svg
456,bacsimi01,1952,United States,Dallas,Mike,Bacsik,P,N,US,33.8992,-84.8572,https://upload.wikimedia.org/wikipedia/en/a/a4/Flag_of_the_United_States.svg
457,bacsimi02,1977,United States,Dallas,Mike,Bacsik,P,N,US,33.8992,-84.8572,https://upload.wikimedia.org/wikipedia/en/a/a4/Flag_of_the_United_States.svg
459,badenbu01,1983,United States,Atlanta,Burke,Badenhop,P,N,US,33.6026,-84.4769,https://upload.wikimedia.org/wikipedia/en/a/a4/Flag_of_the_United_States.svg
461,baderha01,1994,United States,Bronxville,Harrison,Bader,LF,N,US,40.9391,-73.8353,https://upload.wikimedia.org/wikipedia/en/a/a4/Flag_of_the_United_States.svg
465,baezke01,1967,United States,Brooklyn,Kevin,Baez,SS,N,US,39.2259,-76.6153,https://upload.wikimedia.org/wikipedia/en/a/a4/Flag_of_the_United_States.svg
466,bagbyji01,1889,United States,Barnett,Jim,Bagby,P,N,US,38.3967,-92.6686,https://upload.wikimedia.org/wikipedia/en/a/a4/Flag_of_the_United_States.svg
467,bagbyji02,1916,United States,Cleveland,Jim,Bagby,P,N,US,33.9778,-86.5598,https://upload.wikimedia.org/wikipedia/en/a/a4/Flag_of_the_United_States.svg
468,bagwebi01,1895,United States,Choudrant,Bill,Bagwell,LF,N,US,32.5556,-92.5224,https://upload.wikimedia.org/wikipedia/en/a/a4/Flag_of_the_United_States.svg
469,bagweje01,1968,United States,Boston,Jeff,Bagwell,1B,N,US,37.7408,-85.5948,https://upload.wikimedia.org/wikipedia/en/a/a4/Flag_of_the_United_States.svg
470,bahnsst01,1944,United States,Council Bluffs,Stan,Bahnsen,P,N,US,41.2324,-95.8751,https://upload.wikimedia.org/wikipedia/en/a/a4/Flag_of_the_United_States.svg
471,bahrefr01,1858,United States,Poughkeepsie,Frank,Bahret,LF,N,US,41.6949,-73.921,https://upload.wikimedia.org/wikipedia/en/a/a4/Flag_of_the_United_States.svg
472,baichgr01,1889,United States,Toledo,Grover,Baichley,P,N,US,39.2772,-88.2468,https://upload.wikimedia.org/wikipedia/en/a/a4/Flag_of_the_United_States.svg
474,bailebi01,1888,United States,Fort Smith,Bill,Bailey,P,N,US,35.2502,-94.3703,https://upload.wikimedia.org/wikipedia/en/a/a4/Flag_of_the_United_States.svg
475,bailebi02,1881,United States,Shawnee,Bill,Bailey,3B,N,US,39.0452,-94.7189,https://upload.wikimedia.org/wikipedia/en/a/a4/Flag_of_the_United_States.svg
476,bailebo01,1942,United States,Long Beach,Bob,Bailey,3B,N,US,30.3598,-89.1646,https://upload.wikimedia.org/wikipedia/en/a/a4/Flag_of_the_United_States.svg
477,baileco01,1971,United States,Herrin,Cory,Bailey,P,N,US,37.8019,-89.0232,https://upload.wikimedia.org/wikipedia/en/a/a4/Flag_of_the_United_States.svg
478,baileed01,1931,United States,Strawberry Plains,Ed,Bailey,C,N,US,36.0687,-83.6568,https://upload.wikimedia.org/wikipedia/en/a/a4/Flag_of_the_United_States.svg
479,bailefr01,1895,United States,Mount Hope,Fred,Bailey,LF,N,US,37.8684,-97.6591,https://upload.wikimedia.org/wikipedia/en/a/a4/Flag_of_the_United_States.svg
480,bailege01,1893,United States,Pearsall,Gene,Bailey,LF,N,US,28.8923,-99.0944,https://upload.wikimedia.org/wikipedia/en/a/a4/Flag_of_the_United_States.svg
481,baileha01,1876,United States,Palmyra,Harvey,Bailey,P,N,US,40.0025,-75.036,https://upload.wikimedia.org/wikipedia/en/a/a4/Flag_of_the_United_States.svg
482,baileho01,1957,United States,Grand Haven,Howard,Bailey,P,N,US,43.0301,-86.1865,https://upload.wikimedia.org/wikipedia/en/a/a4/Flag_of_the_United_States.svg
483,baileho02,1986,United States,La Grange,Homer,Bailey,P,N,US,33.0243,-85.0739,https://upload.wikimedia.org/wikipedia/en/a/a4/Flag_of_the_United_States.svg
484,baileje01,1978,United States,Longview,Jeff,Bailey,1B,N,US,32.4264,-94.7117,https://upload.wikimedia.org/wikipedia/en/a/a4/Flag_of_the_United_States.svg
485,baileji01,1934,United States,Strawberry Plains,Jim,Bailey,P,N,US,36.0687,-83.6568,https://upload.wikimedia.org/wikipedia/en/a/a4/Flag_of_the_United_States.svg
487,bailema01,1961,United States,Springfield,Mark,Bailey,C,N,US,32.3697,-81.3618,https://upload.wikimedia.org/wikipedia/en/a/a4/Flag_of_the_United_States.svg
489,bailesc01,1961,United States,Chillicothe,Scott,Bailes,P,N,US,39.7966,-93.5509,https://upload.wikimedia.org/wikipedia/en/a/a4/Flag_of_the_United_States.svg
490,bailest01,1942,United States,Bronx,Steve,Bailey,P,N,,40.8501,-73.8662,https://upload.wikimedia.org/wikipedia/en/a/a4/Flag_of_the_United_States.svg
491,bailesw01,1895,United States,Joliet,Sweetbread,Bailey,P,N,US,41.4712,-87.9391,https://upload.wikimedia.org/wikipedia/en/a/a4/Flag_of_the_United_States.svg
492,bailobo01,1951,United States,Connellsville,Bob,Bailor,RF,N,US,40.0265,-79.5566,https://upload.wikimedia.org/wikipedia/en/a/a4/Flag_of_the_United_States.svg
493,baineha01,1959,United States,Easton,Harold,Baines,DH,N,US,39.3391,-95.0999,https://upload.wikimedia.org/wikipedia/en/a/a4/Flag_of_the_United_States.svg
494,bainlo01,1922,United States,Staples,Loren,Bain,P,N,US,46.3536,-94.7633,https://upload.wikimedia.org/wikipedia/en/a/a4/Flag_of_the_United_States.svg
495,bairdal01,1895,United States,Cleburne,Al,Baird,2B,N,US,32.3485,-97.3311,https://upload.wikimedia.org/wikipedia/en/a/a4/Flag_of_the_United_States.svg
496,bairdbo01,1940,United States,Knoxville,Bob,Baird,P,N,US,35.9692,-83.9495,https://upload.wikimedia.org/wikipedia/en/a/a4/Flag_of_the_United_States.svg
498,bairdo01,1949,United States,Defiance,Doug,Bair,P,N,US,38.6616,-90.8302,https://upload.wikimedia.org/wikipedia/en/a/a4/Flag_of_the_United_States.svg
499,baislje01,1982,United States,Tampa,Jeff,Baisley,3B,N,US,27.872,-82.4388,https://upload.wikimedia.org/wikipedia/en/a/a4/Flag_of_the_United_States.svg
500,bajenje01,1978,United States,Pomona,Jeff,Bajenaru,P,N,US,34.0585,-117.7625,https://upload.wikimedia.org/wikipedia/en/a/a4/Flag_of_the_United_States.svg
501,bakelje01,1864,United States,Blackwood,Jersey,Bakley,P,N,US,39.7897,-75.0355,https://upload.wikimedia.org/wikipedia/en/a/a4/Flag_of_the_United_States.svg
502,bakenda01,1945,United States,Columbus,Dave,Bakenhaster,P,N,US,43.3354,-89.03,https://upload.wikimedia.org/wikipedia/en/a/a4/Flag_of_the_United_States.svg
503,bakeral01,1906,United States,Batesville,Al,Baker,P,N,US,35.7826,-91.6352,https://upload.wikimedia.org/wikipedia/en/a/a4/Flag_of_the_United_States.svg
505,bakerbo01,1878,United States,Troy,Bock,Baker,P,N,US,31.7595,-86.0107,https://upload.wikimedia.org/wikipedia/en/a/a4/Flag_of_the_United_States.svg
506,bakerch01,1856,United States,West Boylston,Charlie,Baker,RF,N,US,42.3584,-71.7838,https://upload.wikimedia.org/wikipedia/en/a/a4/Flag_of_the_United_States.svg
507,bakerch02,1952,United States,Seattle,Chuck,Baker,SS,N,US,47.3957,-122.3036,https://upload.wikimedia.org/wikipedia/en/a/a4/Flag_of_the_United_States.svg
509,bakerde01,1892,United States,Sherwood,Del,Baker,C,N,US,34.8807,-92.2303,https://upload.wikimedia.org/wikipedia/en/a/a4/Flag_of_the_United_States.svg
510,bakerdo01,1961,United States,Fullerton,Doug,Baker,SS,N,US,46.1951,-98.3882,https://upload.wikimedia.org/wikipedia/en/a/a4/Flag_of_the_United_States.svg
511,bakerdu01,1949,United States,Riverside,Dusty,Baker,LF,N,US,33.6166,-86.1996,https://upload.wikimedia.org/wikipedia/en/a/a4/Flag_of_the_United_States.svg
512,bakerer01,1875,United States,Concord,Ernie,Baker,P,N,US,33.0998,-84.447,https://upload.wikimedia.org/wikipedia/en/a/a4/Flag_of_the_United_States.svg
513,bakerfl01,1916,United States,Luray,Floyd,Baker,3B,N,US,39.1039,-98.6851,https://upload.wikimedia.org/wikipedia/en/a/a4/Flag_of_the_United_States.svg
514,bakerfr01,1886,United States,Trappe,Home Run,Baker,3B,N,US,38.6647,-76.0507,https://upload.wikimedia.org/wikipedia/en/a/a4/Flag_of_the_United_States.svg
515,bakerfr02,1944,United States,Bartow,Frank,Baker,LF,N,US,27.8957,-81.8127,https://upload.wikimedia.org/wikipedia/en/a/a4/Flag_of_the_United_States.svg
516,bakerfr03,1946,United States,Meridian,Frank,Baker,SS,N,US,32.3574,-88.656,https://upload.wikimedia.org/wikipedia/en/a/a4/Flag_of_the_United_States.svg
518,bakerge02,1925,United States,Davenport,Gene,Baker,2B,N,US,28.1951,-81.6062,https://upload.wikimedia.org/wikipedia/en/a/a4/Flag_of_the_United_States.svg
519,bakerho01,1888,United States,Bridgeport,Howard,Baker,3B,N,US,39.3037,-80.2476,https://upload.wikimedia.org/wikipedia/en/a/a4/Flag_of_the_United_States.svg
520,bakerja01,1950,United States,Birmingham,Jack,Baker,1B,N,US,33.3555,-86.8274,https://upload.wikimedia.org/wikipedia/en/a/a4/Flag_of_the_United_States.svg
522,bakerje02,1895,United States,Cleveland,Jesse,Baker,SS,N,US,33.9778,-86.5598,https://upload.wikimedia.org/wikipedia/en/a/a4/Flag_of_the_United_States.svg
523,bakerjo01,1981,United States,Alameda,John,Baker,C,N,US,37.7351,-122.2431,https://upload.wikimedia.org/wikipedia/en/a/a4/Flag_of_the_United_States.svg
524,bakerki01,1869,United States,Aurora,Kirtley,Baker,P,N,US,39.0719,-84.9452,https://upload.wikimedia.org/wikipedia/en/a/a4/Flag_of_the_United_States.svg
525,bakerne01,1904,United States,La Porte,Neal,Baker,P,N,US,29.6658,-95.0194,https://upload.wikimedia.org/wikipedia/en/a/a4/Flag_of_the_United_States.svg
526,bakerno01,1862,United States,Philadelphia,Norm,Baker,P,N,US,40.0076,-75.134,https://upload.wikimedia.org/wikipedia/en/a/a4/Flag_of_the_United_States.svg
527,bakerph01,1856,United States,Philadelphia,Phil,Baker,1B,N,US,40.0076,-75.134,https://upload.wikimedia.org/wikipedia/en/a/a4/Flag_of_the_United_States.svg
528,bakersc01,1970,United States,San Jose,Scott,Baker,P,N,US,40.3011,-89.6872,https://upload.wikimedia.org/wikipedia/en/a/a4/Flag_of_the_United_States.svg
529,bakersc02,1981,United States,Shreveport,Scott,Baker,P,N,US,32.3401,-93.6092,https://upload.wikimedia.org/wikipedia/en/a/a4/Flag_of_the_United_States.svg
530,bakerst01,1956,United States,Eugene,Steve,Baker,P,N,US,44.0563,-123.1173,https://upload.wikimedia.org/wikipedia/en/a/a4/Flag_of_the_United_States.svg
532,bakerto02,1934,United States,Port Townsend,Tom,Baker,P,N,US,48.104,-122.7945,https://upload.wikimedia.org/wikipedia/en/a/a4/Flag_of_the_United_States.svg
533,bakertr01,1891,United States,Pendleton,Tracy,Baker,1B,N,US,39.9975,-85.7466,https://upload.wikimedia.org/wikipedia/en/a/a4/Flag_of_the_United_States.svg
534,bakopa01,1972,United States,Lafayette,Paul,Bako,C,N,US,32.9252,-85.4426,https://upload.wikimedia.org/wikipedia/en/a/a4/Flag_of_the_United_States.svg
535,balasmi01,1910,United States,Lowell,Mike,Balas,P,N,US,36.2554,-94.1308,https://upload.wikimedia.org/wikipedia/en/a/a4/Flag_of_the_United_States.svg
536,balbost01,1957,United States,Brockton,Steve,Balboni,1B,N,US,42.0774,-71.0446,https://upload.wikimedia.org/wikipedia/en/a/a4/Flag_of_the_United_States.svg
537,balcebo01,1925,United States,San Pedro,Bobby,Balcena,LF,N,US,33.7329,-118.2951,https://upload.wikimedia.org/wikipedia/en/a/a4/Flag_of_the_United_States.svg
538,baldero01,1981,United States,Woonsocket,Rocco,Baldelli,LF,N,US,41.9853,-71.5184,https://upload.wikimedia.org/wikipedia/en/a/a4/Flag_of_the_United_States.svg
539,baldsja01,1936,United States,Greenville,Jack,Baldschun,P,N,US,31.81,-86.6229,https://upload.wikimedia.org/wikipedia/en/a/a4/Flag_of_the_United_States.svg
540,baldwbi01,1948,United States,Tazewell,Billy,Baldwin,RF,N,US,36.471,-83.5552,https://upload.wikimedia.org/wikipedia/en/a/a4/Flag_of_the_United_States.svg
541,baldwda01,1938,United States,Tucson,Dave,Baldwin,P,N,US,32.0839,-110.9004,https://upload.wikimedia.org/wikipedia/en/a/a4/Flag_of_the_United_States.svg
542,baldwfr01,1928,United States,High Bridge,Frank,Baldwin,C,N,US,40.6684,-74.8937,https://upload.wikimedia.org/wikipedia/en/a/a4/Flag_of_the_United_States.svg
543,baldwha01,1900,United States,Baltimore,Harry,Baldwin,P,N,US,39.2293,-76.6907,https://upload.wikimedia.org/wikipedia/en/a/a4/Flag_of_the_United_States.svg
544,baldwhe01,1894,United States,Chadds Ford,Henry,Baldwin,SS,N,US,39.8648,-75.5885,https://upload.wikimedia.org/wikipedia/en/a/a4/Flag_of_the_United_States.svg
545,baldwja01,1971,United States,Pinehurst,James,Baldwin,P,N,US,35.1884,-79.4732,https://upload.wikimedia.org/wikipedia/en/a/a4/Flag_of_the_United_States.svg
546,baldwje01,1965,United States,Milford,Jeff,Baldwin,LF,N,US,38.9187,-75.4291,https://upload.wikimedia.org/wikipedia/en/a/a4/Flag_of_the_United_States.svg
547,baldwki01,1864,United States,Newport,Kid,Baldwin,C,N,US,35.5988,-91.2571,https://upload.wikimedia.org/wikipedia/en/a/a4/Flag_of_the_United_States.svg
549,baldwma01,1863,United States,Pittsburgh,Mark,Baldwin,P,N,US,40.3323,-80.081,https://upload.wikimedia.org/wikipedia/en/a/a4/Flag_of_the_United_States.svg
550,baldwof01,1881,United States,Carson City,Orson,Baldwin,P,N,US,43.1695,-84.8653,https://upload.wikimedia.org/wikipedia/en/a/a4/Flag_of_the_United_States.svg
551,baldwre01,1954,United States,River Rouge,Reggie,Baldwin,C,N,US,42.2692,-83.1364,https://upload.wikimedia.org/wikipedia/en/a/a4/Flag_of_the_United_States.svg
552,baldwri01,1953,United States,Fresno,Rick,Baldwin,P,N,US,29.5293,-95.4626,https://upload.wikimedia.org/wikipedia/en/a/a4/Flag_of_the_United_States.svg
553,balejo01,1974,United States,Cheverly,John,Bale,P,N,,38.9253,-76.9141,https://upload.wikimedia.org/wikipedia/en/a/a4/Flag_of_the_United_States.svg
554,balenmi01,1886,United States,Calumet,Mike,Balenti,SS,N,US,35.5476,-98.1512,https://upload.wikimedia.org/wikipedia/en/a/a4/Flag_of_the_United_States.svg
555,balesco01,1986,United States,Huntington Beach,Collin,Balester,P,N,US,33.6647,-117.9663,https://upload.wikimedia.org/wikipedia/en/a/a4/Flag_of_the_United_States.svg
556,balesle01,1944,United States,Los Angeles,Lee,Bales,2B,N,US,33.7866,-118.2987,https://upload.wikimedia.org/wikipedia/en/a/a4/Flag_of_the_United_States.svg
557,ballaje01,1963,United States,Billings,Jeff,Ballard,P,N,US,45.7889,-108.5503,https://upload.wikimedia.org/wikipedia/en/a/a4/Flag_of_the_United_States.svg
558,ballar01,1872,United States,Madison,Art,Ball,3B,N,US,34.643,-86.8168,https://upload.wikimedia.org/wikipedia/en/a/a4/Flag_of_the_United_States.svg
559,balleja01,1960,United States,Stayton,Jay,Baller,P,N,US,44.8021,-122.7624,https://upload.wikimedia.org/wikipedia/en/a/a4/Flag_of_the_United_States.svg
561,ballima01,1949,United States,Glendale,Mark,Ballinger,P,N,US,43.1353,-87.9356,https://upload.wikimedia.org/wikipedia/en/a/a4/Flag_of_the_United_States.svg
562,ballje01,1969,United States,Merced,Jeff,Ball,1B,N,US,37.2308,-120.5144,https://upload.wikimedia.org/wikipedia/en/a/a4/Flag_of_the_United_States.svg
564,ballne01,1881,United States,Grand Haven,Neal,Ball,SS,N,US,43.0301,-86.1865,https://upload.wikimedia.org/wikipedia/en/a/a4/Flag_of_the_United_States.svg
566,balsato01,1937,United States,Brooklyn,Tony,Balsamo,P,N,US,39.2259,-76.6153,https://upload.wikimedia.org/wikipedia/en/a/a4/Flag_of_the_United_States.svg
567,bambege01,1923,United States,Staten Island,George,Bamberger,P,N,US,40.5085,-74.2445,https://upload.wikimedia.org/wikipedia/en/a/a4/Flag_of_the_United_States.svg
568,bambeha01,1924,United States,Lebanon,Hal,Bamberger,RF,N,US,38.6053,-89.7992,https://upload.wikimedia.org/wikipedia/en/a/a4/Flag_of_the_United_States.svg
569,banckst01,1853,United States,Philadelphia,Studs,Bancker,C,N,US,40.0076,-75.134,https://upload.wikimedia.org/wikipedia/en/a/a4/Flag_of_the_United_States.svg
570,bancrda01,1891,United States,Sioux City,Dave,Bancroft,SS,N,US,42.3684,-96.318,https://upload.wikimedia.org/wikipedia/en/a/a4/Flag_of_the_United_States.svg
571,bancrfr99,1846,United States,Lancaster,Frank,Bancroft,,N,US,32.5922,-96.7737,https://upload.wikimedia.org/wikipedia/en/a/a4/Flag_of_the_United_States.svg
572,bandaan01,1993,United States,Corpus Christi,Anthony,Banda,P,N,US,27.6349,-97.3103,https://upload.wikimedia.org/wikipedia/en/a/a4/Flag_of_the_United_States.svg
573,bandoch01,1956,United States,Cleveland,Chris,Bando,C,N,US,33.9778,-86.5598,https://upload.wikimedia.org/wikipedia/en/a/a4/Flag_of_the_United_States.svg
574,bandosa01,1944,United States,Cleveland,Sal,Bando,3B,N,US,33.9778,-86.5598,https://upload.wikimedia.org/wikipedia/en/a/a4/Flag_of_the_United_States.svg
575,bandyje01,1990,United States,West Hills,Jett,Bandy,C,N,US,34.1957,-118.6466,https://upload.wikimedia.org/wikipedia/en/a/a4/Flag_of_the_United_States.svg
576,baneed01,1952,United States,Chicago,Eddie,Bane,P,N,US,41.6642,-87.5612,https://upload.wikimedia.org/wikipedia/en/a/a4/Flag_of_the_United_States.svg
577,baneydi01,1946,United States,Fullerton,Dick,Baney,P,N,US,46.1951,-98.3882,https://upload.wikimedia.org/wikipedia/en/a/a4/Flag_of_the_United_States.svg
578,banisje01,1964,United States,Weatherford,Jeff,Banister,P,N,US,35.535,-98.6996,https://upload.wikimedia.org/wikipedia/en/a/a4/Flag_of_the_United_States.svg
580,bankhsc01,1963,United States,Raleigh,Scott,Bankhead,P,N,US,37.8256,-88.5324,https://upload.wikimedia.org/wikipedia/en/a/a4/Flag_of_the_United_States.svg
581,banksbi01,1874,United States,Danville,Bill,Yerrick,P,N,US,36.5831,-79.4088,https://upload.wikimedia.org/wikipedia/en/a/a4/Flag_of_the_United_States.svg
582,banksbr01,1970,United States,Mesa,Brian,Banks,1B,N,US,33.3429,-111.6347,https://upload.wikimedia.org/wikipedia/en/a/a4/Flag_of_the_United_States.svg
583,bankser01,1931,United States,Dallas,Ernie,Banks,1B,Y,US,33.8992,-84.8572,https://upload.wikimedia.org/wikipedia/en/a/a4/Flag_of_the_United_States.svg
584,banksev01,1893,United States,Barnesville,Bill,Bankston,LF,N,US,33.0457,-84.1515,https://upload.wikimedia.org/wikipedia/en/a/a4/Flag_of_the_United_States.svg
586,banksjo01,1982,United States,Baltimore,Josh,Banks,P,N,US,39.2293,-76.6907,https://upload.wikimedia.org/wikipedia/en/a/a4/Flag_of_the_United_States.svg
587,bankswe01,1983,United States,Dallas,Wes,Bankston,1B,N,US,33.8992,-84.8572,https://upload.wikimedia.org/wikipedia/en/a/a4/Flag_of_the_United_States.svg
588,bankswi01,1969,United States,Jersey City,Willie,Banks,P,N,US,40.7053,-74.0866,https://upload.wikimedia.org/wikipedia/en/a/a4/Flag_of_the_United_States.svg
589,bannial01,1951,United States,Montebello,Alan,Bannister,2B,N,US,34.010999999999996,-118.1145,https://upload.wikimedia.org/wikipedia/en/a/a4/Flag_of_the_United_States.svg
590,bannibr01,1981,United States,Scottsdale,Brian,Bannister,P,N,US,33.4669,-111.9151,https://upload.wikimedia.org/wikipedia/en/a/a4/Flag_of_the_United_States.svg
591,bannifl01,1955,United States,Pierre,Floyd,Bannister,P,N,US,44.3695,-100.3211,https://upload.wikimedia.org/wikipedia/en/a/a4/Flag_of_the_United_States.svg
592,banniji01,1865,United States,New York,Jim,Banning,C,N,US,40.6052,-74.1795,https://upload.wikimedia.org/wikipedia/en/a/a4/Flag_of_the_United_States.svg
593,bannoji01,1871,United States,Amesbury,Jimmy,Bannon,RF,N,US,42.8559,-70.9367,https://upload.wikimedia.org/wikipedia/en/a/a4/Flag_of_the_United_States.svg
594,bannoto01,1869,United States,Amesbury,Tom,Bannon,1B,N,US,42.8559,-70.9367,https://upload.wikimedia.org/wikipedia/en/a/a4/Flag_of_the_United_States.svg
595,bantaja01,1925,United States,Hutchinson,Jack,Banta,P,N,US,38.055,-97.9311,https://upload.wikimedia.org/wikipedia/en/a/a4/Flag_of_the_United_States.svg
596,bantzbr01,1987,United States,Arlington,Brandon,Bantz,C,N,US,48.1697,-122.1446,https://upload.wikimedia.org/wikipedia/en/a/a4/Flag_of_the_United_States.svg
597,baptitr01,1971,United States,Forest Grove,Travis,Baptist,P,N,US,45.5981,-123.1818,https://upload.wikimedia.org/wikipedia/en/a/a4/Flag_of_the_United_States.svg
598,barajro01,1975,United States,Ontario,Rod,Barajas,C,N,US,43.2291,-77.3088,https://upload.wikimedia.org/wikipedia/en/a/a4/Flag_of_the_United_States.svg
599,barbajo01,1992,United States,Miami,Johnny,Barbato,P,N,US,25.5584,-80.4582,https://upload.wikimedia.org/wikipedia/en/a/a4/Flag_of_the_United_States.svg
600,barbare01,1920,United States,Simpsonville,Red,Barbary,P,N,US,38.2312,-85.3548,https://upload.wikimedia.org/wikipedia/en/a/a4/Flag_of_the_United_States.svg
601,barbawa01,1891,United States,Greenville,Walter,Barbare,3B,N,US,31.81,-86.6229,https://upload.wikimedia.org/wikipedia/en/a/a4/Flag_of_the_United_States.svg
602,barbebr01,1967,United States,Long Beach,Bret,Barberie,2B,N,US,30.3598,-89.1646,https://upload.wikimedia.org/wikipedia/en/a/a4/Flag_of_the_United_States.svg
603,barbebr02,1973,United States,Hamilton,Brian,Barber,P,N,US,34.1534,-88.0085,https://upload.wikimedia.org/wikipedia/en/a/a4/Flag_of_the_United_States.svg
604,barbech01,1854,United States,Philadelphia,Charlie,Barber,3B,N,US,40.0076,-75.134,https://upload.wikimedia.org/wikipedia/en/a/a4/Flag_of_the_United_States.svg
605,barbeda01,1905,United States,Greensboro,Dave,Barbee,LF,N,US,32.7167,-87.5905,https://upload.wikimedia.org/wikipedia/en/a/a4/Flag_of_the_United_States.svg
606,barbefr01,1882,United States,New Town,Frank,Barberich,P,N,US,47.9718,-102.4716,https://upload.wikimedia.org/wikipedia/en/a/a4/Flag_of_the_United_States.svg
607,barbeja01,1882,United States,New York,Jap,Barbeau,3B,N,US,40.6052,-74.1795,https://upload.wikimedia.org/wikipedia/en/a/a4/Flag_of_the_United_States.svg
608,barbest01,1938,United States,Takoma Park,Steve,Barber,P,N,US,38.9816,-77.0044,https://upload.wikimedia.org/wikipedia/en/a/a4/Flag_of_the_United_States.svg
609,barbest02,1948,United States,Grand Rapids,Steve,Barber,P,N,US,42.8697,-85.6628,https://upload.wikimedia.org/wikipedia/en/a/a4/Flag_of_the_United_States.svg
611,barbiji01,1941,United States,Schenectady,Jim,Barbieri,RF,N,US,42.7823,-73.9448,https://upload.wikimedia.org/wikipedia/en/a/a4/Flag_of_the_United_States.svg
612,barclcu01,1931,United States,Chicago,Curt,Barclay,P,N,US,41.6642,-87.5612,https://upload.wikimedia.org/wikipedia/en/a/a4/Flag_of_the_United_States.svg
613,barclge01,1876,United States,Millville,George,Barclay,LF,N,US,39.3903,-75.0561,https://upload.wikimedia.org/wikipedia/en/a/a4/Flag_of_the_United_States.svg
614,bardda01,1985,United States,Houston,Daniel,Bard,P,N,US,29.7868,-95.3905,https://upload.wikimedia.org/wikipedia/en/a/a4/Flag_of_the_United_States.svg
616,bardjo01,1978,United States,Ithaca,Josh,Bard,C,N,US,43.2828,-84.6088,https://upload.wikimedia.org/wikipedia/en/a/a4/Flag_of_the_United_States.svg
617,bardlu01,1990,United States,Charlotte,Luke,Bard,P,N,US,35.0562,-80.8194,https://upload.wikimedia.org/wikipedia/en/a/a4/Flag_of_the_United_States.svg
618,barera01,1949,United States,Miami,Ray,Bare,P,N,US,25.5584,-80.4582,https://upload.wikimedia.org/wikipedia/en/a/a4/Flag_of_the_United_States.svg
619,barfije01,1959,United States,Joliet,Jesse,Barfield,RF,N,US,41.4712,-87.9391,https://upload.wikimedia.org/wikipedia/en/a/a4/Flag_of_the_United_States.svg
620,barfijo01,1964,United States,Pine Bluff,John,Barfield,P,N,US,34.1897,-92.0448,https://upload.wikimedia.org/wikipedia/en/a/a4/Flag_of_the_United_States.svg
621,barfocl01,1891,United States,Richmond,Clyde,Barfoot,P,N,US,39.8335,-84.8983,https://upload.wikimedia.org/wikipedia/en/a/a4/Flag_of_the_United_States.svg
622,bargagr01,1959,United States,Inglewood,Greg,Bargar,P,N,US,33.9376,-118.3582,https://upload.wikimedia.org/wikipedia/en/a/a4/Flag_of_the_United_States.svg
623,bargecy01,1885,United States,Jamestown,Cy,Barger,P,N,US,39.9579,-86.6236,https://upload.wikimedia.org/wikipedia/en/a/a4/Flag_of_the_United_States.svg
624,barkbr01,1968,United States,Baltimore,Brian,Bark,P,N,US,39.2293,-76.6907,https://upload.wikimedia.org/wikipedia/en/a/a4/Flag_of_the_United_States.svg
625,barkeal01,1839,United States,Lost Creek,Al,Barker,LF,N,US,39.1725,-80.3777,https://upload.wikimedia.org/wikipedia/en/a/a4/Flag_of_the_United_States.svg
626,barkean01,1974,United States,Miami,Andy,Barkett,LF,N,US,25.5584,-80.4582,https://upload.wikimedia.org/wikipedia/en/a/a4/Flag_of_the_United_States.svg
627,barkegl01,1971,United States,Albany,Glen,Barker,LF,N,US,31.5105,-84.3087,https://upload.wikimedia.org/wikipedia/en/a/a4/Flag_of_the_United_States.svg
628,barkeke01,1975,United States,Bristol,Kevin,Barker,1B,N,US,30.4223,-84.9466,https://upload.wikimedia.org/wikipedia/en/a/a4/Flag_of_the_United_States.svg
629,barkele01,1955,United States,Fort Knox,Len,Barker,P,N,US,37.8928,-85.9489,https://upload.wikimedia.org/wikipedia/en/a/a4/Flag_of_the_United_States.svg
630,barkera01,1936,United States,Martinsburg,Ray,Barker,1B,N,US,39.0968,-91.6646,https://upload.wikimedia.org/wikipedia/en/a/a4/Flag_of_the_United_States.svg
631,barkeri01,1972,United States,Revere,Richie,Barker,P,N,US,42.4125,-71.0034,https://upload.wikimedia.org/wikipedia/en/a/a4/Flag_of_the_United_States.svg
632,barkese01,1980,United States,Bakersfield,Sean,Barker,LF,N,US,35.2944,-118.9052,https://upload.wikimedia.org/wikipedia/en/a/a4/Flag_of_the_United_States.svg
633,barklbr01,1975,United States,Conroe,Brian,Barkley,P,N,US,30.1877,-95.4288,https://upload.wikimedia.org/wikipedia/en/a/a4/Flag_of_the_United_States.svg
634,barklje01,1959,United States,Hickory,Jeff,Barkley,P,N,US,35.7427,-81.3233,https://upload.wikimedia.org/wikipedia/en/a/a4/Flag_of_the_United_States.svg
635,barklre01,1912,United States,Childress,Red,Barkley,2B,N,US,34.4104,-100.2364,https://upload.wikimedia.org/wikipedia/en/a/a4/Flag_of_the_United_States.svg
636,barklsa01,1858,United States,Wheeling,Sam,Barkley,2B,N,US,40.0755,-80.6951,https://upload.wikimedia.org/wikipedia/en/a/a4/Flag_of_the_United_States.svg
637,barlial99,1915,United States,Springfield,Al,Barlick,,Y,US,32.3697,-81.3618,https://upload.wikimedia.org/wikipedia/en/a/a4/Flag_of_the_United_States.svg
638,barlomi01,1948,United States,Stamford,Mike,Barlow,P,N,US,32.9453,-99.7859,https://upload.wikimedia.org/wikipedia/en/a/a4/Flag_of_the_United_States.svg
639,barlosc01,1992,United States,New London,Scott,Barlow,P,N,US,39.5917,-91.396,https://upload.wikimedia.org/wikipedia/en/a/a4/Flag_of_the_United_States.svg
640,barmebr01,1929,United States,Vincennes,Bruce,Barmes,RF,N,US,38.6734,-87.5098,https://upload.wikimedia.org/wikipedia/en/a/a4/Flag_of_the_United_States.svg
641,barmecl01,1979,United States,Vincennes,Clint,Barmes,SS,N,US,38.6734,-87.5098,https://upload.wikimedia.org/wikipedia/en/a/a4/Flag_of_the_United_States.svg
642,barnaba01,1915,United States,Clarksburg,Babe,Barna,LF,N,US,39.2368,-77.2775,https://upload.wikimedia.org/wikipedia/en/a/a4/Flag_of_the_United_States.svg
644,barneau01,1989,United States,Fullerton,Austin,Barnes,C,N,US,46.1951,-98.3882,https://upload.wikimedia.org/wikipedia/en/a/a4/Flag_of_the_United_States.svg
645,barnebi01,1858,United States,Shakopee,Bill,Barnes,LF,N,US,44.7818,-93.5165,https://upload.wikimedia.org/wikipedia/en/a/a4/Flag_of_the_United_States.svg
646,barnebo01,1902,United States,Washburn,Bob,Barnes,P,N,US,36.5807,-93.992,https://upload.wikimedia.org/wikipedia/en/a/a4/Flag_of_the_United_States.svg
647,barnebr01,1967,United States,Roanoke Rapids,Brian,Barnes,P,N,US,36.4461,-77.6731,https://upload.wikimedia.org/wikipedia/en/a/a4/Flag_of_the_United_States.svg
648,barnebr02,1986,United States,Orange,Brandon,Barnes,LF,N,US,30.0709,-93.8659,https://upload.wikimedia.org/wikipedia/en/a/a4/Flag_of_the_United_States.svg
649,barneda01,1985,United States,Portland,Darwin,Barney,2B,N,US,27.8913,-97.328,https://upload.wikimedia.org/wikipedia/en/a/a4/Flag_of_the_United_States.svg
650,barneda02,1989,United States,Manhasset,Danny,Barnes,P,N,US,40.7915,-73.6924,https://upload.wikimedia.org/wikipedia/en/a/a4/Flag_of_the_United_States.svg
651,barneed01,1890,United States,Amery,Ed,Barney,LF,N,US,45.3486,-92.4014,https://upload.wikimedia.org/wikipedia/en/a/a4/Flag_of_the_United_States.svg
652,barneep01,1900,United States,Ossining,Eppie,Barnes,1B,N,US,41.1684,-73.8498,https://upload.wikimedia.org/wikipedia/en/a/a4/Flag_of_the_United_States.svg
653,barnefr01,1900,United States,Dallas,Frank,Barnes,P,N,US,33.8992,-84.8572,https://upload.wikimedia.org/wikipedia/en/a/a4/Flag_of_the_United_States.svg
654,barnefr02,1926,United States,Longwood,Frank,Barnes,P,N,US,28.712,-81.3552,https://upload.wikimedia.org/wikipedia/en/a/a4/Flag_of_the_United_States.svg
655,barneho01,1900,United States,Fulton,Honey,Barnes,C,N,US,43.3171,-76.4162,https://upload.wikimedia.org/wikipedia/en/a/a4/Flag_of_the_United_States.svg
656,barneja01,1990,United States,St. Petersburg,Jacob,Barnes,P,N,US,27.6705,-82.7119,https://upload.wikimedia.org/wikipedia/en/a/a4/Flag_of_the_United_States.svg
657,barneje01,1892,United States,Perkins,Jesse,Barnes,P,N,US,35.9768,-97.0441,https://upload.wikimedia.org/wikipedia/en/a/a4/Flag_of_the_United_States.svg
658,barnejo01,1976,United States,San Diego,John,Barnes,RF,N,US,32.8312,-117.1226,https://upload.wikimedia.org/wikipedia/en/a/a4/Flag_of_the_United_States.svg
659,barneju01,1911,United States,Linwood,Junie,Barnes,P,N,US,39.0014,-95.0391,https://upload.wikimedia.org/wikipedia/en/a/a4/Flag_of_the_United_States.svg
660,barnela01,1974,United States,Bakersfield,Larry,Barnes,1B,N,US,35.2944,-118.9052,https://upload.wikimedia.org/wikipedia/en/a/a4/Flag_of_the_United_States.svg
661,barnelu01,1947,United States,Forest City,Lute,Barnes,2B,N,US,35.3339,-81.8702,https://upload.wikimedia.org/wikipedia/en/a/a4/Flag_of_the_United_States.svg
662,barnema01,1990,United States,Danbury,Matt,Barnes,P,N,US,36.4559,-80.2194,https://upload.wikimedia.org/wikipedia/en/a/a4/Flag_of_the_United_States.svg
664,barnere02,1924,United States,Omaha,Rex,Barney,P,N,US,36.4612,-93.1888,https://upload.wikimedia.org/wikipedia/en/a/a4/Flag_of_the_United_States.svg
665,barneri01,1959,United States,Palm Beach,Rich,Barnes,P,N,US,26.7206,-80.0388,https://upload.wikimedia.org/wikipedia/en/a/a4/Flag_of_the_United_States.svg
668,barnesc01,1987,United States,Springfield,Scott,Barnes,P,N,US,32.3697,-81.3618,https://upload.wikimedia.org/wikipedia/en/a/a4/Flag_of_the_United_States.svg
669,barnesk01,1957,United States,Cincinnati,Skeeter,Barnes,3B,N,US,39.0584,-84.3396,https://upload.wikimedia.org/wikipedia/en/a/a4/Flag_of_the_United_States.svg
670,barneto01,1983,United States,Anchorage,Tony,Barnette,P,N,US,61.0683,-149.8005,https://upload.wikimedia.org/wikipedia/en/a/a4/Flag_of_the_United_States.svg
671,barnevi01,1897,United States,Ontario,Virgil,Barnes,P,N,US,43.2291,-77.3088,https://upload.wikimedia.org/wikipedia/en/a/a4/Flag_of_the_United_States.svg
673,barnhed01,1904,United States,Providence,Edgar,Barnhart,P,N,US,37.405,-87.7505,https://upload.wikimedia.org/wikipedia/en/a/a4/Flag_of_the_United_States.svg
674,barnhle01,1905,United States,Hoxie,Les,Barnhart,P,N,US,36.0326,-90.9715,https://upload.wikimedia.org/wikipedia/en/a/a4/Flag_of_the_United_States.svg
675,barnhtu01,1991,United States,Indianapolis,Tucker,Barnhart,C,N,US,39.667,-85.9981,https://upload.wikimedia.org/wikipedia/en/a/a4/Flag_of_the_United_States.svg
676,barnhvi01,1922,United States,Hagerstown,Vic,Barnhart,SS,N,US,39.9228,-85.1601,https://upload.wikimedia.org/wikipedia/en/a/a4/Flag_of_the_United_States.svg
677,barnibi01,1853,United States,New York,Billy,Barnie,C,N,US,40.6052,-74.1795,https://upload.wikimedia.org/wikipedia/en/a/a4/Flag_of_the_United_States.svg
678,barnige01,1917,United States,Fitchburg,George,Barnicle,P,N,US,42.5781,-71.805,https://upload.wikimedia.org/wikipedia/en/a/a4/Flag_of_the_United_States.svg
679,barnoed01,1943,United States,Scranton,Ed,Barnowski,P,N,US,38.788000000000004,-95.74799999999999,https://upload.wikimedia.org/wikipedia/en/a/a4/Flag_of_the_United_States.svg
680,barnwch01,1979,United States,Jacksonville,Chris,Barnwell,SS,N,US,33.830999999999996,-85.7752,https://upload.wikimedia.org/wikipedia/en/a/a4/Flag_of_the_United_States.svg
681,baronda01,1983,United States,San Jose,Daniel,Barone,P,N,US,40.3011,-89.6872,https://upload.wikimedia.org/wikipedia/en/a/a4/Flag_of_the_United_States.svg
682,barondi01,1932,United States,San Jose,Dick,Barone,SS,N,US,40.3011,-89.6872,https://upload.wikimedia.org/wikipedia/en/a/a4/Flag_of_the_United_States.svg
683,baronst01,1990,United States,Miami,Steven,Baron,C,N,US,25.5584,-80.4582,https://upload.wikimedia.org/wikipedia/en/a/a4/Flag_of_the_United_States.svg
684,barracu01,1932,United States,Sacramento,Cuno,Barragan,C,N,US,37.4177,-87.2736,https://upload.wikimedia.org/wikipedia/en/a/a4/Flag_of_the_United_States.svg
685,barraky01,1990,United States,Santa Clara,Kyle,Barraclough,P,N,US,37.3417,-121.9753,https://upload.wikimedia.org/wikipedia/en/a/a4/Flag_of_the_United_States.svg
686,barrbo01,1856,United States,Washington,Bob,Barr,P,N,US,38.9047,-77.0163,https://upload.wikimedia.org/wikipedia/en/a/a4/Flag_of_the_United_States.svg
687,barrbo02,1908,United States,Newton,Bob,Barr,P,N,US,31.3311,-85.5992,https://upload.wikimedia.org/wikipedia/en/a/a4/Flag_of_the_United_States.svg
689,barreaa01,1988,United States,Evansville,Aaron,Barrett,P,N,US,35.7823,-94.4638,https://upload.wikimedia.org/wikipedia/en/a/a4/Flag_of_the_United_States.svg
691,barrebi02,1900,United States,Cambridge,Bill,Barrett,RF,N,US,38.5643,-76.0874,https://upload.wikimedia.org/wikipedia/en/a/a4/Flag_of_the_United_States.svg
692,barrebo01,1899,United States,Atlanta,Bob,Barrett,3B,N,US,33.6026,-84.4769,https://upload.wikimedia.org/wikipedia/en/a/a4/Flag_of_the_United_States.svg
693,barredi01,1906,United States,Montoursville,Dick,Barrett,P,N,US,41.2663,-76.903,https://upload.wikimedia.org/wikipedia/en/a/a4/Flag_of_the_United_States.svg
694,barrefr01,1913,United States,Fort Lauderdale,Frank,Barrett,P,N,US,26.048000000000002,-80.3749,https://upload.wikimedia.org/wikipedia/en/a/a4/Flag_of_the_United_States.svg
695,barreja01,1991,United States,Upland,Jake,Barrett,P,N,US,40.4548,-85.499,https://upload.wikimedia.org/wikipedia/en/a/a4/Flag_of_the_United_States.svg
696,barreji01,1875,United States,Athol,Jimmy,Barrett,LF,N,US,39.7719,-98.9077,https://upload.wikimedia.org/wikipedia/en/a/a4/Flag_of_the_United_States.svg
