,playerID,birthYear,deathYear,deathCountry,deathCity,nameFirst,nameLast,Position,HoF,country_iso_code,latitude,longitude,flags
0,aaronto01,1939,1984,United States,Atlanta,Tommie,Aaron,1B,N,US,33.6026,-84.4769,https://upload.wikimedia.org/wikipedia/en/a/a4/Flag_of_the_United_States.svg
1,abadijo01,1850,1905,United States,Pemberton,John,Abadie,1B,N,US,39.9712,-74.6676,https://upload.wikimedia.org/wikipedia/en/a/a4/Flag_of_the_United_States.svg
2,abbated01,1877,1957,United States,Fort Lauderdale,Ed,Abbaticchio,2B,N,US,26.048,-80.3749,https://upload.wikimedia.org/wikipedia/en/a/a4/Flag_of_the_United_States.svg
3,abbeybe01,1869,1962,United States,Colchester,Bert,Abbey,P,N,US,40.4156,-90.7846,https://upload.wikimedia.org/wikipedia/en/a/a4/Flag_of_the_United_States.svg
4,abbeych01,1866,1926,United States,San Francisco,Charlie,Abbey,LF,N,US,37.6811,-122.4806,https://upload.wikimedia.org/wikipedia/en/a/a4/Flag_of_the_United_States.svg
6,abbotfr01,1874,1935,United States,Los Angeles,Fred,Abbott,C,N,US,33.7866,-118.2987,https://upload.wikimedia.org/wikipedia/en/a/a4/Flag_of_the_United_States.svg
7,abbotod01,1886,1933,United States,Washington,Ody,Abbott,LF,N,US,38.9047,-77.0163,https://upload.wikimedia.org/wikipedia/en/a/a4/Flag_of_the_United_States.svg
8,aberal01,1927,1993,United States,Garfield Heights,Al,Aber,P,N,US,41.4344,-81.6373,https://upload.wikimedia.org/wikipedia/en/a/a4/Flag_of_the_United_States.svg
9,abercda01,1850,1939,United States,Philadelphia,Frank,Abercrombie,SS,N,US,40.0076,-75.134,https://upload.wikimedia.org/wikipedia/en/a/a4/Flag_of_the_United_States.svg
10,abernbi01,1929,2006,United States,Yucaipa,Bill,Abernathie,P,N,US,34.0282,-117.0372,https://upload.wikimedia.org/wikipedia/en/a/a4/Flag_of_the_United_States.svg
11,abernte01,1921,2001,United States,Charlotte,Ted,Abernathy,P,N,US,35.0562,-80.8194,https://upload.wikimedia.org/wikipedia/en/a/a4/Flag_of_the_United_States.svg
12,abernte02,1933,2004,United States,Gastonia,Ted,Abernathy,P,N,US,35.2137,-81.122,https://upload.wikimedia.org/wikipedia/en/a/a4/Flag_of_the_United_States.svg
13,abernwo01,1915,1994,United States,Louisville,Woody,Abernathy,P,N,US,31.7943,-85.5581,https://upload.wikimedia.org/wikipedia/en/a/a4/Flag_of_the_United_States.svg
14,aberscl01,1921,1973,United States,Vallejo,Cliff,Aberson,LF,N,US,38.1025,-122.2132,https://upload.wikimedia.org/wikipedia/en/a/a4/Flag_of_the_United_States.svg
15,ablesha01,1883,1951,United States,San Antonio,Harry,Ables,P,N,US,28.3371,-82.2882,https://upload.wikimedia.org/wikipedia/en/a/a4/Flag_of_the_United_States.svg
16,abramca01,1924,1997,United States,Fort Lauderdale,Cal,Abrams,RF,N,US,26.048,-80.3749,https://upload.wikimedia.org/wikipedia/en/a/a4/Flag_of_the_United_States.svg
17,abramge01,1899,1986,United States,Clearwater,George,Abrams,P,N,US,27.8918,-82.7248,https://upload.wikimedia.org/wikipedia/en/a/a4/Flag_of_the_United_States.svg
18,abreujo01,1913,1993,United States,Hayward,Joe,Abreu,3B,N,US,45.9552,-91.2783,https://upload.wikimedia.org/wikipedia/en/a/a4/Flag_of_the_United_States.svg
20,acklefr01,1937,2002,United States,Duluth,Fritz,Ackley,P,N,US,33.9837,-84.1487,https://upload.wikimedia.org/wikipedia/en/a/a4/Flag_of_the_United_States.svg
21,acostme01,1896,1963,United States,Miami,Merito,Acosta,RF,N,US,25.5584,-80.4582,https://upload.wikimedia.org/wikipedia/en/a/a4/Flag_of_the_United_States.svg
22,adairbi99,1913,2002,United States,Bay Minette,Bill,Adair,,N,US,30.8635,-87.7644,https://upload.wikimedia.org/wikipedia/en/a/a4/Flag_of_the_United_States.svg
23,adairje01,1936,1987,United States,Tulsa,Jerry,Adair,2B,N,US,36.0284,-95.9306,https://upload.wikimedia.org/wikipedia/en/a/a4/Flag_of_the_United_States.svg
24,adairji01,1907,1982,United States,Farmers Branch,Jimmy,Adair,SS,N,US,32.9247,-96.8917,https://upload.wikimedia.org/wikipedia/en/a/a4/Flag_of_the_United_States.svg
25,adamsac01,1910,2006,United States,Albany,Ace,Adams,P,N,US,31.5105,-84.3087,https://upload.wikimedia.org/wikipedia/en/a/a4/Flag_of_the_United_States.svg
26,adamsba01,1882,1968,United States,Silver Spring,Babe,Adams,P,N,US,38.9907,-77.0261,https://upload.wikimedia.org/wikipedia/en/a/a4/Flag_of_the_United_States.svg
27,adamsbe01,1891,1940,United States,Los Angeles,Bert,Adams,C,N,US,33.7866,-118.2987,https://upload.wikimedia.org/wikipedia/en/a/a4/Flag_of_the_United_States.svg
28,adamsbo01,1901,1996,United States,Lemoyne,Bob,Adams,P,N,US,40.2469,-76.9001,https://upload.wikimedia.org/wikipedia/en/a/a4/Flag_of_the_United_States.svg
29,adamsbo02,1907,1970,United States,Jacksonville,Bob,Adams,P,N,US,33.831,-85.7752,https://upload.wikimedia.org/wikipedia/en/a/a4/Flag_of_the_United_States.svg
30,adamsbo03,1921,1997,United States,Gig Harbor,Bobby,Adams,3B,N,US,47.3014,-122.6062,https://upload.wikimedia.org/wikipedia/en/a/a4/Flag_of_the_United_States.svg
31,adamsbu01,1915,1990,United States,Rancho Mirage,Buster,Adams,LF,N,US,33.7643,-116.4225,https://upload.wikimedia.org/wikipedia/en/a/a4/Flag_of_the_United_States.svg
33,adamsdi01,1920,2016,United States,Fallbrook,Dick,Adams,1B,N,US,33.369,-117.229,https://upload.wikimedia.org/wikipedia/en/a/a4/Flag_of_the_United_States.svg
34,adamsge01,1855,1920,United States,Clarkston,George,Adams,1B,N,US,33.8101,-84.2388,https://upload.wikimedia.org/wikipedia/en/a/a4/Flag_of_the_United_States.svg
35,adamshe01,1928,2012,United States,Tulsa,Herb,Adams,LF,N,US,36.0284,-95.9306,https://upload.wikimedia.org/wikipedia/en/a/a4/Flag_of_the_United_States.svg
37,adamska01,1891,1967,United States,Everett,Karl,Adams,P,N,US,42.4112,-71.0514,https://upload.wikimedia.org/wikipedia/en/a/a4/Flag_of_the_United_States.svg
38,adamsre01,1921,2017,United States,Fresno,Red,Adams,P,N,US,29.5293,-95.4626,https://upload.wikimedia.org/wikipedia/en/a/a4/Flag_of_the_United_States.svg
39,adamsri01,1878,1955,United States,Paris,Rick,Adams,P,N,US,35.2941,-93.7265,https://upload.wikimedia.org/wikipedia/en/a/a4/Flag_of_the_United_States.svg
40,adamsri02,1959,2011,United States,Rancho Cucamonga,Ricky,Adams,SS,N,US,34.1064,-117.5931,https://upload.wikimedia.org/wikipedia/en/a/a4/Flag_of_the_United_States.svg
41,adamssp01,1894,1989,United States,Pottsville,Sparky,Adams,2B,N,US,40.6798,-76.2092,https://upload.wikimedia.org/wikipedia/en/a/a4/Flag_of_the_United_States.svg
42,adamssp02,1898,1970,United States,Salt Lake City,Spencer,Adams,2B,N,US,40.5541,-111.9429,https://upload.wikimedia.org/wikipedia/en/a/a4/Flag_of_the_United_States.svg
43,adamswi01,1890,1937,United States,Albany,Willie,Adams,P,N,US,31.5105,-84.3087,https://upload.wikimedia.org/wikipedia/en/a/a4/Flag_of_the_United_States.svg
44,adcocjo01,1927,1999,United States,Coushatta,Joe,Adcock,1B,N,US,32.0231,-93.2648,https://upload.wikimedia.org/wikipedia/en/a/a4/Flag_of_the_United_States.svg
45,addisbo01,1925,2016,United States,Mentor,Bob,Addis,LF,N,US,47.6576,-96.1778,https://upload.wikimedia.org/wikipedia/en/a/a4/Flag_of_the_United_States.svg
46,addybo01,1842,1910,United States,Pocatello,Bob,Addy,RF,N,US,42.8465,-112.4434,https://upload.wikimedia.org/wikipedia/en/a/a4/Flag_of_the_United_States.svg
47,adenhni01,1986,2009,United States,Orange,Nick,Adenhart,P,N,US,30.0709,-93.8659,https://upload.wikimedia.org/wikipedia/en/a/a4/Flag_of_the_United_States.svg
48,aderhmo01,1915,1955,United States,Sarasota,Morrie,Aderholt,LF,N,US,27.24,-82.4755,https://upload.wikimedia.org/wikipedia/en/a/a4/Flag_of_the_United_States.svg
49,adkinde01,1918,1998,United States,Santa Monica,Dewey,Adkins,P,N,US,34.0125,-118.4682,https://upload.wikimedia.org/wikipedia/en/a/a4/Flag_of_the_United_States.svg
50,adkindi01,1920,1955,United States,Electra,Dick,Adkins,SS,N,US,34.0362,-98.9155,https://upload.wikimedia.org/wikipedia/en/a/a4/Flag_of_the_United_States.svg
51,adkindo01,1872,1934,United States,Durham,Doc,Adkins,P,N,US,35.9112,-78.9178,https://upload.wikimedia.org/wikipedia/en/a/a4/Flag_of_the_United_States.svg
52,adkingr01,1897,1966,United States,Little Rock,Grady,Adkins,P,N,US,34.6725,-92.3529,https://upload.wikimedia.org/wikipedia/en/a/a4/Flag_of_the_United_States.svg
53,adkinhe01,1874,1953,United States,Mexico,Harry,Atkinson,LF,N,US,39.1712,-91.8895,https://upload.wikimedia.org/wikipedia/en/a/a4/Flag_of_the_United_States.svg
54,adlesda01,1943,2016,United States,Long Beach,Dave,Adlesh,C,N,US,30.3598,-89.1646,https://upload.wikimedia.org/wikipedia/en/a/a4/Flag_of_the_United_States.svg
55,ageeto01,1942,2001,United States,New York,Tommie,Agee,LF,N,US,40.6052,-74.1795,https://upload.wikimedia.org/wikipedia/en/a/a4/Flag_of_the_United_States.svg
56,agganha01,1929,1955,United States,Cambridge,Harry,Agganis,1B,N,US,38.5643,-76.0874,https://upload.wikimedia.org/wikipedia/en/a/a4/Flag_of_the_United_States.svg
57,aglerjo01,1887,1971,United States,Massillon,Joe,Agler,1B,N,US,40.7959,-81.5533,https://upload.wikimedia.org/wikipedia/en/a/a4/Flag_of_the_United_States.svg
58,agnewsa01,1887,1951,United States,Sonoma,Sam,Agnew,C,N,US,38.2828,-122.4677,https://upload.wikimedia.org/wikipedia/en/a/a4/Flag_of_the_United_States.svg
59,aguirha01,1931,1994,United States,Bloomfield Hills,Hank,Aguirre,P,N,US,42.5445,-83.2792,https://upload.wikimedia.org/wikipedia/en/a/a4/Flag_of_the_United_States.svg
60,ahearch01,1858,1919,United States,Troy,Bill,Ahearn,C,N,US,31.7595,-86.0107,https://upload.wikimedia.org/wikipedia/en/a/a4/Flag_of_the_United_States.svg
61,ainsmed01,1890,1981,United States,Fort Lauderdale,Eddie,Ainsmith,C,N,US,26.048,-80.3749,https://upload.wikimedia.org/wikipedia/en/a/a4/Flag_of_the_United_States.svg
62,aitchra01,1887,1958,United States,Columbus,Raleigh,Aitchison,P,N,US,43.3354,-89.03,https://upload.wikimedia.org/wikipedia/en/a/a4/Flag_of_the_United_States.svg
63,aitonge01,1890,1976,United States,North Hollywood,George,Aiton,LF,N,US,34.1448,-118.3667,https://upload.wikimedia.org/wikipedia/en/a/a4/Flag_of_the_United_States.svg
64,akejo01,1861,1887,United States,La Crosse,John,Ake,3B,N,US,43.8241,-91.2268,https://upload.wikimedia.org/wikipedia/en/a/a4/Flag_of_the_United_States.svg
65,akerfda01,1962,2012,United States,Phoenix,Darrel,Akerfelds,P,N,US,39.4833,-76.5776,https://upload.wikimedia.org/wikipedia/en/a/a4/Flag_of_the_United_States.svg
66,akersbi01,1904,1962,United States,Chattanooga,Bill,Akers,SS,N,US,34.4262,-98.6514,https://upload.wikimedia.org/wikipedia/en/a/a4/Flag_of_the_United_States.svg
68,albanjo01,1933,2000,United States,New York,Joe,Albanese,P,N,US,40.6052,-74.1795,https://upload.wikimedia.org/wikipedia/en/a/a4/Flag_of_the_United_States.svg
69,albercy01,1882,1917,United States,Fort Wayne,Cy,Alberts,P,N,US,41.0052,-85.1527,https://upload.wikimedia.org/wikipedia/en/a/a4/Flag_of_the_United_States.svg
70,albergu01,1860,1912,United States,Idaho Springs,Gus,Alberts,3B,N,US,39.7402,-105.5983,https://upload.wikimedia.org/wikipedia/en/a/a4/Flag_of_the_United_States.svg
71,albosed01,1918,2003,United States,Saginaw,Ed,Albosta,P,N,US,43.3869,-84.0926,https://upload.wikimedia.org/wikipedia/en/a/a4/Flag_of_the_United_States.svg
72,albreed01,1929,1979,United States,Centreville,Ed,Albrecht,P,N,US,32.9503,-87.1192,https://upload.wikimedia.org/wikipedia/en/a/a4/Flag_of_the_United_States.svg
73,albrija01,1921,1991,United States,San Diego,Jack,Albright,SS,N,US,32.8312,-117.1226,https://upload.wikimedia.org/wikipedia/en/a/a4/Flag_of_the_United_States.svg
74,alburvi01,1947,2017,United States,Tampa,Vic,Albury,P,N,US,27.872,-82.4388,https://upload.wikimedia.org/wikipedia/en/a/a4/Flag_of_the_United_States.svg
75,alcocsc01,1885,1973,United States,Wooster,Scotty,Alcock,3B,N,US,40.8142,-81.9387,https://upload.wikimedia.org/wikipedia/en/a/a4/Flag_of_the_United_States.svg
76,alderda01,1918,1982,United States,Garden Grove,Dale,Alderson,P,N,US,33.7787,-117.9601,https://upload.wikimedia.org/wikipedia/en/a/a4/Flag_of_the_United_States.svg
77,aldrivi01,1893,1973,United States,Terre Haute,Vic,Aldridge,P,N,US,39.4057,-87.4026,https://upload.wikimedia.org/wikipedia/en/a/a4/Flag_of_the_United_States.svg
78,alenoch01,1917,2003,United States,DeLand,Chuck,Aleno,3B,N,US,29.0266,-81.3349,https://upload.wikimedia.org/wikipedia/en/a/a4/Flag_of_the_United_States.svg
79,alexabo01,1922,1993,United States,Oceanside,Bob,Alexander,P,N,US,40.6327,-73.6333,https://upload.wikimedia.org/wikipedia/en/a/a4/Flag_of_the_United_States.svg
80,alexada01,1903,1979,United States,Greeneville,Dale,Alexander,1B,N,US,36.1294,-82.866,https://upload.wikimedia.org/wikipedia/en/a/a4/Flag_of_the_United_States.svg
81,alexahu01,1917,2000,United States,Oklahoma City,Hugh,Alexander,RF,N,US,35.3267,-97.3534,https://upload.wikimedia.org/wikipedia/en/a/a4/Flag_of_the_United_States.svg
82,alexani01,1858,1933,United States,Pana,Nin,Alexander,C,N,US,39.3971,-89.1048,https://upload.wikimedia.org/wikipedia/en/a/a4/Flag_of_the_United_States.svg
84,alexawa01,1891,1978,United States,Fort Worth,Walt,Alexander,C,N,US,32.6192,-97.2735,https://upload.wikimedia.org/wikipedia/en/a/a4/Flag_of_the_United_States.svg
85,allenbo01,1867,1943,United States,Little Rock,Bob,Allen,SS,N,US,34.6725,-92.3529,https://upload.wikimedia.org/wikipedia/en/a/a4/Flag_of_the_United_States.svg
86,allenbo02,1894,1975,United States,Naperville,Bob,Allen,LF,N,US,41.7057,-88.1946,https://upload.wikimedia.org/wikipedia/en/a/a4/Flag_of_the_United_States.svg
87,allenbo03,1914,2005,United States,Chesapeake,Bob,Allen,P,N,US,38.4551,-82.4504,https://upload.wikimedia.org/wikipedia/en/a/a4/Flag_of_the_United_States.svg
88,allenet01,1904,1993,United States,Crescent City,Ethan,Allen,LF,N,US,41.7727,-124.1902,https://upload.wikimedia.org/wikipedia/en/a/a4/Flag_of_the_United_States.svg
90,allenha01,1846,1881,United States,Natick,Ham,Allen,SS,N,US,42.2878,-71.3587,https://upload.wikimedia.org/wikipedia/en/a/a4/Flag_of_the_United_States.svg
91,allenhe01,1863,1916,United States,Saugatuck,Hezekiah,Allen,C,N,US,42.6456,-86.1655,https://upload.wikimedia.org/wikipedia/en/a/a4/Flag_of_the_United_States.svg
92,allenho01,1899,1981,United States,Canton,Horace,Allen,LF,N,US,34.2015,-84.4222,https://upload.wikimedia.org/wikipedia/en/a/a4/Flag_of_the_United_States.svg
93,allenja01,1855,1915,United States,Trenton,Jack,Allen,3B,N,US,29.6133,-82.8176,https://upload.wikimedia.org/wikipedia/en/a/a4/Flag_of_the_United_States.svg
94,allenjo01,1890,1967,United States,Hagerstown,John,Allen,P,N,US,39.9228,-85.1601,https://upload.wikimedia.org/wikipedia/en/a/a4/Flag_of_the_United_States.svg
95,allenjo02,1904,1959,United States,St. Petersburg,Johnny,Allen,P,N,US,27.6705,-82.7119,https://upload.wikimedia.org/wikipedia/en/a/a4/Flag_of_the_United_States.svg
96,allenmy01,1854,1924,United States,Kingston,Myron,Allen,LF,N,US,35.8717,-84.4954,https://upload.wikimedia.org/wikipedia/en/a/a4/Flag_of_the_United_States.svg
97,allenni01,1888,1939,United States,Hines,Nick,Allen,C,N,US,47.7324,-94.6477,https://upload.wikimedia.org/wikipedia/en/a/a4/Flag_of_the_United_States.svg
98,allenpe01,1868,1946,United States,Philadelphia,Pete,Allen,C,N,US,40.0076,-75.134,https://upload.wikimedia.org/wikipedia/en/a/a4/Flag_of_the_United_States.svg
99,allensl01,1886,1959,United States,Lubbock,Sled,Allen,C,N,US,33.5119,-101.9316,https://upload.wikimedia.org/wikipedia/en/a/a4/Flag_of_the_United_States.svg
100,alliega01,1931,2016,United States,San Antonio,Gair,Allie,SS,N,US,28.3371,-82.2882,https://upload.wikimedia.org/wikipedia/en/a/a4/Flag_of_the_United_States.svg
101,allisan01,1848,1897,United States,Brooklyn,Andy,Allison,1B,N,US,39.2259,-76.6153,https://upload.wikimedia.org/wikipedia/en/a/a4/Flag_of_the_United_States.svg
102,allisar01,1849,1916,United States,Washington,Art,Allison,RF,N,US,38.9047,-77.0163,https://upload.wikimedia.org/wikipedia/en/a/a4/Flag_of_the_United_States.svg
103,allisbi01,1850,1887,United States,Brooklyn,Bill,Allison,1B,N,US,39.2259,-76.6153,https://upload.wikimedia.org/wikipedia/en/a/a4/Flag_of_the_United_States.svg
104,allisbo01,1934,1995,United States,Rio Verde,Bob,Allison,RF,N,US,33.7225,-111.6757,https://upload.wikimedia.org/wikipedia/en/a/a4/Flag_of_the_United_States.svg
105,allisdo01,1846,1916,United States,Washington,Doug,Allison,C,N,US,38.9047,-77.0163,https://upload.wikimedia.org/wikipedia/en/a/a4/Flag_of_the_United_States.svg
106,allisma01,1887,1964,United States,Mount Vernon,Mack,Allison,P,N,US,31.0974,-88.035,https://upload.wikimedia.org/wikipedia/en/a/a4/Flag_of_the_United_States.svg
107,allismi01,1890,1957,United States,Kenosha,Milo,Allison,RF,N,US,42.5601,-87.8756,https://upload.wikimedia.org/wikipedia/en/a/a4/Flag_of_the_United_States.svg
108,alomalu01,1923,1997,United States,Park Ridge,Luis,Aloma,P,N,US,42.0094,-87.8354,https://upload.wikimedia.org/wikipedia/en/a/a4/Flag_of_the_United_States.svg
109,alperwh01,1879,1942,United States,Pittsburgh,Whitey,Alpermann,2B,N,US,40.3323,-80.081,https://upload.wikimedia.org/wikipedia/en/a/a4/Flag_of_the_United_States.svg
110,alstoto01,1926,1993,United States,Winston-Salem,Tom,Alston,1B,N,US,36.0403,-80.1933,https://upload.wikimedia.org/wikipedia/en/a/a4/Flag_of_the_United_States.svg
111,alstowa01,1911,1984,United States,Oxford,Walter,Alston,1B,Y,US,33.5815,-85.8328,https://upload.wikimedia.org/wikipedia/en/a/a4/Flag_of_the_United_States.svg
112,altener01,1894,1981,United States,Napa,Ernie,Alten,P,N,US,38.2904,-122.2841,https://upload.wikimedia.org/wikipedia/en/a/a4/Flag_of_the_United_States.svg
113,altenje01,1893,1973,United States,Lansing,Jesse,Altenburg,LF,N,US,39.2502,-94.8994,https://upload.wikimedia.org/wikipedia/en/a/a4/Flag_of_the_United_States.svg
114,altizda01,1876,1964,United States,Pleasant Hill,Dave,Altizer,SS,N,US,39.4467,-90.877,https://upload.wikimedia.org/wikipedia/en/a/a4/Flag_of_the_United_States.svg
115,altroni01,1876,1965,United States,Washington,Nick,Altrock,P,N,US,38.9047,-77.0163,https://upload.wikimedia.org/wikipedia/en/a/a4/Flag_of_the_United_States.svg
116,alusige01,1935,2018,United States,Woodbridge,George,Alusik,LF,N,US,38.6326,-77.2661,https://upload.wikimedia.org/wikipedia/en/a/a4/Flag_of_the_United_States.svg
117,alvarro01,1938,2012,United States,Hialeah,Rogelio,Alvarez,1B,N,US,25.8275,-80.2724,https://upload.wikimedia.org/wikipedia/en/a/a4/Flag_of_the_United_States.svg
118,alvorbi01,1863,1927,United States,St. Petersburg,Billy,Alvord,3B,N,US,27.6705,-82.7119,https://upload.wikimedia.org/wikipedia/en/a/a4/Flag_of_the_United_States.svg
119,amaroru01,1936,2017,United States,Weston,Ruben,Amaro,SS,N,US,26.1147,-80.3672,https://upload.wikimedia.org/wikipedia/en/a/a4/Flag_of_the_United_States.svg
120,amblewa01,1915,1998,United States,Ponte Vedra Beach,Wayne,Ambler,SS,N,US,30.1223,-81.3627,https://upload.wikimedia.org/wikipedia/en/a/a4/Flag_of_the_United_States.svg
121,amesre01,1882,1936,United States,Warren,Red,Ames,P,N,US,33.614,-92.0778,https://upload.wikimedia.org/wikipedia/en/a/a4/Flag_of_the_United_States.svg
122,amoledo01,1874,1912,United States,Wilmington,Doc,Amole,P,N,US,39.7168,-75.6184,https://upload.wikimedia.org/wikipedia/en/a/a4/Flag_of_the_United_States.svg
123,amorosa01,1930,1992,United States,Miami,Sandy,Amoros,LF,N,US,25.5584,-80.4582,https://upload.wikimedia.org/wikipedia/en/a/a4/Flag_of_the_United_States.svg
124,anckewa01,1893,1954,United States,Englewood,Walter,Ancker,P,N,US,26.92,-82.3048,https://upload.wikimedia.org/wikipedia/en/a/a4/Flag_of_the_United_States.svg
125,anderal01,1914,1985,United States,Albany,Alf,Anderson,SS,N,US,31.5105,-84.3087,https://upload.wikimedia.org/wikipedia/en/a/a4/Flag_of_the_United_States.svg
126,anderan01,1922,1982,United States,Seattle,Andy,Anderson,SS,N,US,47.3957,-122.3036,https://upload.wikimedia.org/wikipedia/en/a/a4/Flag_of_the_United_States.svg
127,anderbi01,1895,1983,United States,Medford,Bill,Anderson,P,N,US,39.8602,-74.8247,https://upload.wikimedia.org/wikipedia/en/a/a4/Flag_of_the_United_States.svg
128,anderbo01,1935,2015,United States,Tulsa,Bob,Anderson,P,N,US,36.0284,-95.9306,https://upload.wikimedia.org/wikipedia/en/a/a4/Flag_of_the_United_States.svg
129,anderda01,1868,1897,United States,Chester,Dave,Anderson,P,N,US,41.357,-74.2769,https://upload.wikimedia.org/wikipedia/en/a/a4/Flag_of_the_United_States.svg
130,anderfe01,1918,1978,United States,Joplin,Ferrell,Anderson,C,N,US,37.0465,-94.5103,https://upload.wikimedia.org/wikipedia/en/a/a4/Flag_of_the_United_States.svg
131,anderfr01,1885,1957,United States,Winston-Salem,Fred,Anderson,P,N,US,36.0403,-80.1933,https://upload.wikimedia.org/wikipedia/en/a/a4/Flag_of_the_United_States.svg
132,anderge01,1889,1962,United States,Cleveland,George,Anderson,RF,N,US,33.9778,-86.5598,https://upload.wikimedia.org/wikipedia/en/a/a4/Flag_of_the_United_States.svg
133,andergo01,1880,1923,United States,South Bend,Goat,Anderson,RF,N,US,41.5968,-86.293,https://upload.wikimedia.org/wikipedia/en/a/a4/Flag_of_the_United_States.svg
135,anderha02,1931,1998,United States,Greenville,Harry,Anderson,LF,N,US,31.81,-86.6229,https://upload.wikimedia.org/wikipedia/en/a/a4/Flag_of_the_United_States.svg
136,anderjo01,1873,1949,United States,Worcester,John,Anderson,1B,N,US,42.2303,-71.7938,https://upload.wikimedia.org/wikipedia/en/a/a4/Flag_of_the_United_States.svg
137,anderjo02,1929,1998,United States,Houston,John,Anderson,P,N,US,29.7868,-95.3905,https://upload.wikimedia.org/wikipedia/en/a/a4/Flag_of_the_United_States.svg
138,anderre01,1912,1972,United States,Sioux City,Red,Anderson,P,N,US,42.3684,-96.318,https://upload.wikimedia.org/wikipedia/en/a/a4/Flag_of_the_United_States.svg
139,anderri01,1953,1989,United States,Wilmington,Rick,Anderson,P,N,US,39.7168,-75.6184,https://upload.wikimedia.org/wikipedia/en/a/a4/Flag_of_the_United_States.svg
140,andersp01,1934,2010,United States,Thousand Oaks,Sparky,Anderson,2B,Y,US,34.1706,-118.8376,https://upload.wikimedia.org/wikipedia/en/a/a4/Flag_of_the_United_States.svg
141,anderva01,1866,1941,United States,Rockford,Varney,Anderson,P,N,US,32.878,-86.24,https://upload.wikimedia.org/wikipedia/en/a/a4/Flag_of_the_United_States.svg
142,anderwa01,1897,1990,United States,Battle Creek,Walter,Anderson,P,N,US,42.3327,-95.6045,https://upload.wikimedia.org/wikipedia/en/a/a4/Flag_of_the_United_States.svg
143,anderwi01,1886,1950,United States,Fort Worth,Wingo,Anderson,P,N,US,32.6192,-97.2735,https://upload.wikimedia.org/wikipedia/en/a/a4/Flag_of_the_United_States.svg
144,andreed01,1859,1934,United States,West Palm Beach,Ed,Andrews,LF,N,US,26.6396,-80.0827,https://upload.wikimedia.org/wikipedia/en/a/a4/Flag_of_the_United_States.svg
145,andreel01,1901,1979,United States,Greenwood,Elbert,Andrews,P,N,US,35.1955,-94.253,https://upload.wikimedia.org/wikipedia/en/a/a4/Flag_of_the_United_States.svg
146,andreer01,1918,2008,United States,Bradenton,Ernie,Andres,3B,N,US,27.4055,-82.3881,https://upload.wikimedia.org/wikipedia/en/a/a4/Flag_of_the_United_States.svg
147,andrehu01,1922,2012,United States,Dodge City,Hub,Andrews,P,N,US,37.7569,-100.0241,https://upload.wikimedia.org/wikipedia/en/a/a4/Flag_of_the_United_States.svg
148,andreiv01,1907,1970,United States,Birmingham,Ivy,Andrews,P,N,US,33.3555,-86.8274,https://upload.wikimedia.org/wikipedia/en/a/a4/Flag_of_the_United_States.svg
149,andreji01,1865,1907,United States,Chicago,Jim,Andrews,RF,N,US,41.6642,-87.5612,https://upload.wikimedia.org/wikipedia/en/a/a4/Flag_of_the_United_States.svg
150,andrejo01,1923,1976,United States,Barnstable,John,Andre,P,N,US,41.6606,-70.3532,https://upload.wikimedia.org/wikipedia/en/a/a4/Flag_of_the_United_States.svg
151,andrena01,1913,1991,United States,Winston-Salem,Nate,Andrews,P,N,US,36.0403,-80.1933,https://upload.wikimedia.org/wikipedia/en/a/a4/Flag_of_the_United_States.svg
152,andrest01,1917,1995,United States,Bradenton,Stan,Andrews,C,N,US,27.4055,-82.3881,https://upload.wikimedia.org/wikipedia/en/a/a4/Flag_of_the_United_States.svg
153,andrewa01,1859,1940,United States,Indianapolis,Wally,Andrews,1B,N,US,39.667,-85.9981,https://upload.wikimedia.org/wikipedia/en/a/a4/Flag_of_the_United_States.svg
154,andrubi01,1907,1982,United States,Washington,Bill,Andrus,3B,N,US,38.9047,-77.0163,https://upload.wikimedia.org/wikipedia/en/a/a4/Flag_of_the_United_States.svg
155,andrufr01,1850,1937,United States,Detroit,Fred,Andrus,RF,N,US,42.3834,-83.1024,https://upload.wikimedia.org/wikipedia/en/a/a4/Flag_of_the_United_States.svg
156,andruwi01,1858,1935,United States,Miles City,Wyman,Andrus,3B,N,US,46.4075,-105.8332,https://upload.wikimedia.org/wikipedia/en/a/a4/Flag_of_the_United_States.svg
157,angleto01,1904,1952,United States,Wichita,Tom,Angley,C,N,US,37.553,-97.2549,https://upload.wikimedia.org/wikipedia/en/a/a4/Flag_of_the_United_States.svg
158,ankenpa01,1912,1989,United States,Houston,Pat,Ankenman,2B,N,US,29.7868,-95.3905,https://upload.wikimedia.org/wikipedia/en/a/a4/Flag_of_the_United_States.svg
159,annisbi01,1857,1923,United States,Kennebunkport,Bill,Annis,LF,N,US,43.3923,-70.4729,https://upload.wikimedia.org/wikipedia/en/a/a4/Flag_of_the_United_States.svg
160,ansonca01,1852,1922,United States,Chicago,Cap,Anson,1B,N,US,41.6642,-87.5612,https://upload.wikimedia.org/wikipedia/en/a/a4/Flag_of_the_United_States.svg
161,antoljo01,1916,2002,United States,Catasauqua,Joe,Antolick,C,N,US,40.6557,-75.4693,https://upload.wikimedia.org/wikipedia/en/a/a4/Flag_of_the_United_States.svg
162,antonbi01,1927,1993,United States,Fridley,Bill,Antonello,LF,N,,45.0841,-93.2595,https://upload.wikimedia.org/wikipedia/en/a/a4/Flag_of_the_United_States.svg
163,antonjo01,1915,1990,United States,Memphis,John,Antonelli,3B,N,US,38.4642,-85.7775,https://upload.wikimedia.org/wikipedia/en/a/a4/Flag_of_the_United_States.svg
164,appleed01,1892,1932,United States,Arlington,Ed,Appleton,P,N,US,48.1697,-122.1446,https://upload.wikimedia.org/wikipedia/en/a/a4/Flag_of_the_United_States.svg
165,applefr01,1879,1968,United States,Williamsport,Fred,Applegate,P,N,US,41.2398,-77.0371,https://upload.wikimedia.org/wikipedia/en/a/a4/Flag_of_the_United_States.svg
166,applepe01,1904,1974,United States,Trenton,Pete,Appleton,P,N,US,29.6133,-82.8176,https://upload.wikimedia.org/wikipedia/en/a/a4/Flag_of_the_United_States.svg
167,applilu01,1907,1991,United States,Cumming,Luke,Appling,SS,N,US,34.2037,-84.1031,https://upload.wikimedia.org/wikipedia/en/a/a4/Flag_of_the_United_States.svg
168,aragoan01,1890,1952,United States,New York,Angel,Aragon,3B,N,US,40.6052,-74.1795,https://upload.wikimedia.org/wikipedia/en/a/a4/Flag_of_the_United_States.svg
169,aragoja01,1915,1988,United States,Clearwater,Jack,Aragon,P,N,US,27.8918,-82.7248,https://upload.wikimedia.org/wikipedia/en/a/a4/Flag_of_the_United_States.svg
171,archefr01,1910,1981,United States,Charlotte,Fred,Archer,P,N,US,35.0562,-80.8194,https://upload.wikimedia.org/wikipedia/en/a/a4/Flag_of_the_United_States.svg
172,archeji01,1883,1958,United States,Milwaukee,Jimmy,Archer,C,N,US,42.951,-87.9437,https://upload.wikimedia.org/wikipedia/en/a/a4/Flag_of_the_United_States.svg
173,archige01,1914,2001,United States,Nashville,George,Archie,3B,N,US,33.9576,-93.8707,https://upload.wikimedia.org/wikipedia/en/a/a4/Flag_of_the_United_States.svg
174,arciajo01,1943,2016,United States,Miami,Jose,Arcia,SS,N,US,25.5584,-80.4582,https://upload.wikimedia.org/wikipedia/en/a/a4/Flag_of_the_United_States.svg
175,ardizru01,1919,2015,United States,San Francisco,Rugger,Ardizoia,P,N,US,37.6811,-122.4806,https://upload.wikimedia.org/wikipedia/en/a/a4/Flag_of_the_United_States.svg
176,ardnejo01,1858,1935,United States,Cleveland,Joe,Ardner,2B,N,US,33.9778,-86.5598,https://upload.wikimedia.org/wikipedia/en/a/a4/Flag_of_the_United_States.svg
177,arellfr01,1882,1918,United States,San Jose,Frank,Arellanes,P,N,US,40.3011,-89.6872,https://upload.wikimedia.org/wikipedia/en/a/a4/Flag_of_the_United_States.svg
179,ariasru01,1931,2018,United States,Miami,Rudy,Arias,P,N,US,25.5584,-80.4582,https://upload.wikimedia.org/wikipedia/en/a/a4/Flag_of_the_United_States.svg
180,arletbu01,1899,1964,United States,Minneapolis,Buzz,Arlett,RF,N,US,39.1295,-97.6688,https://upload.wikimedia.org/wikipedia/en/a/a4/Flag_of_the_United_States.svg
181,arlinst01,1945,2016,United States,San Diego,Steve,Arlin,P,N,US,32.8312,-117.1226,https://upload.wikimedia.org/wikipedia/en/a/a4/Flag_of_the_United_States.svg
182,armbrch01,1880,1964,United States,Grants Pass,Charlie,Armbruster,C,N,US,42.3956,-123.3528,https://upload.wikimedia.org/wikipedia/en/a/a4/Flag_of_the_United_States.svg
183,armbrha01,1882,1953,United States,Cincinnati,Harry,Armbruster,LF,N,US,39.0584,-84.3396,https://upload.wikimedia.org/wikipedia/en/a/a4/Flag_of_the_United_States.svg
184,armbror01,1908,1967,United States,Mobile,Orville,Armbrust,P,N,US,30.5928,-88.1946,https://upload.wikimedia.org/wikipedia/en/a/a4/Flag_of_the_United_States.svg
185,armoubi99,1869,1922,United States,Minneapolis,Bill,Armour,,N,US,39.1295,-97.6688,https://upload.wikimedia.org/wikipedia/en/a/a4/Flag_of_the_United_States.svg
186,armstbo01,1850,1917,United States,Fort Worth,Robert,Armstrong,LF,N,US,32.6192,-97.2735,https://upload.wikimedia.org/wikipedia/en/a/a4/Flag_of_the_United_States.svg
187,armstge01,1924,1993,United States,Orange,George,Armstrong,C,N,US,30.0709,-93.8659,https://upload.wikimedia.org/wikipedia/en/a/a4/Flag_of_the_United_States.svg
188,armstho01,1889,1926,United States,Canisteo,Howard,Armstrong,P,N,US,42.2635,-77.5897,https://upload.wikimedia.org/wikipedia/en/a/a4/Flag_of_the_United_States.svg
189,arndtha01,1879,1921,United States,South Bend,Harry,Arndt,2B,N,US,41.5968,-86.293,https://upload.wikimedia.org/wikipedia/en/a/a4/Flag_of_the_United_States.svg
190,arndtla01,1963,2014,United States,Tucson,Larry,Arndt,1B,N,US,32.0839,-110.9004,https://upload.wikimedia.org/wikipedia/en/a/a4/Flag_of_the_United_States.svg
191,arnolbi01,1851,1899,United States,Albany,Billy,Arnold,RF,N,US,31.5105,-84.3087,https://upload.wikimedia.org/wikipedia/en/a/a4/Flag_of_the_United_States.svg
192,arnovmo01,1910,1959,United States,Superior,Morrie,Arnovich,LF,N,US,46.6941,-92.0823,https://upload.wikimedia.org/wikipedia/en/a/a4/Flag_of_the_United_States.svg
193,arntzor01,1909,1970,United States,Cedar Rapids,Orie,Arntzen,P,N,US,41.9504,-91.6897,https://upload.wikimedia.org/wikipedia/en/a/a4/Flag_of_the_United_States.svg
194,arundha01,1855,1904,United States,Cleveland,Harry,Arundel,P,N,US,33.9778,-86.5598,https://upload.wikimedia.org/wikipedia/en/a/a4/Flag_of_the_United_States.svg
195,arundtu01,1862,1912,United States,Romulus,Tug,Arundel,C,N,US,42.2223,-83.3966,https://upload.wikimedia.org/wikipedia/en/a/a4/Flag_of_the_United_States.svg
196,asbelji01,1914,1967,United States,San Mateo,Jim,Asbell,LF,N,US,29.5888,-81.5921,https://upload.wikimedia.org/wikipedia/en/a/a4/Flag_of_the_United_States.svg
197,asbjoca01,1909,1970,United States,Williamsport,Casper,Asbjornson,C,N,US,41.2398,-77.0371,https://upload.wikimedia.org/wikipedia/en/a/a4/Flag_of_the_United_States.svg
198,ashburi01,1927,1997,United States,New York,Richie,Ashburn,LF,N,US,40.6052,-74.1795,https://upload.wikimedia.org/wikipedia/en/a/a4/Flag_of_the_United_States.svg
199,ashke01,1901,1979,United States,Clarksburg,Ken,Ash,P,N,US,39.2368,-77.2775,https://upload.wikimedia.org/wikipedia/en/a/a4/Flag_of_the_United_States.svg
200,asmusto01,1878,1963,United States,Arlington Heights,Tom,Asmussen,C,N,US,42.0629,-87.9813,https://upload.wikimedia.org/wikipedia/en/a/a4/Flag_of_the_United_States.svg
201,astrojo01,1922,2013,United States,Boca Raton,Joe,Astroth,C,N,US,26.3432,-80.2116,https://upload.wikimedia.org/wikipedia/en/a/a4/Flag_of_the_United_States.svg
203,atkinja01,1921,2009,United States,Hanceville,James,Atkins,P,N,US,34.0516,-86.7848,https://upload.wikimedia.org/wikipedia/en/a/a4/Flag_of_the_United_States.svg
204,atkinle01,1904,1961,United States,Chicago,Lefty,Atkinson,P,N,US,41.6642,-87.5612,https://upload.wikimedia.org/wikipedia/en/a/a4/Flag_of_the_United_States.svg
205,atkinto01,1887,1956,United States,Cleveland,Tommy,Atkins,P,N,US,33.9778,-86.5598,https://upload.wikimedia.org/wikipedia/en/a/a4/Flag_of_the_United_States.svg
206,attredi01,1897,1964,United States,Chicago,Dick,Attreau,1B,N,US,41.6642,-87.5612,https://upload.wikimedia.org/wikipedia/en/a/a4/Flag_of_the_United_States.svg
207,atwelto01,1924,2003,United States,Purcellville,Toby,Atwell,C,N,US,39.1436,-77.7342,https://upload.wikimedia.org/wikipedia/en/a/a4/Flag_of_the_United_States.svg
208,atwoobi01,1911,1993,United States,Snyder,Bill,Atwood,C,N,US,41.7039,-96.7886,https://upload.wikimedia.org/wikipedia/en/a/a4/Flag_of_the_United_States.svg
209,atzja01,1879,1945,United States,New Orleans,Jake,Atz,2B,N,US,29.9198,-89.999,https://upload.wikimedia.org/wikipedia/en/a/a4/Flag_of_the_United_States.svg
210,aubreha01,1881,1953,United States,Baltimore,Chub,Aubrey,SS,N,US,39.2293,-76.6907,https://upload.wikimedia.org/wikipedia/en/a/a4/Flag_of_the_United_States.svg
211,aukerel01,1910,2006,United States,Vero Beach,Elden,Auker,P,N,US,27.5885,-80.3923,https://upload.wikimedia.org/wikipedia/en/a/a4/Flag_of_the_United_States.svg
212,auldsle01,1920,1999,United States,Hondo,Tex,Aulds,C,N,US,29.3475,-99.1414,https://upload.wikimedia.org/wikipedia/en/a/a4/Flag_of_the_United_States.svg
213,aultdo01,1950,2004,United States,Tarpon Springs,Doug,Ault,1B,N,US,28.1389,-82.7498,https://upload.wikimedia.org/wikipedia/en/a/a4/Flag_of_the_United_States.svg
214,austihe01,1844,1904,United States,Amityville,Henry,Austin,LF,N,US,40.6842,-73.4171,https://upload.wikimedia.org/wikipedia/en/a/a4/Flag_of_the_United_States.svg
215,austiji01,1879,1965,United States,Laguna Beach,Jimmy,Austin,3B,N,US,33.5157,-117.7109,https://upload.wikimedia.org/wikipedia/en/a/a4/Flag_of_the_United_States.svg
216,autrych01,1885,1976,United States,Santa Rosa,Chick,Autry,1B,N,US,26.2555,-97.8257,https://upload.wikimedia.org/wikipedia/en/a/a4/Flag_of_the_United_States.svg
217,autrych02,1903,1950,United States,Savannah,Chick,Autry,C,N,US,31.9268,-81.0381,https://upload.wikimedia.org/wikipedia/en/a/a4/Flag_of_the_United_States.svg
218,averiea01,1902,1983,United States,Everett,Earl,Averill,LF,N,US,42.4112,-71.0514,https://upload.wikimedia.org/wikipedia/en/a/a4/Flag_of_the_United_States.svg
219,averiea02,1931,2015,United States,Tacoma,Earl,Averill,C,N,US,47.1125,-122.5891,https://upload.wikimedia.org/wikipedia/en/a/a4/Flag_of_the_United_States.svg
220,avreaja01,1920,1987,United States,Dallas,Jay,Avrea,P,N,US,33.8992,-84.8572,https://upload.wikimedia.org/wikipedia/en/a/a4/Flag_of_the_United_States.svg
221,aydelja01,1861,1926,United States,Detroit,Jake,Aydelott,P,N,US,42.3834,-83.1024,https://upload.wikimedia.org/wikipedia/en/a/a4/Flag_of_the_United_States.svg
222,ayersbi01,1919,1980,United States,Newnan,Bill,Ayers,P,N,US,33.361,-84.8142,https://upload.wikimedia.org/wikipedia/en/a/a4/Flag_of_the_United_States.svg
223,ayersdo01,1891,1968,United States,Pulaski,Doc,Ayers,P,N,US,32.2745,-89.5627,https://upload.wikimedia.org/wikipedia/en/a/a4/Flag_of_the_United_States.svg
224,aylwadi01,1925,1983,United States,Spring Valley,Dick,Aylward,C,N,US,39.6083,-84.026,https://upload.wikimedia.org/wikipedia/en/a/a4/Flag_of_the_United_States.svg
225,babbch01,1873,1954,United States,Portland,Charlie,Babb,SS,N,US,27.8913,-97.328,https://upload.wikimedia.org/wikipedia/en/a/a4/Flag_of_the_United_States.svg
226,babelo01,1928,1984,United States,Omaha,Loren,Babe,3B,N,US,36.4612,-93.1888,https://upload.wikimedia.org/wikipedia/en/a/a4/Flag_of_the_United_States.svg
227,babicjo01,1913,2001,United States,Richmond,Johnny,Babich,P,N,US,39.8335,-84.8983,https://upload.wikimedia.org/wikipedia/en/a/a4/Flag_of_the_United_States.svg
228,babinch01,1895,1957,United States,Providence,Charlie,Babington,LF,N,US,37.405,-87.7505,https://upload.wikimedia.org/wikipedia/en/a/a4/Flag_of_the_United_States.svg
229,backmle01,1888,1975,United States,Cincinnati,Les,Backman,P,N,US,39.0584,-84.3396,https://upload.wikimedia.org/wikipedia/en/a/a4/Flag_of_the_United_States.svg
230,baconed01,1895,1963,United States,Louisville,Eddie,Bacon,P,N,US,31.7943,-85.5581,https://upload.wikimedia.org/wikipedia/en/a/a4/Flag_of_the_United_States.svg
231,baczefr01,1926,1976,United States,Culver City,Fred,Baczewski,P,N,US,33.9924,-118.3991,https://upload.wikimedia.org/wikipedia/en/a/a4/Flag_of_the_United_States.svg
233,baderlo01,1888,1973,United States,Le Roy,King,Bader,P,N,US,40.3468,-88.7598,https://upload.wikimedia.org/wikipedia/en/a/a4/Flag_of_the_United_States.svg
234,badgrre01,1902,1998,United States,Kent,Red,Badgro,RF,N,US,41.7316,-73.4583,https://upload.wikimedia.org/wikipedia/en/a/a4/Flag_of_the_United_States.svg
235,baeched01,1907,1957,United States,Grafton,Ed,Baecht,P,N,US,39.0021,-90.4323,https://upload.wikimedia.org/wikipedia/en/a/a4/Flag_of_the_United_States.svg
236,bagbyji01,1889,1954,United States,Marietta,Jim,Bagby,P,N,US,33.8972,-84.592,https://upload.wikimedia.org/wikipedia/en/a/a4/Flag_of_the_United_States.svg
237,bagbyji02,1916,1988,United States,Marietta,Jim,Bagby,P,N,US,33.8972,-84.592,https://upload.wikimedia.org/wikipedia/en/a/a4/Flag_of_the_United_States.svg
238,bagwebi01,1895,1976,United States,Choudrant,Bill,Bagwell,LF,N,US,32.5556,-92.5224,https://upload.wikimedia.org/wikipedia/en/a/a4/Flag_of_the_United_States.svg
239,bahred01,1919,2007,United States,Seattle,Ed,Bahr,P,N,US,47.3957,-122.3036,https://upload.wikimedia.org/wikipedia/en/a/a4/Flag_of_the_United_States.svg
240,bahrefr01,1858,1888,United States,Poughkeepsie,Frank,Bahret,LF,N,US,41.6949,-73.921,https://upload.wikimedia.org/wikipedia/en/a/a4/Flag_of_the_United_States.svg
241,baichgr01,1889,1956,United States,San Jose,Grover,Baichley,P,N,US,40.3011,-89.6872,https://upload.wikimedia.org/wikipedia/en/a/a4/Flag_of_the_United_States.svg
242,bailebi01,1888,1926,United States,Houston,Bill,Bailey,P,N,US,29.7868,-95.3905,https://upload.wikimedia.org/wikipedia/en/a/a4/Flag_of_the_United_States.svg
243,bailebi02,1881,1967,United States,Seattle,Bill,Bailey,3B,N,US,47.3957,-122.3036,https://upload.wikimedia.org/wikipedia/en/a/a4/Flag_of_the_United_States.svg
244,bailebo01,1942,2018,United States,Las Vegas,Bob,Bailey,3B,N,US,35.5949,-105.2272,https://upload.wikimedia.org/wikipedia/en/a/a4/Flag_of_the_United_States.svg
245,baileed01,1931,2007,United States,Knoxville,Ed,Bailey,C,N,US,35.9692,-83.9495,https://upload.wikimedia.org/wikipedia/en/a/a4/Flag_of_the_United_States.svg
246,bailefr01,1895,1972,United States,Huntington,Fred,Bailey,LF,N,US,35.0963,-94.3313,https://upload.wikimedia.org/wikipedia/en/a/a4/Flag_of_the_United_States.svg
247,bailege01,1893,1973,United States,Houston,Gene,Bailey,LF,N,US,29.7868,-95.3905,https://upload.wikimedia.org/wikipedia/en/a/a4/Flag_of_the_United_States.svg
248,baileha01,1876,1922,United States,Toledo,Harvey,Bailey,P,N,US,39.2772,-88.2468,https://upload.wikimedia.org/wikipedia/en/a/a4/Flag_of_the_United_States.svg
249,baileki01,1869,1917,United States,Macon,King,Bailey,P,N,US,32.7486,-83.7477,https://upload.wikimedia.org/wikipedia/en/a/a4/Flag_of_the_United_States.svg
250,bailesw01,1895,1939,United States,Joliet,Sweetbread,Bailey,P,N,US,41.4712,-87.9391,https://upload.wikimedia.org/wikipedia/en/a/a4/Flag_of_the_United_States.svg
251,bainlo01,1922,1996,United States,Chetek,Loren,Bain,P,N,US,45.317,-91.6542,https://upload.wikimedia.org/wikipedia/en/a/a4/Flag_of_the_United_States.svg
252,bairdal01,1895,1976,United States,Shreveport,Al,Baird,2B,N,US,32.3401,-93.6092,https://upload.wikimedia.org/wikipedia/en/a/a4/Flag_of_the_United_States.svg
253,bairdbo01,1940,1974,United States,Chattanooga,Bob,Baird,P,N,US,34.4262,-98.6514,https://upload.wikimedia.org/wikipedia/en/a/a4/Flag_of_the_United_States.svg
254,bairddo01,1891,1967,United States,Thomasville,Doug,Baird,3B,N,US,31.9067,-87.7598,https://upload.wikimedia.org/wikipedia/en/a/a4/Flag_of_the_United_States.svg
255,bakelje01,1864,1915,United States,Philadelphia,Jersey,Bakley,P,N,US,40.0076,-75.134,https://upload.wikimedia.org/wikipedia/en/a/a4/Flag_of_the_United_States.svg
256,bakenda01,1945,2014,United States,Galena,Dave,Bakenhaster,P,N,US,37.0632,-94.6557,https://upload.wikimedia.org/wikipedia/en/a/a4/Flag_of_the_United_States.svg
257,bakeral01,1906,1982,United States,Kenedy,Al,Baker,P,N,US,28.8176,-97.8518,https://upload.wikimedia.org/wikipedia/en/a/a4/Flag_of_the_United_States.svg
258,bakerbi01,1911,2006,United States,Myrtle Beach,Bill,Baker,C,N,US,33.6286,-78.9736,https://upload.wikimedia.org/wikipedia/en/a/a4/Flag_of_the_United_States.svg
259,bakerbo01,1878,1940,United States,New York,Bock,Baker,P,N,US,40.6052,-74.1795,https://upload.wikimedia.org/wikipedia/en/a/a4/Flag_of_the_United_States.svg
260,bakerch01,1856,1937,United States,Goffstown,Charlie,Baker,RF,N,US,43.0201,-71.5697,https://upload.wikimedia.org/wikipedia/en/a/a4/Flag_of_the_United_States.svg
262,bakerer01,1875,1945,United States,Homer,Ernie,Baker,P,N,US,34.3563,-83.4974,https://upload.wikimedia.org/wikipedia/en/a/a4/Flag_of_the_United_States.svg
263,bakerfl01,1916,2004,United States,Youngstown,Floyd,Baker,3B,N,US,30.3269,-85.5169,https://upload.wikimedia.org/wikipedia/en/a/a4/Flag_of_the_United_States.svg
264,bakerfr01,1886,1963,United States,Trappe,Home Run,Baker,3B,N,US,38.6647,-76.0507,https://upload.wikimedia.org/wikipedia/en/a/a4/Flag_of_the_United_States.svg
265,bakerfr02,1944,2010,United States,Raleigh,Frank,Baker,LF,N,US,37.8256,-88.5324,https://upload.wikimedia.org/wikipedia/en/a/a4/Flag_of_the_United_States.svg
267,bakerge02,1925,1999,United States,Davenport,Gene,Baker,2B,N,US,28.1951,-81.6062,https://upload.wikimedia.org/wikipedia/en/a/a4/Flag_of_the_United_States.svg
268,bakerho01,1888,1964,United States,Bridgeport,Howard,Baker,3B,N,US,39.3037,-80.2476,https://upload.wikimedia.org/wikipedia/en/a/a4/Flag_of_the_United_States.svg
269,bakerje01,1888,1972,United States,Tacoma,Jesse,Baker,P,N,US,47.1125,-122.5891,https://upload.wikimedia.org/wikipedia/en/a/a4/Flag_of_the_United_States.svg
271,bakerki01,1869,1927,United States,Covington,Kirtley,Baker,P,N,US,33.5146,-83.8626,https://upload.wikimedia.org/wikipedia/en/a/a4/Flag_of_the_United_States.svg
272,bakerne01,1904,1982,United States,Houston,Neal,Baker,P,N,US,29.7868,-95.3905,https://upload.wikimedia.org/wikipedia/en/a/a4/Flag_of_the_United_States.svg
274,bakerph01,1856,1940,United States,Washington,Phil,Baker,1B,N,US,38.9047,-77.0163,https://upload.wikimedia.org/wikipedia/en/a/a4/Flag_of_the_United_States.svg
275,bakerto01,1913,1991,United States,Fort Worth,Tom,Baker,P,N,US,32.6192,-97.2735,https://upload.wikimedia.org/wikipedia/en/a/a4/Flag_of_the_United_States.svg
276,bakerto02,1934,1980,United States,Port Townsend,Tom,Baker,P,N,US,48.104,-122.7945,https://upload.wikimedia.org/wikipedia/en/a/a4/Flag_of_the_United_States.svg
277,bakertr01,1891,1975,United States,Placerville,Tracy,Baker,1B,N,US,38.7195,-120.8046,https://upload.wikimedia.org/wikipedia/en/a/a4/Flag_of_the_United_States.svg
278,balasmi01,1910,1996,United States,Westford,Mike,Balas,P,N,US,42.5864,-71.4401,https://upload.wikimedia.org/wikipedia/en/a/a4/Flag_of_the_United_States.svg
279,balcebo01,1925,1990,United States,San Pedro,Bobby,Balcena,LF,N,US,33.7329,-118.2951,https://upload.wikimedia.org/wikipedia/en/a/a4/Flag_of_the_United_States.svg
280,baldwbi01,1948,2011,United States,Hudson,Billy,Baldwin,RF,N,US,28.3506,-82.6288,https://upload.wikimedia.org/wikipedia/en/a/a4/Flag_of_the_United_States.svg
282,baldwha01,1900,1958,United States,Baltimore,Harry,Baldwin,P,N,US,39.2293,-76.6907,https://upload.wikimedia.org/wikipedia/en/a/a4/Flag_of_the_United_States.svg
283,baldwhe01,1894,1964,United States,West Chester,Henry,Baldwin,SS,N,US,39.3317,-84.4072,https://upload.wikimedia.org/wikipedia/en/a/a4/Flag_of_the_United_States.svg
284,baldwki01,1864,1897,United States,Cincinnati,Kid,Baldwin,C,N,US,39.0584,-84.3396,https://upload.wikimedia.org/wikipedia/en/a/a4/Flag_of_the_United_States.svg
285,baldwla01,1859,1937,United States,Hastings,Lady,Baldwin,P,N,US,29.7051,-81.4909,https://upload.wikimedia.org/wikipedia/en/a/a4/Flag_of_the_United_States.svg
286,baldwma01,1863,1929,United States,Pittsburgh,Mark,Baldwin,P,N,US,40.3323,-80.081,https://upload.wikimedia.org/wikipedia/en/a/a4/Flag_of_the_United_States.svg
287,baldwof01,1881,1942,United States,Los Angeles,Orson,Baldwin,P,N,US,33.7866,-118.2987,https://upload.wikimedia.org/wikipedia/en/a/a4/Flag_of_the_United_States.svg
288,balenmi01,1886,1955,United States,Altus,Mike,Balenti,SS,N,US,35.4346,-93.7598,https://upload.wikimedia.org/wikipedia/en/a/a4/Flag_of_the_United_States.svg
289,ballar01,1872,1915,United States,Chicago,Art,Ball,3B,N,US,41.6642,-87.5612,https://upload.wikimedia.org/wikipedia/en/a/a4/Flag_of_the_United_States.svg
291,ballima01,1949,2014,United States,Okeechobee,Mark,Ballinger,P,N,US,27.2002,-80.841,https://upload.wikimedia.org/wikipedia/en/a/a4/Flag_of_the_United_States.svg
292,ballji01,1884,1963,United States,Glendale,Jim,Ball,C,N,US,43.1353,-87.9356,https://upload.wikimedia.org/wikipedia/en/a/a4/Flag_of_the_United_States.svg
293,ballne01,1881,1957,United States,Bridgeport,Neal,Ball,SS,N,US,39.3037,-80.2476,https://upload.wikimedia.org/wikipedia/en/a/a4/Flag_of_the_United_States.svg
294,ballowi01,1897,1963,United States,San Francisco,Win,Ballou,P,N,US,37.6811,-122.4806,https://upload.wikimedia.org/wikipedia/en/a/a4/Flag_of_the_United_States.svg
296,bambeha01,1924,2010,United States,Reading,Hal,Bamberger,RF,N,US,42.528,-71.109,https://upload.wikimedia.org/wikipedia/en/a/a4/Flag_of_the_United_States.svg
297,banckst01,1853,1888,United States,Philadelphia,Studs,Bancker,C,N,US,40.0076,-75.134,https://upload.wikimedia.org/wikipedia/en/a/a4/Flag_of_the_United_States.svg
298,bancrda01,1891,1972,United States,Superior,Dave,Bancroft,SS,N,US,46.6941,-92.0823,https://upload.wikimedia.org/wikipedia/en/a/a4/Flag_of_the_United_States.svg
299,bancrfr99,1846,1921,United States,Cincinnati,Frank,Bancroft,,N,US,39.0584,-84.3396,https://upload.wikimedia.org/wikipedia/en/a/a4/Flag_of_the_United_States.svg
300,bankhda01,1920,1976,United States,Houston,Dan,Bankhead,P,N,US,29.7868,-95.3905,https://upload.wikimedia.org/wikipedia/en/a/a4/Flag_of_the_United_States.svg
301,banksbi01,1874,1936,United States,Danville,Bill,Yerrick,P,N,US,36.5831,-79.4088,https://upload.wikimedia.org/wikipedia/en/a/a4/Flag_of_the_United_States.svg
302,bankser01,1931,2015,United States,Chicago,Ernie,Banks,1B,Y,US,41.6642,-87.5612,https://upload.wikimedia.org/wikipedia/en/a/a4/Flag_of_the_United_States.svg
303,banksev01,1893,1970,United States,Griffin,Bill,Bankston,LF,N,US,33.2404,-84.2734,https://upload.wikimedia.org/wikipedia/en/a/a4/Flag_of_the_United_States.svg
304,banksge01,1938,1985,United States,Spartanburg,George,Banks,3B,N,US,34.8937,-81.9228,https://upload.wikimedia.org/wikipedia/en/a/a4/Flag_of_the_United_States.svg
306,bannoji01,1871,1948,United States,Glen Rock,Jimmy,Bannon,RF,N,US,39.7813,-76.7477,https://upload.wikimedia.org/wikipedia/en/a/a4/Flag_of_the_United_States.svg
307,bannoto01,1869,1950,United States,Lynn,Tom,Bannon,1B,N,US,40.0519,-84.93,https://upload.wikimedia.org/wikipedia/en/a/a4/Flag_of_the_United_States.svg
308,bantaja01,1925,2006,United States,Hutchinson,Jack,Banta,P,N,US,38.055,-97.9311,https://upload.wikimedia.org/wikipedia/en/a/a4/Flag_of_the_United_States.svg
309,barbare01,1920,2003,United States,Simpsonville,Red,Barbary,P,N,US,38.2312,-85.3548,https://upload.wikimedia.org/wikipedia/en/a/a4/Flag_of_the_United_States.svg
310,barbawa01,1891,1965,United States,Greenville,Walter,Barbare,3B,N,US,31.81,-86.6229,https://upload.wikimedia.org/wikipedia/en/a/a4/Flag_of_the_United_States.svg
311,barbech01,1854,1910,United States,Philadelphia,Charlie,Barber,3B,N,US,40.0076,-75.134,https://upload.wikimedia.org/wikipedia/en/a/a4/Flag_of_the_United_States.svg
312,barbeda01,1905,1968,United States,Albemarle,Dave,Barbee,LF,N,US,35.3573,-80.2044,https://upload.wikimedia.org/wikipedia/en/a/a4/Flag_of_the_United_States.svg
313,barbefr01,1882,1965,United States,Ocala,Frank,Barberich,P,N,US,29.0058,-82.1828,https://upload.wikimedia.org/wikipedia/en/a/a4/Flag_of_the_United_States.svg
314,barbeja01,1882,1969,United States,Milwaukee,Jap,Barbeau,3B,N,US,42.951,-87.9437,https://upload.wikimedia.org/wikipedia/en/a/a4/Flag_of_the_United_States.svg
315,barbest01,1938,2007,United States,Henderson,Steve,Barber,P,N,US,32.126,-94.7488,https://upload.wikimedia.org/wikipedia/en/a/a4/Flag_of_the_United_States.svg
316,barbetu01,1893,1968,United States,Milan,Turner,Barber,LF,N,US,31.9618,-83.0588,https://upload.wikimedia.org/wikipedia/en/a/a4/Flag_of_the_United_States.svg
317,barclcu01,1931,1985,United States,Missoula,Curt,Barclay,P,N,US,46.8224,-114.0265,https://upload.wikimedia.org/wikipedia/en/a/a4/Flag_of_the_United_States.svg
318,barclge01,1876,1909,United States,Philadelphia,George,Barclay,LF,N,US,40.0076,-75.134,https://upload.wikimedia.org/wikipedia/en/a/a4/Flag_of_the_United_States.svg
319,barera01,1949,1994,United States,Miami,Ray,Bare,P,N,US,25.5584,-80.4582,https://upload.wikimedia.org/wikipedia/en/a/a4/Flag_of_the_United_States.svg
320,barfijo01,1964,2016,United States,Little Rock,John,Barfield,P,N,US,34.6725,-92.3529,https://upload.wikimedia.org/wikipedia/en/a/a4/Flag_of_the_United_States.svg
321,barfocl01,1891,1971,United States,Highland Park,Clyde,Barfoot,P,N,US,42.176,-87.809,https://upload.wikimedia.org/wikipedia/en/a/a4/Flag_of_the_United_States.svg
322,bargecy01,1885,1964,United States,Columbia,Cy,Barger,P,N,US,38.4325,-90.2027,https://upload.wikimedia.org/wikipedia/en/a/a4/Flag_of_the_United_States.svg
323,barkeal01,1839,1912,United States,Rockford,Al,Barker,LF,N,US,32.878,-86.24,https://upload.wikimedia.org/wikipedia/en/a/a4/Flag_of_the_United_States.svg
324,barkera01,1936,2018,United States,Martinsburg,Ray,Barker,1B,N,US,39.0968,-91.6646,https://upload.wikimedia.org/wikipedia/en/a/a4/Flag_of_the_United_States.svg
325,barklre01,1912,2000,United States,Waco,Red,Barkley,2B,N,US,33.684,-85.2197,https://upload.wikimedia.org/wikipedia/en/a/a4/Flag_of_the_United_States.svg
326,barklsa01,1858,1912,United States,Wheeling,Sam,Barkley,2B,N,US,40.0755,-80.6951,https://upload.wikimedia.org/wikipedia/en/a/a4/Flag_of_the_United_States.svg
327,barlial99,1915,1995,United States,Springfield,Al,Barlick,,Y,US,32.3697,-81.3618,https://upload.wikimedia.org/wikipedia/en/a/a4/Flag_of_the_United_States.svg
328,barmebr01,1929,2014,United States,Garner,Bruce,Barmes,RF,N,US,35.6828,-78.5977,https://upload.wikimedia.org/wikipedia/en/a/a4/Flag_of_the_United_States.svg
329,barnaba01,1915,1972,United States,Charleston,Babe,Barna,LF,N,US,35.3115,-94.0337,https://upload.wikimedia.org/wikipedia/en/a/a4/Flag_of_the_United_States.svg
330,barnach01,1900,1977,United States,Waco,Charlie,Barnabe,P,N,US,33.684,-85.2197,https://upload.wikimedia.org/wikipedia/en/a/a4/Flag_of_the_United_States.svg
332,barnebo01,1902,1993,United States,Peoria,Bob,Barnes,P,N,US,40.6321,-89.6903,https://upload.wikimedia.org/wikipedia/en/a/a4/Flag_of_the_United_States.svg
333,barneed01,1890,1967,United States,Rice Lake,Ed,Barney,LF,N,US,45.5061,-91.7382,https://upload.wikimedia.org/wikipedia/en/a/a4/Flag_of_the_United_States.svg
334,barneep01,1900,1980,United States,Mineola,Eppie,Barnes,1B,N,US,32.6661,-95.487,https://upload.wikimedia.org/wikipedia/en/a/a4/Flag_of_the_United_States.svg
335,barnefr01,1900,1967,United States,Houston,Frank,Barnes,P,N,US,29.7868,-95.3905,https://upload.wikimedia.org/wikipedia/en/a/a4/Flag_of_the_United_States.svg
336,barnefr02,1926,2014,United States,Greenville,Frank,Barnes,P,N,US,31.81,-86.6229,https://upload.wikimedia.org/wikipedia/en/a/a4/Flag_of_the_United_States.svg
337,barneho01,1900,1981,United States,Lockport,Honey,Barnes,C,N,US,43.1698,-78.6956,https://upload.wikimedia.org/wikipedia/en/a/a4/Flag_of_the_United_States.svg
338,barneje01,1892,1961,United States,Santa Rosa,Jesse,Barnes,P,N,US,26.2555,-97.8257,https://upload.wikimedia.org/wikipedia/en/a/a4/Flag_of_the_United_States.svg
339,barneju01,1911,1963,United States,Jacksonville,Junie,Barnes,P,N,US,33.831,-85.7752,https://upload.wikimedia.org/wikipedia/en/a/a4/Flag_of_the_United_States.svg
340,barnere01,1903,1959,United States,Mobile,Red,Barnes,LF,N,US,30.5928,-88.1946,https://upload.wikimedia.org/wikipedia/en/a/a4/Flag_of_the_United_States.svg
341,barnere02,1924,1997,United States,Baltimore,Rex,Barney,P,N,US,39.2293,-76.6907,https://upload.wikimedia.org/wikipedia/en/a/a4/Flag_of_the_United_States.svg
342,barnero01,1850,1915,United States,Chicago,Ross,Barnes,2B,N,US,41.6642,-87.5612,https://upload.wikimedia.org/wikipedia/en/a/a4/Flag_of_the_United_States.svg
343,barnesa01,1899,1981,United States,Montgomery,Sam,Barnes,2B,N,US,32.2334,-86.2085,https://upload.wikimedia.org/wikipedia/en/a/a4/Flag_of_the_United_States.svg
344,barnevi01,1897,1958,United States,Wichita,Virgil,Barnes,P,N,US,37.553,-97.2549,https://upload.wikimedia.org/wikipedia/en/a/a4/Flag_of_the_United_States.svg
345,barnhcl01,1895,1980,United States,Hagerstown,Clyde,Barnhart,LF,N,US,39.9228,-85.1601,https://upload.wikimedia.org/wikipedia/en/a/a4/Flag_of_the_United_States.svg
346,barnhed01,1904,1984,United States,Columbia,Edgar,Barnhart,P,N,US,38.4325,-90.2027,https://upload.wikimedia.org/wikipedia/en/a/a4/Flag_of_the_United_States.svg
347,barnhle01,1905,1971,United States,Scottsdale,Les,Barnhart,P,N,US,33.4669,-111.9151,https://upload.wikimedia.org/wikipedia/en/a/a4/Flag_of_the_United_States.svg
348,barnhvi01,1922,2017,United States,Hagerstown,Vic,Barnhart,SS,N,US,39.9228,-85.1601,https://upload.wikimedia.org/wikipedia/en/a/a4/Flag_of_the_United_States.svg
349,barnibi01,1853,1900,United States,Hartford,Billy,Barnie,C,N,US,31.086,-85.7192,https://upload.wikimedia.org/wikipedia/en/a/a4/Flag_of_the_United_States.svg
350,barnige01,1917,1990,United States,Largo,George,Barnicle,P,N,US,27.8803,-82.7537,https://upload.wikimedia.org/wikipedia/en/a/a4/Flag_of_the_United_States.svg
351,barnoed01,1943,2017,United States,Naples,Ed,Barnowski,P,N,US,26.0143,-81.5856,https://upload.wikimedia.org/wikipedia/en/a/a4/Flag_of_the_United_States.svg
352,barondi01,1932,2015,United States,Hollister,Dick,Barone,SS,N,US,29.6227,-81.8137,https://upload.wikimedia.org/wikipedia/en/a/a4/Flag_of_the_United_States.svg
353,barrbo01,1856,1930,United States,Washington,Bob,Barr,P,N,US,38.9047,-77.0163,https://upload.wikimedia.org/wikipedia/en/a/a4/Flag_of_the_United_States.svg
354,barrbo02,1908,2002,United States,Dover,Bob,Barr,P,N,US,35.4074,-93.1355,https://upload.wikimedia.org/wikipedia/en/a/a4/Flag_of_the_United_States.svg
355,barrebi02,1900,1951,United States,Cambridge,Bill,Barrett,RF,N,US,38.5643,-76.0874,https://upload.wikimedia.org/wikipedia/en/a/a4/Flag_of_the_United_States.svg
356,barrebo01,1899,1982,United States,Atlanta,Bob,Barrett,3B,N,US,33.6026,-84.4769,https://upload.wikimedia.org/wikipedia/en/a/a4/Flag_of_the_United_States.svg
357,barredi01,1906,1966,United States,Seattle,Dick,Barrett,P,N,US,47.3957,-122.3036,https://upload.wikimedia.org/wikipedia/en/a/a4/Flag_of_the_United_States.svg
358,barrefr01,1913,1998,United States,Leesburg,Frank,Barrett,P,N,US,34.1911,-85.7705,https://upload.wikimedia.org/wikipedia/en/a/a4/Flag_of_the_United_States.svg
359,barreji01,1875,1921,United States,Detroit,Jimmy,Barrett,LF,N,US,42.3834,-83.1024,https://upload.wikimedia.org/wikipedia/en/a/a4/Flag_of_the_United_States.svg
361,barrema01,1860,1910,United States,Holyoke,Marty,Barrett,C,N,US,42.202,-72.6262,https://upload.wikimedia.org/wikipedia/en/a/a4/Flag_of_the_United_States.svg
362,barrere01,1915,1990,United States,Wilson,Red,Barrett,P,N,US,35.731,-77.9283,https://upload.wikimedia.org/wikipedia/en/a/a4/Flag_of_the_United_States.svg
363,barrocu01,1883,1955,United States,Gorham,Cuke,Barrows,LF,N,US,38.8722,-99.0112,https://upload.wikimedia.org/wikipedia/en/a/a4/Flag_of_the_United_States.svg
364,barroed99,1868,1953,United States,Port Chester,Ed,Barrow,,Y,US,41.0213,-73.6781,https://upload.wikimedia.org/wikipedia/en/a/a4/Flag_of_the_United_States.svg
365,barrofr01,1844,1922,United States,Fitchburg,Frank,Barrows,LF,N,US,42.5781,-71.805,https://upload.wikimedia.org/wikipedia/en/a/a4/Flag_of_the_United_States.svg
366,barrofr02,1890,1964,United States,St. Marys,Frank,Barron,P,N,US,30.7305,-81.5465,https://upload.wikimedia.org/wikipedia/en/a/a4/Flag_of_the_United_States.svg
367,barrore01,1900,1982,United States,Atlanta,Red,Barron,LF,N,US,33.6026,-84.4769,https://upload.wikimedia.org/wikipedia/en/a/a4/Flag_of_the_United_States.svg
368,barrsc01,1886,1934,United States,Fort Worth,Scotty,Barr,LF,N,US,32.6192,-97.2735,https://upload.wikimedia.org/wikipedia/en/a/a4/Flag_of_the_United_States.svg
370,barryha01,1891,1969,United States,Carson City,Hardin,Barry,P,N,US,43.1695,-84.8653,https://upload.wikimedia.org/wikipedia/en/a/a4/Flag_of_the_United_States.svg
371,barryja01,1887,1961,United States,Shrewsbury,Jack,Barry,SS,N,US,39.7601,-76.6748,https://upload.wikimedia.org/wikipedia/en/a/a4/Flag_of_the_United_States.svg
372,barrysh01,1878,1936,United States,Los Angeles,Shad,Barry,RF,N,US,33.7866,-118.2987,https://upload.wikimedia.org/wikipedia/en/a/a4/Flag_of_the_United_States.svg
374,bartedi01,1907,1995,United States,Alameda,Dick,Bartell,SS,N,US,37.7351,-122.2431,https://upload.wikimedia.org/wikipedia/en/a/a4/Flag_of_the_United_States.svg
375,barthbo01,1924,2000,United States,Branford,Bob,Barthelson,P,N,US,29.9395,-82.8993,https://upload.wikimedia.org/wikipedia/en/a/a4/Flag_of_the_United_States.svg
377,barthle01,1903,1972,United States,Barrington,Les,Bartholomew,P,N,US,39.8651,-75.0564,https://upload.wikimedia.org/wikipedia/en/a/a4/Flag_of_the_United_States.svg
378,bartito01,1932,2018,United States,Bradenton,Tony,Bartirome,1B,N,US,27.4055,-82.3881,https://upload.wikimedia.org/wikipedia/en/a/a4/Flag_of_the_United_States.svg
379,bartlbi01,1885,1965,United States,Cincinnati,Bill,Bartley,P,N,US,39.0584,-84.3396,https://upload.wikimedia.org/wikipedia/en/a/a4/Flag_of_the_United_States.svg
380,bartlbo01,1920,2012,United States,North Richland Hills,Boyd,Bartley,SS,N,US,32.8404,-97.2285,https://upload.wikimedia.org/wikipedia/en/a/a4/Flag_of_the_United_States.svg
381,bartlir01,1914,1973,United States,Westland,Irv,Bartling,SS,N,US,42.2876,-83.3734,https://upload.wikimedia.org/wikipedia/en/a/a4/Flag_of_the_United_States.svg
382,bartobo01,1941,2018,United States,Vista,Bob,Barton,C,N,US,33.1644,-117.2403,https://upload.wikimedia.org/wikipedia/en/a/a4/Flag_of_the_United_States.svg
383,bartoda01,1917,2006,United States,Nashville,Dave,Bartosch,RF,N,US,33.9576,-93.8707,https://upload.wikimedia.org/wikipedia/en/a/a4/Flag_of_the_United_States.svg
384,bartoha01,1875,1955,United States,Upland,Harry,Barton,C,N,US,40.4548,-85.499,https://upload.wikimedia.org/wikipedia/en/a/a4/Flag_of_the_United_States.svg
385,bartsch01,1865,1936,United States,Peoria,Charlie,Bartson,P,N,US,40.6321,-89.6903,https://upload.wikimedia.org/wikipedia/en/a/a4/Flag_of_the_United_States.svg
386,basgamo01,1922,2005,United States,Sierra Vista,Monty,Basgall,2B,N,US,31.4892,-110.2153,https://upload.wikimedia.org/wikipedia/en/a/a4/Flag_of_the_United_States.svg
387,bashaal01,1888,1967,United States,Cincinnati,Al,Bashang,LF,N,US,39.0584,-84.3396,https://upload.wikimedia.org/wikipedia/en/a/a4/Flag_of_the_United_States.svg
388,bashowa01,1909,1984,United States,Sebring,Walt,Bashore,LF,N,US,27.4287,-81.3519,https://upload.wikimedia.org/wikipedia/en/a/a4/Flag_of_the_United_States.svg
389,baskeji01,1887,1942,United States,Athens,Jim,Baskette,P,N,US,33.9332,-83.3536,https://upload.wikimedia.org/wikipedia/en/a/a4/Flag_of_the_United_States.svg
390,bassdi01,1906,1989,United States,Graceville,Dick,Bass,P,N,US,30.9426,-85.5136,https://upload.wikimedia.org/wikipedia/en/a/a4/Flag_of_the_United_States.svg
391,bassdo01,1898,1970,United States,Macon,Doc,Bass,P,N,US,32.7486,-83.7477,https://upload.wikimedia.org/wikipedia/en/a/a4/Flag_of_the_United_States.svg
392,bassech01,1863,1942,United States,Pawtucket,Charley,Bassett,2B,N,US,41.874,-71.3844,https://upload.wikimedia.org/wikipedia/en/a/a4/Flag_of_the_United_States.svg
393,bassjo01,1848,1888,United States,Denver,John,Bass,SS,N,US,35.4837,-80.9898,https://upload.wikimedia.org/wikipedia/en/a/a4/Flag_of_the_United_States.svg
394,bassljo01,1895,1979,United States,Santa Monica,Johnny,Bassler,C,N,US,34.0125,-118.4682,https://upload.wikimedia.org/wikipedia/en/a/a4/Flag_of_the_United_States.svg
395,bastich01,1858,1943,United States,Philadelphia,Charlie,Bastian,SS,N,US,40.0076,-75.134,https://upload.wikimedia.org/wikipedia/en/a/a4/Flag_of_the_United_States.svg
396,batchem01,1880,1926,United States,Brooklyn,Emil,Batch,3B,N,US,39.2259,-76.6153,https://upload.wikimedia.org/wikipedia/en/a/a4/Flag_of_the_United_States.svg
397,batchjo01,1898,1989,United States,Beverly,Joe,Batchelder,P,N,US,38.9844,-97.9818,https://upload.wikimedia.org/wikipedia/en/a/a4/Flag_of_the_United_States.svg
398,batemjo01,1940,1996,United States,Sand Springs,John,Bateman,C,N,US,36.1341,-96.1426,https://upload.wikimedia.org/wikipedia/en/a/a4/Flag_of_the_United_States.svg
399,batesbu01,1912,1987,United States,Long Beach,Bud,Bates,LF,N,US,30.3598,-89.1646,https://upload.wikimedia.org/wikipedia/en/a/a4/Flag_of_the_United_States.svg
400,batesch01,1907,1980,United States,Topeka,Charlie,Bates,RF,N,US,38.9045,-95.7015,https://upload.wikimedia.org/wikipedia/en/a/a4/Flag_of_the_United_States.svg
401,batesde01,1940,2009,United States,Spokane,Del,Bates,C,N,US,47.6671,-117.433,https://upload.wikimedia.org/wikipedia/en/a/a4/Flag_of_the_United_States.svg
402,batesjo01,1868,1919,United States,Oakland,John,Bates,P,N,US,28.5547,-81.6322,https://upload.wikimedia.org/wikipedia/en/a/a4/Flag_of_the_United_States.svg
403,batesjo02,1882,1949,United States,Steubenville,Johnny,Bates,LF,N,US,40.3524,-80.6781,https://upload.wikimedia.org/wikipedia/en/a/a4/Flag_of_the_United_States.svg
404,batesra01,1890,1970,United States,Tucson,Ray,Bates,3B,N,US,32.0839,-110.9004,https://upload.wikimedia.org/wikipedia/en/a/a4/Flag_of_the_United_States.svg
405,batscbi01,1892,1963,United States,Canton,Bill,Batsch,P,N,US,34.2015,-84.4222,https://upload.wikimedia.org/wikipedia/en/a/a4/Flag_of_the_United_States.svg
406,battala01,1876,1938,United States,Brooklyn,Larry,Battam,3B,N,US,39.2259,-76.6153,https://upload.wikimedia.org/wikipedia/en/a/a4/Flag_of_the_United_States.svg
407,batteea01,1935,2003,United States,Ocala,Earl,Battey,C,N,US,29.0058,-82.1828,https://upload.wikimedia.org/wikipedia/en/a/a4/Flag_of_the_United_States.svg
408,battege01,1891,1972,United States,New Port Richey,George,Batten,2B,N,US,28.2137,-82.6809,https://upload.wikimedia.org/wikipedia/en/a/a4/Flag_of_the_United_States.svg
409,battijo01,1853,1937,United States,Akron,Joe,Battin,3B,N,US,32.8553,-87.7219,https://upload.wikimedia.org/wikipedia/en/a/a4/Flag_of_the_United_States.svg
410,battlji01,1901,1965,United States,Chico,Jim,Battle,3B,N,US,33.3193,-97.8031,https://upload.wikimedia.org/wikipedia/en/a/a4/Flag_of_the_United_States.svg
411,battsma01,1921,2013,United States,Baton Rouge,Matt,Batts,C,N,US,30.3608,-91.0917,https://upload.wikimedia.org/wikipedia/en/a/a4/Flag_of_the_United_States.svg
412,baueral01,1859,1944,United States,Columbus,Al,Bauer,P,N,US,43.3354,-89.03,https://upload.wikimedia.org/wikipedia/en/a/a4/Flag_of_the_United_States.svg
413,bauerha01,1922,2007,United States,Lenexa,Hank,Bauer,RF,N,US,38.9523,-94.7395,https://upload.wikimedia.org/wikipedia/en/a/a4/Flag_of_the_United_States.svg
414,bauerlo01,1898,1979,United States,Pomona,Lou,Bauer,P,N,US,34.0585,-117.7625,https://upload.wikimedia.org/wikipedia/en/a/a4/Flag_of_the_United_States.svg
415,bauerru01,1914,1995,United States,Hines,Russ,Bauers,P,N,US,47.7324,-94.6477,https://upload.wikimedia.org/wikipedia/en/a/a4/Flag_of_the_United_States.svg
416,baumapa01,1885,1969,United States,Indianapolis,Paddy,Baumann,2B,N,US,39.667,-85.9981,https://upload.wikimedia.org/wikipedia/en/a/a4/Flag_of_the_United_States.svg
417,baumeji01,1931,1996,United States,Paoli,Jim,Baumer,2B,N,US,38.5507,-86.449,https://upload.wikimedia.org/wikipedia/en/a/a4/Flag_of_the_United_States.svg
418,baumgge01,1891,1970,United States,Barboursville,George,Baumgardner,P,N,US,38.2095,-78.3098,https://upload.wikimedia.org/wikipedia/en/a/a4/Flag_of_the_United_States.svg
419,baumgha01,1892,1930,United States,Augusta,Harry,Baumgartner,P,N,US,35.2788,-91.3527,https://upload.wikimedia.org/wikipedia/en/a/a4/Flag_of_the_United_States.svg
420,baumgst01,1894,1955,United States,Philadelphia,Stan,Baumgartner,P,N,US,40.0076,-75.134,https://upload.wikimedia.org/wikipedia/en/a/a4/Flag_of_the_United_States.svg
421,baumhfr01,1918,1997,United States,Winter Springs,Frank,Baumholtz,RF,N,US,28.6841,-81.2812,https://upload.wikimedia.org/wikipedia/en/a/a4/Flag_of_the_United_States.svg
422,bausege01,1869,1947,United States,Norristown,George,Bausewine,P,N,US,40.1215,-75.3269,https://upload.wikimedia.org/wikipedia/en/a/a4/Flag_of_the_United_States.svg
423,baxesji01,1928,1996,United States,Garden Grove,Jim,Baxes,2B,N,US,33.7787,-117.9601,https://upload.wikimedia.org/wikipedia/en/a/a4/Flag_of_the_United_States.svg
424,baxtemo01,1876,1926,United States,Portland,Moose,Baxter,1B,N,US,27.8913,-97.328,https://upload.wikimedia.org/wikipedia/en/a/a4/Flag_of_the_United_States.svg
425,bayha01,1878,1952,United States,Peoria,Harry,Bay,LF,N,US,40.6321,-89.6903,https://upload.wikimedia.org/wikipedia/en/a/a4/Flag_of_the_United_States.svg
427,baylodo01,1949,2017,United States,Austin,Don,Baylor,DH,N,US,34.9921,-91.9798,https://upload.wikimedia.org/wikipedia/en/a/a4/Flag_of_the_United_States.svg
429,beachja01,1862,1896,United States,Alexandria,Jack,Beach,RF,N,US,38.9406,-84.3943,https://upload.wikimedia.org/wikipedia/en/a/a4/Flag_of_the_United_States.svg
430,bealljo01,1882,1926,United States,Beltsville,Johnny,Beall,LF,N,US,39.0471,-76.9285,https://upload.wikimedia.org/wikipedia/en/a/a4/Flag_of_the_United_States.svg
431,beallwa01,1899,1959,United States,Suitland,Walter,Beall,P,N,US,38.8425,-76.9222,https://upload.wikimedia.org/wikipedia/en/a/a4/Flag_of_the_United_States.svg
432,bealsto01,1850,1915,United States,San Francisco,Tommy,Beals,2B,N,US,37.6811,-122.4806,https://upload.wikimedia.org/wikipedia/en/a/a4/Flag_of_the_United_States.svg
433,beamal01,1869,1938,United States,Nogales,Alex,Beam,P,N,US,31.377,-110.9435,https://upload.wikimedia.org/wikipedia/en/a/a4/Flag_of_the_United_States.svg
434,beamer01,1867,1918,United States,Mansfield,Ernie,Beam,P,N,US,33.4314,-83.7908,https://upload.wikimedia.org/wikipedia/en/a/a4/Flag_of_the_United_States.svg
435,beamoch01,1934,2016,United States,San Leandro,Charlie,Beamon,P,N,US,37.6868,-122.1496,https://upload.wikimedia.org/wikipedia/en/a/a4/Flag_of_the_United_States.svg
436,beanbe01,1905,1988,United States,Comanche,Belve,Bean,P,N,US,34.3765,-97.9793,https://upload.wikimedia.org/wikipedia/en/a/a4/Flag_of_the_United_States.svg
437,beanjo01,1874,1961,United States,Atlanta,Joe,Bean,SS,N,US,33.6026,-84.4769,https://upload.wikimedia.org/wikipedia/en/a/a4/Flag_of_the_United_States.svg
438,beardge01,1920,2004,United States,Alexander City,Gene,Bearden,P,N,US,32.9164,-85.9368,https://upload.wikimedia.org/wikipedia/en/a/a4/Flag_of_the_United_States.svg
439,beardol01,1862,1929,United States,Cincinnati,Ollie,Beard,SS,N,US,39.0584,-84.3396,https://upload.wikimedia.org/wikipedia/en/a/a4/Flag_of_the_United_States.svg
440,beardra01,1929,2003,United States,West Palm Beach,Ralph,Beard,P,N,US,26.6396,-80.0827,https://upload.wikimedia.org/wikipedia/en/a/a4/Flag_of_the_United_States.svg
441,beardte01,1921,2011,United States,Fishers,Ted,Beard,RF,N,US,39.9564,-85.9651,https://upload.wikimedia.org/wikipedia/en/a/a4/Flag_of_the_United_States.svg
442,bearnla01,1941,1999,United States,Seminole,Larry,Bearnarth,P,N,US,27.8429,-82.7834,https://upload.wikimedia.org/wikipedia/en/a/a4/Flag_of_the_United_States.svg
443,beatied01,1866,1925,United States,Baltimore,Ed,Beatin,P,N,US,39.2293,-76.6907,https://upload.wikimedia.org/wikipedia/en/a/a4/Flag_of_the_United_States.svg
444,beatlda01,1864,1925,United States,New York,Dave,Beadle,C,N,US,40.6052,-74.1795,https://upload.wikimedia.org/wikipedia/en/a/a4/Flag_of_the_United_States.svg
445,beattde01,1893,1969,United States,Norway,Desmond,Beatty,3B,N,US,33.4534,-81.1097,https://upload.wikimedia.org/wikipedia/en/a/a4/Flag_of_the_United_States.svg
446,beaucji01,1939,2007,United States,Union City,Jim,Beauchamp,1B,N,US,33.5832,-84.5499,https://upload.wikimedia.org/wikipedia/en/a/a4/Flag_of_the_United_States.svg
447,beaumgi01,1876,1956,United States,Burlington,Ginger,Beaumont,LF,N,US,38.2363,-95.7336,https://upload.wikimedia.org/wikipedia/en/a/a4/Flag_of_the_United_States.svg
448,beazljo01,1918,1990,United States,Nashville,Johnny,Beazley,P,N,US,33.9576,-93.8707,https://upload.wikimedia.org/wikipedia/en/a/a4/Flag_of_the_United_States.svg
449,becanbu01,1859,1923,United States,New York,Buck,Becannon,P,N,US,40.6052,-74.1795,https://upload.wikimedia.org/wikipedia/en/a/a4/Flag_of_the_United_States.svg
450,bechlst01,1979,2003,United States,Fort Lauderdale,Steve,Bechler,P,N,US,26.048,-80.3749,https://upload.wikimedia.org/wikipedia/en/a/a4/Flag_of_the_United_States.svg
451,bechtge01,1848,1921,United States,Philadelphia,George,Bechtel,RF,N,US,40.0076,-75.134,https://upload.wikimedia.org/wikipedia/en/a/a4/Flag_of_the_United_States.svg
452,beckbo01,1904,1987,United States,Champaign,Boom-Boom,Beck,P,N,US,40.1016,-88.2822,https://upload.wikimedia.org/wikipedia/en/a/a4/Flag_of_the_United_States.svg
453,beckcl01,1900,1988,United States,Temple City,Clyde,Beck,3B,N,US,34.1021,-118.0474,https://upload.wikimedia.org/wikipedia/en/a/a4/Flag_of_the_United_States.svg
454,beckebe01,1886,1943,United States,Huntington Park,Beals,Becker,RF,N,US,33.9794,-118.2176,https://upload.wikimedia.org/wikipedia/en/a/a4/Flag_of_the_United_States.svg
455,beckebo01,1875,1951,United States,Syracuse,Bob,Becker,P,N,US,43.0409,-76.1438,https://upload.wikimedia.org/wikipedia/en/a/a4/Flag_of_the_United_States.svg
456,beckech01,1890,1928,United States,Washington,Charlie,Becker,P,N,US,38.9047,-77.0163,https://upload.wikimedia.org/wikipedia/en/a/a4/Flag_of_the_United_States.svg
457,beckehe01,1884,1949,United States,Jackson Heights,Heinie,Beckendorf,C,N,US,40.7513,-73.883,https://upload.wikimedia.org/wikipedia/en/a/a4/Flag_of_the_United_States.svg
458,beckehe02,1915,1991,United States,Dallas,Heinz,Becker,1B,N,US,33.8992,-84.8572,https://upload.wikimedia.org/wikipedia/en/a/a4/Flag_of_the_United_States.svg
459,beckejo01,1908,1998,United States,Sunset Hills,Joe,Becker,C,N,,38.531,-90.4088,https://upload.wikimedia.org/wikipedia/en/a/a4/Flag_of_the_United_States.svg
460,beckema01,1893,1957,United States,Cincinnati,Marty,Becker,LF,N,US,39.0584,-84.3396,https://upload.wikimedia.org/wikipedia/en/a/a4/Flag_of_the_United_States.svg
461,becker01,1878,1916,United States,Toledo,Erve,Beck,2B,N,US,39.2772,-88.2468,https://upload.wikimedia.org/wikipedia/en/a/a4/Flag_of_the_United_States.svg
463,beckge01,1890,1973,United States,South Bend,George,Beck,P,N,US,41.5968,-86.293,https://upload.wikimedia.org/wikipedia/en/a/a4/Flag_of_the_United_States.svg
464,becklja01,1867,1918,United States,Kansas City,Jake,Beckley,1B,N,US,38.9716,-94.6146,https://upload.wikimedia.org/wikipedia/en/a/a4/Flag_of_the_United_States.svg
465,beckmbi01,1907,1990,United States,Florissant,Bill,Beckmann,P,N,US,38.7943,-90.2817,https://upload.wikimedia.org/wikipedia/en/a/a4/Flag_of_the_United_States.svg
466,beckmji01,1905,1974,United States,Montgomery,Jim,Beckman,P,N,US,32.2334,-86.2085,https://upload.wikimedia.org/wikipedia/en/a/a4/Flag_of_the_United_States.svg
467,beckro01,1968,2007,United States,Phoenix,Rod,Beck,P,N,US,39.4833,-76.5776,https://upload.wikimedia.org/wikipedia/en/a/a4/Flag_of_the_United_States.svg
468,beckzi01,1885,1981,United States,West Palm Beach,Zinn,Beck,3B,N,US,26.6396,-80.0827,https://upload.wikimedia.org/wikipedia/en/a/a4/Flag_of_the_United_States.svg
469,bedfoge01,1896,1977,United States,San Antonio,Gene,Bedford,2B,N,US,28.3371,-82.2882,https://upload.wikimedia.org/wikipedia/en/a/a4/Flag_of_the_United_States.svg
470,bedgoph01,1898,1927,United States,Fort Pierce,Phil,Bedgood,P,N,,27.4256,-80.3425,https://upload.wikimedia.org/wikipedia/en/a/a4/Flag_of_the_United_States.svg
471,bediehu01,1889,1965,United States,Jamestown,Hugh,Bedient,P,N,US,39.9579,-86.6236,https://upload.wikimedia.org/wikipedia/en/a/a4/Flag_of_the_United_States.svg
473,beebefr01,1879,1957,United States,Elgin,Fred,Beebe,P,N,US,30.3512,-97.3876,https://upload.wikimedia.org/wikipedia/en/a/a4/Flag_of_the_United_States.svg
474,beeched01,1859,1935,United States,Hartford,Ed,Beecher,LF,N,US,31.086,-85.7192,https://upload.wikimedia.org/wikipedia/en/a/a4/Flag_of_the_United_States.svg
476,beechro01,1884,1952,United States,Toledo,Roy,Beecher,P,N,US,39.2772,-88.2468,https://upload.wikimedia.org/wikipedia/en/a/a4/Flag_of_the_United_States.svg
477,beelejo01,1920,2002,United States,Mesquite,Jodie,Beeler,2B,N,US,32.7272,-96.5669,https://upload.wikimedia.org/wikipedia/en/a/a4/Flag_of_the_United_States.svg
478,beerscl01,1918,2002,United States,Tucson,Clarence,Beers,P,N,US,32.0839,-110.9004,https://upload.wikimedia.org/wikipedia/en/a/a4/Flag_of_the_United_States.svg
479,beggsjo01,1910,1983,United States,Indianapolis,Joe,Beggs,P,N,US,39.667,-85.9981,https://upload.wikimedia.org/wikipedia/en/a/a4/Flag_of_the_United_States.svg
480,begleed01,1863,1919,United States,Waterbury,Ed,Bagley,P,N,US,41.5363,-73.0306,https://upload.wikimedia.org/wikipedia/en/a/a4/Flag_of_the_United_States.svg
481,beglege01,1861,1901,United States,Long Island City,Gene,Bagley,C,N,US,40.7429,-73.9392,https://upload.wikimedia.org/wikipedia/en/a/a4/Flag_of_the_United_States.svg
482,begleji01,1902,1957,United States,San Francisco,Jim,Begley,2B,N,US,37.6811,-122.4806,https://upload.wikimedia.org/wikipedia/en/a/a4/Flag_of_the_United_States.svg
484,behelst01,1860,1945,United States,Los Angeles,Steve,Behel,LF,N,US,33.7866,-118.2987,https://upload.wikimedia.org/wikipedia/en/a/a4/Flag_of_the_United_States.svg
485,behenri01,1960,2012,United States,Newnan,Rick,Behenna,P,N,US,33.361,-84.8142,https://upload.wikimedia.org/wikipedia/en/a/a4/Flag_of_the_United_States.svg
486,behrmha01,1921,1987,United States,New York,Hank,Behrman,P,N,US,40.6052,-74.1795,https://upload.wikimedia.org/wikipedia/en/a/a4/Flag_of_the_United_States.svg
487,bejmaol01,1907,1995,United States,South Bend,Ollie,Bejma,2B,N,US,41.5968,-86.293,https://upload.wikimedia.org/wikipedia/en/a/a4/Flag_of_the_United_States.svg
488,belanma01,1944,1998,United States,New York,Mark,Belanger,SS,N,US,40.6052,-74.1795,https://upload.wikimedia.org/wikipedia/en/a/a4/Flag_of_the_United_States.svg
489,belarwa01,1930,1993,United States,Santa Cruz,Wayne,Belardi,1B,N,US,36.9689,-121.9903,https://upload.wikimedia.org/wikipedia/en/a/a4/Flag_of_the_United_States.svg
490,beldeir01,1874,1916,United States,Lakewood,Ira,Belden,RF,N,US,36.2416,-86.6117,https://upload.wikimedia.org/wikipedia/en/a/a4/Flag_of_the_United_States.svg
491,belinbo01,1936,2001,United States,Las Vegas,Bo,Belinsky,P,N,US,35.5949,-105.2272,https://upload.wikimedia.org/wikipedia/en/a/a4/Flag_of_the_United_States.svg
492,bellaze01,1930,2013,United States,Greenwich,Zeke,Bella,RF,N,US,41.0265,-73.6285,https://upload.wikimedia.org/wikipedia/en/a/a4/Flag_of_the_United_States.svg
493,bellbe01,1907,1977,United States,Bryan,Beau,Bell,RF,N,US,30.6327,-96.3662,https://upload.wikimedia.org/wikipedia/en/a/a4/Flag_of_the_United_States.svg
494,bellbi01,1933,1962,United States,Durham,Bill,Bell,P,N,US,35.9112,-78.9178,https://upload.wikimedia.org/wikipedia/en/a/a4/Flag_of_the_United_States.svg
495,bellch01,1868,1937,United States,Cincinnati,Charlie,Bell,P,N,US,39.0584,-84.3396,https://upload.wikimedia.org/wikipedia/en/a/a4/Flag_of_the_United_States.svg
497,bellfe01,1913,2000,United States,Rancho Mirage,Fern,Bell,LF,N,US,33.7643,-116.4225,https://upload.wikimedia.org/wikipedia/en/a/a4/Flag_of_the_United_States.svg
498,bellfr01,1862,1891,United States,Cincinnati,Frank,Bell,C,N,US,39.0584,-84.3396,https://upload.wikimedia.org/wikipedia/en/a/a4/Flag_of_the_United_States.svg
499,bellge01,1874,1941,United States,New York,George,Bell,P,N,US,40.6052,-74.1795,https://upload.wikimedia.org/wikipedia/en/a/a4/Flag_of_the_United_States.svg
500,bellgu01,1928,1995,United States,Montgomery,Gus,Bell,LF,N,US,32.2334,-86.2085,https://upload.wikimedia.org/wikipedia/en/a/a4/Flag_of_the_United_States.svg
501,bellhi01,1897,1949,United States,Glendale,Hi,Bell,P,N,US,43.1353,-87.9356,https://upload.wikimedia.org/wikipedia/en/a/a4/Flag_of_the_United_States.svg
502,bellle01,1901,1985,United States,Hershey,Les,Bell,3B,N,US,40.2638,-76.6545,https://upload.wikimedia.org/wikipedia/en/a/a4/Flag_of_the_United_States.svg
503,bellmja01,1864,1931,United States,Louisville,Jack,Bellman,C,N,US,31.7943,-85.5581,https://upload.wikimedia.org/wikipedia/en/a/a4/Flag_of_the_United_States.svg
504,bellra01,1890,1959,United States,Burlington,Ralph,Bell,P,N,US,38.2363,-95.7336,https://upload.wikimedia.org/wikipedia/en/a/a4/Flag_of_the_United_States.svg
505,bellru01,1881,1955,United States,Albuquerque,Rudy,Baerwald,LF,N,US,35.0443,-106.6729,https://upload.wikimedia.org/wikipedia/en/a/a4/Flag_of_the_United_States.svg
506,bemisha01,1874,1947,United States,Cleveland,Harry,Bemis,C,N,US,33.9778,-86.5598,https://upload.wikimedia.org/wikipedia/en/a/a4/Flag_of_the_United_States.svg
507,bendech01,1884,1954,United States,Philadelphia,Chief,Bender,P,N,US,40.0076,-75.134,https://upload.wikimedia.org/wikipedia/en/a/a4/Flag_of_the_United_States.svg
508,benedar01,1862,1948,United States,Denver,Art,Benedict,2B,N,US,35.4837,-80.9898,https://upload.wikimedia.org/wikipedia/en/a/a4/Flag_of_the_United_States.svg
509,benesjo01,1901,1975,United States,Elmhurst,Joe,Benes,SS,N,US,41.8957,-87.9435,https://upload.wikimedia.org/wikipedia/en/a/a4/Flag_of_the_United_States.svg
510,bengera01,1902,1997,United States,Centerville,Ray,Benge,P,N,US,32.6344,-83.6768,https://upload.wikimedia.org/wikipedia/en/a/a4/Flag_of_the_United_States.svg
511,bengobe01,1898,1968,United States,Philadelphia,Benny,Bengough,C,N,US,40.0076,-75.134,https://upload.wikimedia.org/wikipedia/en/a/a4/Flag_of_the_United_States.svg
512,benjast01,1914,2009,United States,Harwich,Stan,Benjamin,RF,N,US,41.7008,-70.0579,https://upload.wikimedia.org/wikipedia/en/a/a4/Flag_of_the_United_States.svg
513,bennech01,1854,1927,United States,Detroit,Charlie,Bennett,C,N,US,42.3834,-83.1024,https://upload.wikimedia.org/wikipedia/en/a/a4/Flag_of_the_United_States.svg
514,bennede01,1939,2012,United States,Klamath Falls,Dennis,Bennett,P,N,US,42.1921,-121.7233,https://upload.wikimedia.org/wikipedia/en/a/a4/Flag_of_the_United_States.svg
515,bennefr01,1904,1966,United States,Wilmington,Frank,Bennett,P,N,US,39.7168,-75.6184,https://upload.wikimedia.org/wikipedia/en/a/a4/Flag_of_the_United_States.svg
517,bennehe01,1896,1964,United States,Springfield,Herschel,Bennett,LF,N,US,32.3697,-81.3618,https://upload.wikimedia.org/wikipedia/en/a/a4/Flag_of_the_United_States.svg
518,benneik01,1856,1932,United States,Philadelphia,Ike,Benners,LF,N,US,40.0076,-75.134,https://upload.wikimedia.org/wikipedia/en/a/a4/Flag_of_the_United_States.svg
519,bennejo01,1900,1987,United States,Morro Bay,Joe,Bennett,3B,N,US,35.3795,-120.8447,https://upload.wikimedia.org/wikipedia/en/a/a4/Flag_of_the_United_States.svg
520,bennepu01,1874,1935,United States,Kirkland,Pug,Bennett,2B,N,US,42.1014,-88.8685,https://upload.wikimedia.org/wikipedia/en/a/a4/Flag_of_the_United_States.svg
521,bennhe01,1890,1967,United States,Madison,Henry,Benn,P,N,US,34.643,-86.8168,https://upload.wikimedia.org/wikipedia/en/a/a4/Flag_of_the_United_States.svg
523,bensove01,1924,2014,United States,Salisbury,Vern,Benson,3B,N,US,38.3523,-75.5386,https://upload.wikimedia.org/wikipedia/en/a/a4/Flag_of_the_United_States.svg
524,bentlcy01,1850,1873,United States,Middletown,Cy,Bentley,P,N,US,39.4851,-75.6794,https://upload.wikimedia.org/wikipedia/en/a/a4/Flag_of_the_United_States.svg
525,bentlja01,1895,1969,United States,Olney,Jack,Bentley,P,N,US,38.7334,-88.0809,https://upload.wikimedia.org/wikipedia/en/a/a4/Flag_of_the_United_States.svg
526,bentoal01,1911,1968,United States,Lynwood,Al,Benton,P,N,US,33.9277,-118.2034,https://upload.wikimedia.org/wikipedia/en/a/a4/Flag_of_the_United_States.svg
528,bentora01,1901,1984,United States,Mesquite,Rabbit,Benton,2B,N,US,32.7272,-96.5669,https://upload.wikimedia.org/wikipedia/en/a/a4/Flag_of_the_United_States.svg
529,bentoru01,1890,1937,United States,Dothan,Rube,Benton,P,N,US,31.1498,-85.369,https://upload.wikimedia.org/wikipedia/en/a/a4/Flag_of_the_United_States.svg
530,bentosi01,1894,1977,United States,Fayetteville,Sid,Benton,P,N,US,36.0557,-94.1567,https://upload.wikimedia.org/wikipedia/en/a/a4/Flag_of_the_United_States.svg
531,benzjo01,1886,1957,United States,Chicago,Joe,Benz,P,N,US,41.6642,-87.5612,https://upload.wikimedia.org/wikipedia/en/a/a4/Flag_of_the_United_States.svg
532,berarjo01,1917,1996,United States,Los Angeles,Johnny,Berardino,2B,N,US,33.7866,-118.2987,https://upload.wikimedia.org/wikipedia/en/a/a4/Flag_of_the_United_States.svg
533,berbelo01,1929,2004,United States,Las Vegas,Lou,Berberet,C,N,US,35.5949,-105.2272,https://upload.wikimedia.org/wikipedia/en/a/a4/Flag_of_the_United_States.svg
534,bergaau01,1917,1974,United States,Grosse Pointe,Augie,Bergamo,RF,N,US,42.3847,-82.9244,https://upload.wikimedia.org/wikipedia/en/a/a4/Flag_of_the_United_States.svg
535,bergebi01,1878,1943,United States,Worcester,Bill,Bergen,C,N,US,42.2303,-71.7938,https://upload.wikimedia.org/wikipedia/en/a/a4/Flag_of_the_United_States.svg
536,bergebo01,1910,1992,United States,Bethesda,Boze,Berger,2B,N,US,38.9618,-77.1193,https://upload.wikimedia.org/wikipedia/en/a/a4/Flag_of_the_United_States.svg
537,bergecl01,1894,1959,United States,Washington,Clarence,Berger,RF,N,US,38.9047,-77.0163,https://upload.wikimedia.org/wikipedia/en/a/a4/Flag_of_the_United_States.svg
538,bergehe01,1882,1954,United States,Lakewood,Heinie,Berger,P,N,US,36.2416,-86.6117,https://upload.wikimedia.org/wikipedia/en/a/a4/Flag_of_the_United_States.svg
539,bergejo01,1886,1956,United States,Rock Island,Joe,Berger,2B,N,US,35.7668,-85.6788,https://upload.wikimedia.org/wikipedia/en/a/a4/Flag_of_the_United_States.svg
540,bergejo02,1901,1979,United States,Lake Charles,Johnny,Berger,C,N,US,30.1244,-93.1835,https://upload.wikimedia.org/wikipedia/en/a/a4/Flag_of_the_United_States.svg
541,bergema01,1871,1900,United States,North Brookfield,Marty,Bergen,C,N,US,42.2665,-72.0821,https://upload.wikimedia.org/wikipedia/en/a/a4/Flag_of_the_United_States.svg
542,bergetu01,1867,1907,United States,Pittsburgh,Tun,Berger,SS,N,US,40.3323,-80.081,https://upload.wikimedia.org/wikipedia/en/a/a4/Flag_of_the_United_States.svg
543,bergewa01,1905,1988,United States,Redondo Beach,Wally,Berger,LF,N,US,33.8303,-118.3795,https://upload.wikimedia.org/wikipedia/en/a/a4/Flag_of_the_United_States.svg
544,berghjo01,1857,1883,United States,Boston,John,Bergh,C,N,US,37.7408,-85.5948,https://upload.wikimedia.org/wikipedia/en/a/a4/Flag_of_the_United_States.svg
545,berghma01,1888,1957,United States,Pittsburgh,Marty,Berghammer,SS,N,US,40.3323,-80.081,https://upload.wikimedia.org/wikipedia/en/a/a4/Flag_of_the_United_States.svg
546,bergmal01,1889,1961,United States,Fort Wayne,Al,Bergman,2B,N,US,41.0052,-85.1527,https://upload.wikimedia.org/wikipedia/en/a/a4/Flag_of_the_United_States.svg
547,bergmda01,1953,2015,United States,Detroit,Dave,Bergman,1B,N,US,42.3834,-83.1024,https://upload.wikimedia.org/wikipedia/en/a/a4/Flag_of_the_United_States.svg
548,bergmo01,1902,1972,United States,Belleville,Moe,Berg,C,N,US,38.5165,-89.9899,https://upload.wikimedia.org/wikipedia/en/a/a4/Flag_of_the_United_States.svg
549,berkefr01,1853,1932,United States,Merchantville,Frank,Berkelbach,LF,N,US,39.9464,-75.0517,https://upload.wikimedia.org/wikipedia/en/a/a4/Flag_of_the_United_States.svg
550,berkena01,1832,1900,United States,Philadelphia,Nate,Berkenstock,RF,N,US,40.0076,-75.134,https://upload.wikimedia.org/wikipedia/en/a/a4/Flag_of_the_United_States.svg
551,berlyja01,1903,1977,United States,Houston,Jack,Berly,P,N,US,29.7868,-95.3905,https://upload.wikimedia.org/wikipedia/en/a/a4/Flag_of_the_United_States.svg
552,bermabo01,1899,1988,United States,Bridgeport,Bob,Berman,C,N,US,39.3037,-80.2476,https://upload.wikimedia.org/wikipedia/en/a/a4/Flag_of_the_United_States.svg
553,bernacu01,1878,1955,United States,Culver City,Curt,Bernard,RF,N,US,33.9924,-118.3991,https://upload.wikimedia.org/wikipedia/en/a/a4/Flag_of_the_United_States.svg
554,bernajo01,1882,1960,United States,Springfield,Joe,Bernard,P,N,US,32.3697,-81.3618,https://upload.wikimedia.org/wikipedia/en/a/a4/Flag_of_the_United_States.svg
555,bernavi01,1953,2006,United States,Arcadia,Victor,Bernal,P,N,US,27.0675,-81.9855,https://upload.wikimedia.org/wikipedia/en/a/a4/Flag_of_the_United_States.svg
556,bernhbi01,1871,1949,United States,San Diego,Bill,Bernhard,P,N,US,32.8312,-117.1226,https://upload.wikimedia.org/wikipedia/en/a/a4/Flag_of_the_United_States.svg
557,bernhwa01,1893,1958,United States,Watertown,Walter,Bernhardt,P,N,US,36.0953,-86.1434,https://upload.wikimedia.org/wikipedia/en/a/a4/Flag_of_the_United_States.svg
558,berojo01,1922,1985,United States,Gardena,Johnny,Bero,SS,N,US,33.8766,-118.2835,https://upload.wikimedia.org/wikipedia/en/a/a4/Flag_of_the_United_States.svg
559,berrade01,1887,1943,United States,Boston,Dennis,Berran,LF,N,US,37.7408,-85.5948,https://upload.wikimedia.org/wikipedia/en/a/a4/Flag_of_the_United_States.svg
561,berrera01,1907,2007,United States,Kenosha,Ray,Berres,C,N,US,42.5601,-87.8756,https://upload.wikimedia.org/wikipedia/en/a/a4/Flag_of_the_United_States.svg
562,berrych01,1860,1940,United States,Phillipsburg,Charlie,Berry,2B,N,US,39.7623,-99.3328,https://upload.wikimedia.org/wikipedia/en/a/a4/Flag_of_the_United_States.svg
563,berrych02,1902,1972,United States,Evanston,Charlie,Berry,C,N,US,41.2602,-110.9646,https://upload.wikimedia.org/wikipedia/en/a/a4/Flag_of_the_United_States.svg
564,berrycl01,1880,1974,United States,Richmond,Claude,Berry,C,N,US,39.8335,-84.8983,https://upload.wikimedia.org/wikipedia/en/a/a4/Flag_of_the_United_States.svg
566,berryjo02,1894,1976,United States,Philadelphia,Joe,Berry,2B,N,US,40.0076,-75.134,https://upload.wikimedia.org/wikipedia/en/a/a4/Flag_of_the_United_States.svg
567,berryjo03,1904,1958,United States,Anaheim,Joe,Berry,P,N,US,33.8055,-117.9223,https://upload.wikimedia.org/wikipedia/en/a/a4/Flag_of_the_United_States.svg
568,berryne01,1922,2016,United States,Kalamazoo,Neil,Berry,SS,N,US,42.2349,-85.9005,https://upload.wikimedia.org/wikipedia/en/a/a4/Flag_of_the_United_States.svg
569,berryto01,1842,1915,United States,Chester,Tom,Berry,RF,N,US,41.357,-74.2769,https://upload.wikimedia.org/wikipedia/en/a/a4/Flag_of_the_United_States.svg
570,bertafr01,1944,2010,United States,Santa Rosa,Frank,Bertaina,P,N,US,26.2555,-97.8257,https://upload.wikimedia.org/wikipedia/en/a/a4/Flag_of_the_United_States.svg
571,bertedi01,1935,1999,United States,Mission Viejo,Dick,Bertell,C,N,US,33.6124,-117.6401,https://upload.wikimedia.org/wikipedia/en/a/a4/Flag_of_the_United_States.svg
572,berteha01,1872,1952,United States,Los Angeles,Harry,Berte,2B,N,US,33.7866,-118.2987,https://upload.wikimedia.org/wikipedia/en/a/a4/Flag_of_the_United_States.svg
573,berthha01,1844,1928,United States,Chelsea,Harry,Berthrong,LF,N,US,33.2982,-86.6563,https://upload.wikimedia.org/wikipedia/en/a/a4/Flag_of_the_United_States.svg
574,bertrle01,1909,2002,United States,The Dalles,Lefty,Bertrand,P,N,US,45.5995,-121.1905,https://upload.wikimedia.org/wikipedia/en/a/a4/Flag_of_the_United_States.svg
575,besanfr01,1930,2015,United States,Roseville,Fred,Besana,P,N,US,39.8187,-82.0792,https://upload.wikimedia.org/wikipedia/en/a/a4/Flag_of_the_United_States.svg
576,beschbo01,1884,1942,United States,London,Bob,Bescher,LF,N,US,35.3744,-93.2736,https://upload.wikimedia.org/wikipedia/en/a/a4/Flag_of_the_United_States.svg
577,bessedo01,1931,1990,United States,Jacksonville,Don,Bessent,P,N,US,33.831,-85.7752,https://upload.wikimedia.org/wikipedia/en/a/a4/Flag_of_the_United_States.svg
578,bessehe01,1911,1972,United States,Los Angeles,Herman,Besse,P,N,US,33.7866,-118.2987,https://upload.wikimedia.org/wikipedia/en/a/a4/Flag_of_the_United_States.svg
579,betchfr01,1888,1981,United States,Wynnewood,Frank,Betcher,SS,N,US,34.6385,-97.177,https://upload.wikimedia.org/wikipedia/en/a/a4/Flag_of_the_United_States.svg
580,bettela01,1905,1978,United States,New Orleans,Larry,Bettencourt,RF,N,US,29.9198,-89.999,https://upload.wikimedia.org/wikipedia/en/a/a4/Flag_of_the_United_States.svg
581,bettsha01,1881,1946,United States,San Antonio,Harry,Betts,P,N,US,28.3371,-82.2882,https://upload.wikimedia.org/wikipedia/en/a/a4/Flag_of_the_United_States.svg
582,bettshu01,1897,1987,United States,Millsboro,Huck,Betts,P,N,US,38.6572,-75.2545,https://upload.wikimedia.org/wikipedia/en/a/a4/Flag_of_the_United_States.svg
583,betzebr01,1894,1965,United States,West Hollywood,Bruno,Betzel,2B,N,US,34.0903,-118.3749,https://upload.wikimedia.org/wikipedia/en/a/a4/Flag_of_the_United_States.svg
584,bevanha01,1930,1968,United States,New Orleans,Hal,Bevan,3B,N,US,29.9198,-89.999,https://upload.wikimedia.org/wikipedia/en/a/a4/Flag_of_the_United_States.svg
585,bevenbi01,1916,1991,United States,Salem,Bill,Bevens,P,N,US,37.2864,-80.0555,https://upload.wikimedia.org/wikipedia/en/a/a4/Flag_of_the_United_States.svg
586,bevilbe01,1877,1937,United States,Yountville,Ben,Beville,P,N,US,38.4016,-122.3608,https://upload.wikimedia.org/wikipedia/en/a/a4/Flag_of_the_United_States.svg
587,bevillo01,1922,1973,United States,Dixon,Lou,Bevil,P,N,US,37.5106,-87.7019,https://upload.wikimedia.org/wikipedia/en/a/a4/Flag_of_the_United_States.svg
588,bevilmo01,1875,1955,United States,Grand Rapids,Monte,Beville,C,N,US,42.8697,-85.6628,https://upload.wikimedia.org/wikipedia/en/a/a4/Flag_of_the_United_States.svg
589,bezdehu99,1883,1952,United States,Atlantic City,Hugo,Bezdek,,N,US,39.3642,-74.4231,https://upload.wikimedia.org/wikipedia/en/a/a4/Flag_of_the_United_States.svg
590,biasaha01,1922,1996,United States,Dearborn,Hank,Biasatti,1B,N,US,42.3127,-83.2129,https://upload.wikimedia.org/wikipedia/en/a/a4/Flag_of_the_United_States.svg
591,bibbyji01,1944,2010,United States,Lynchburg,Jim,Bibby,P,N,US,37.4003,-79.1908,https://upload.wikimedia.org/wikipedia/en/a/a4/Flag_of_the_United_States.svg
592,bicke99,1848,1916,United States,Washington,John,Bickerton,,N,US,38.9047,-77.0163,https://upload.wikimedia.org/wikipedia/en/a/a4/Flag_of_the_United_States.svg
593,bickfve01,1920,1960,United States,Richmond,Vern,Bickford,P,N,US,39.8335,-84.8983,https://upload.wikimedia.org/wikipedia/en/a/a4/Flag_of_the_United_States.svg
594,bickhda01,1864,1951,United States,Dayton,Dan,Bickham,P,N,US,39.1114,-84.4712,https://upload.wikimedia.org/wikipedia/en/a/a4/Flag_of_the_United_States.svg
595,bicknch01,1928,2013,United States,Livingston,Charlie,Bicknell,P,N,US,32.5843,-88.1872,https://upload.wikimedia.org/wikipedia/en/a/a4/Flag_of_the_United_States.svg
596,bielaos01,1847,1911,United States,Washington,Oscar,Bielaski,RF,N,US,38.9047,-77.0163,https://upload.wikimedia.org/wikipedia/en/a/a4/Flag_of_the_United_States.svg
597,biemiha01,1897,1965,United States,Orlando,Harry,Biemiller,P,N,US,28.3774,-81.1888,https://upload.wikimedia.org/wikipedia/en/a/a4/Flag_of_the_United_States.svg
598,bierblo01,1865,1926,United States,Erie,Lou,Bierbauer,2B,N,US,37.6044,-95.2514,https://upload.wikimedia.org/wikipedia/en/a/a4/Flag_of_the_United_States.svg
599,biermch01,1845,1879,United States,Hoboken,Charles,Bierman,1B,N,US,40.7424,-74.0325,https://upload.wikimedia.org/wikipedia/en/a/a4/Flag_of_the_United_States.svg
600,bigbeca01,1895,1964,United States,Portland,Carson,Bigbee,LF,N,US,27.8913,-97.328,https://upload.wikimedia.org/wikipedia/en/a/a4/Flag_of_the_United_States.svg
601,bigbely01,1893,1942,United States,Portland,Lyle,Bigbee,P,N,US,27.8913,-97.328,https://upload.wikimedia.org/wikipedia/en/a/a4/Flag_of_the_United_States.svg
602,bigelel01,1897,1933,United States,Tampa,Elliot,Bigelow,RF,N,US,27.872,-82.4388,https://upload.wikimedia.org/wikipedia/en/a/a4/Flag_of_the_United_States.svg
603,biggsch01,1906,1954,United States,French Lick,Charlie,Biggs,P,N,US,38.5324,-86.6196,https://upload.wikimedia.org/wikipedia/en/a/a4/Flag_of_the_United_States.svg
604,biglepe01,1892,1975,United States,Coldwater,Ivan,Bigler,P,N,US,37.2479,-99.3115,https://upload.wikimedia.org/wikipedia/en/a/a4/Flag_of_the_United_States.svg
605,bignege01,1858,1925,United States,Providence,George,Bignell,C,N,US,37.405,-87.7505,https://upload.wikimedia.org/wikipedia/en/a/a4/Flag_of_the_United_States.svg
606,bilbrji01,1924,1985,United States,Toledo,Jim,Bilbrey,P,N,US,39.2772,-88.2468,https://upload.wikimedia.org/wikipedia/en/a/a4/Flag_of_the_United_States.svg
607,bildiem01,1912,1946,United States,Hartford City,Emil,Bildilli,P,N,US,40.4541,-85.3758,https://upload.wikimedia.org/wikipedia/en/a/a4/Flag_of_the_United_States.svg
608,bilkost01,1928,1978,United States,Wilkes-Barre,Steve,Bilko,1B,N,US,41.2044,-75.9113,https://upload.wikimedia.org/wikipedia/en/a/a4/Flag_of_the_United_States.svg
609,billiha01,1883,1923,United States,Wooster,Harry,Billiard,P,N,US,40.8142,-81.9387,https://upload.wikimedia.org/wikipedia/en/a/a4/Flag_of_the_United_States.svg
610,billijo01,1891,1981,United States,Santa Monica,Josh,Billings,C,N,US,34.0125,-118.4682,https://upload.wikimedia.org/wikipedia/en/a/a4/Flag_of_the_United_States.svg
611,billijo02,1907,1983,United States,Greenbrae,Josh,Billings,P,N,US,37.9479,-122.5363,https://upload.wikimedia.org/wikipedia/en/a/a4/Flag_of_the_United_States.svg
612,binksge01,1914,2010,United States,Woodbury,George,Binks,RF,N,US,32.9813,-84.5986,https://upload.wikimedia.org/wikipedia/en/a/a4/Flag_of_the_United_States.svg
614,birchju01,1855,1887,United States,Philadelphia,Jud,Birchall,LF,N,US,40.0076,-75.134,https://upload.wikimedia.org/wikipedia/en/a/a4/Flag_of_the_United_States.svg
615,birdfr01,1869,1958,United States,Worcester,Frank,Bird,C,N,US,42.2303,-71.7938,https://upload.wikimedia.org/wikipedia/en/a/a4/Flag_of_the_United_States.svg
616,birdge01,1850,1940,United States,Rockford,George,Bird,LF,N,US,32.878,-86.24,https://upload.wikimedia.org/wikipedia/en/a/a4/Flag_of_the_United_States.svg
617,birdre01,1890,1972,United States,Murfreesboro,Red,Bird,P,N,US,35.8493,-86.4098,https://upload.wikimedia.org/wikipedia/en/a/a4/Flag_of_the_United_States.svg
618,birdsda01,1838,1896,United States,Boston,Dave,Birdsall,RF,N,US,37.7408,-85.5948,https://upload.wikimedia.org/wikipedia/en/a/a4/Flag_of_the_United_States.svg
619,birkora01,1908,1971,United States,Cincinnati,Ralph,Birkofer,P,N,US,39.0584,-84.3396,https://upload.wikimedia.org/wikipedia/en/a/a4/Flag_of_the_United_States.svg
620,birreba01,1929,2013,United States,Clarence,Babe,Birrer,P,N,US,41.8896,-91.0605,https://upload.wikimedia.org/wikipedia/en/a/a4/Flag_of_the_United_States.svg
622,bischjo01,1894,1981,United States,Granite City,John,Bischoff,C,N,US,38.731,-90.1097,https://upload.wikimedia.org/wikipedia/en/a/a4/Flag_of_the_United_States.svg
625,bishoch01,1924,1993,United States,Lawrenceville,Charlie,Bishop,P,N,US,33.9367,-83.9573,https://upload.wikimedia.org/wikipedia/en/a/a4/Flag_of_the_United_States.svg
626,bishofr01,1856,1929,United States,Chicago,Frank,Bishop,3B,N,US,41.6642,-87.5612,https://upload.wikimedia.org/wikipedia/en/a/a4/Flag_of_the_United_States.svg
627,bishoji01,1898,1973,United States,Montgomery City,Jim,Bishop,P,N,US,38.9839,-91.5085,https://upload.wikimedia.org/wikipedia/en/a/a4/Flag_of_the_United_States.svg
628,bisholl01,1890,1968,United States,Wichita,Lloyd,Bishop,P,N,US,37.553,-97.2549,https://upload.wikimedia.org/wikipedia/en/a/a4/Flag_of_the_United_States.svg
629,bishoma01,1899,1962,United States,Waynesboro,Max,Bishop,2B,N,US,33.1013,-81.9908,https://upload.wikimedia.org/wikipedia/en/a/a4/Flag_of_the_United_States.svg
630,bishomi01,1958,2005,United States,Bakersfield,Mike,Bishop,C,N,US,35.2944,-118.9052,https://upload.wikimedia.org/wikipedia/en/a/a4/Flag_of_the_United_States.svg
631,bissode01,1899,1972,United States,Augusta,Del,Bissonette,1B,N,US,35.2788,-91.3527,https://upload.wikimedia.org/wikipedia/en/a/a4/Flag_of_the_United_States.svg
632,bittmre01,1862,1929,United States,Cincinnati,Red,Bittmann,2B,N,US,39.0584,-84.3396,https://upload.wikimedia.org/wikipedia/en/a/a4/Flag_of_the_United_States.svg
633,bivinji01,1909,1982,United States,Pueblo,Jim,Bivin,P,N,US,38.2366,-104.6593,https://upload.wikimedia.org/wikipedia/en/a/a4/Flag_of_the_United_States.svg
634,blackbi01,1899,1968,United States,Philadelphia,Bill,Black,2B,N,US,40.0076,-75.134,https://upload.wikimedia.org/wikipedia/en/a/a4/Flag_of_the_United_States.svg
635,blackbo01,1862,1933,United States,Sioux City,Bob,Black,P,N,US,42.3684,-96.318,https://upload.wikimedia.org/wikipedia/en/a/a4/Flag_of_the_United_States.svg
637,blackch01,1895,1984,United States,New Port Richey,Charlie,Blackburn,P,N,US,28.2137,-82.6809,https://upload.wikimedia.org/wikipedia/en/a/a4/Flag_of_the_United_States.svg
638,blackda01,1893,1959,United States,Chicago,Dave,Black,P,N,US,41.6642,-87.5612,https://upload.wikimedia.org/wikipedia/en/a/a4/Flag_of_the_United_States.svg
639,blackdo01,1916,1959,United States,Cuyahoga Falls,Don,Black,P,N,US,41.141,-81.4768,https://upload.wikimedia.org/wikipedia/en/a/a4/Flag_of_the_United_States.svg
640,blackea01,1892,1966,United States,Mansfield,Earl,Blackburn,C,N,US,33.4314,-83.7908,https://upload.wikimedia.org/wikipedia/en/a/a4/Flag_of_the_United_States.svg
641,blackew01,1922,1996,United States,Hendersonville,Ewell,Blackwell,P,N,US,35.2927,-82.5036,https://upload.wikimedia.org/wikipedia/en/a/a4/Flag_of_the_United_States.svg
642,blackfr01,1891,1975,United States,Morgantown,Fred,Blackwell,C,N,US,39.3628,-86.2803,https://upload.wikimedia.org/wikipedia/en/a/a4/Flag_of_the_United_States.svg
643,blackge02,1903,1987,United States,Wichita Falls,George,Blackerby,LF,N,US,33.8581,-98.5755,https://upload.wikimedia.org/wikipedia/en/a/a4/Flag_of_the_United_States.svg
644,blackji01,1924,1969,United States,Cincinnati,Jim,Blackburn,P,N,US,39.0584,-84.3396,https://upload.wikimedia.org/wikipedia/en/a/a4/Flag_of_the_United_States.svg
645,blackjo01,1890,1962,United States,Rutherford,John,Black,1B,N,US,36.13,-88.9849,https://upload.wikimedia.org/wikipedia/en/a/a4/Flag_of_the_United_States.svg
646,blackjo02,1924,2002,United States,Scottsdale,Joe,Black,P,N,US,33.4669,-111.9151,https://upload.wikimedia.org/wikipedia/en/a/a4/Flag_of_the_United_States.svg
647,blackle01,1886,1968,United States,Riverside,Lena,Blackburne,SS,N,US,33.6166,-86.1996,https://upload.wikimedia.org/wikipedia/en/a/a4/Flag_of_the_United_States.svg
648,blackro01,1935,1998,United States,Morganton,Ron,Blackburn,P,N,US,34.8714,-84.2115,https://upload.wikimedia.org/wikipedia/en/a/a4/Flag_of_the_United_States.svg
649,bladera01,1896,1979,United States,Lincoln,Ray,Blades,LF,N,US,33.6059,-86.1112,https://upload.wikimedia.org/wikipedia/en/a/a4/Flag_of_the_United_States.svg
650,blaehge01,1904,1947,United States,Garden Grove,George,Blaeholder,P,N,US,33.7787,-117.9601,https://upload.wikimedia.org/wikipedia/en/a/a4/Flag_of_the_United_States.svg
651,blaemra01,1911,1975,United States,Champaign,Rae,Blaemire,C,N,US,40.1016,-88.2822,https://upload.wikimedia.org/wikipedia/en/a/a4/Flag_of_the_United_States.svg
652,blairbi01,1863,1890,United States,Pittsburgh,Bill,Blair,P,N,US,40.3323,-80.081,https://upload.wikimedia.org/wikipedia/en/a/a4/Flag_of_the_United_States.svg
653,blairbu01,1910,1996,United States,Monroe,Buddy,Blair,3B,N,US,33.7883,-83.7013,https://upload.wikimedia.org/wikipedia/en/a/a4/Flag_of_the_United_States.svg
654,blairfo01,1900,1982,United States,Texarkana,Footsie,Blair,2B,N,US,33.431,-93.8765,https://upload.wikimedia.org/wikipedia/en/a/a4/Flag_of_the_United_States.svg
655,blairpa01,1944,2013,United States,Baltimore,Paul,Blair,LF,N,US,39.2293,-76.6907,https://upload.wikimedia.org/wikipedia/en/a/a4/Flag_of_the_United_States.svg
656,blairwa01,1883,1948,United States,Lewisburg,Walter,Blair,C,N,US,37.0037,-86.9887,https://upload.wikimedia.org/wikipedia/en/a/a4/Flag_of_the_United_States.svg
657,blaisdi01,1862,1886,United States,Malden,Dick,Blaisdell,P,N,US,36.5672,-89.9737,https://upload.wikimedia.org/wikipedia/en/a/a4/Flag_of_the_United_States.svg
